[{"storeNumber":"100","address":{"name":"dm-drogerie markt d.o.o.","street":"Av. Dubrovnik 16","streetAdditional":"ZG-SC AVENUE MALL","zip":"10000","city":"ZAGREB"},"location":{"lat":45.7769,"lon":15.97927},"openingHours":[{"weekDay":1,"timeRanges":[{"opening":"08:00","closing":"22:00"}]},{"weekDay":2,"timeRanges":[{"opening":"08:00","closing":"22:00"}]},{"weekDay":3,"timeRanges":[{"opening":"08:00","closing":"22:00"}]},{"weekDay":4,"timeRanges":[{"opening":"08:00","closing":"22:00"}]},{"weekDay":5,"timeRanges":[{"opening":"08:00","closing":"22:00"}]},{"weekDay":6,"timeRanges":[{"opening":"08:00","closing":"22:00"}]},{"weekDay":7,"timeRanges":[{"opening":"09:00","closing":"21:00"}]}]},{"storeNumber":"101","address":{"name":"dm-drogerie markt d.o.o.","street":"Zagreba\u010dka av. 100 A","streetAdditional":"ZG-HOTEL ANTUNOVIC","zip":"10000","city":"ZAGREB"},"location":{"lat":45.79756,"lon":15.8985},"openingHours":[{"weekDay":1,"timeRanges":[{"opening":"09:00","closing":"21:00"}]},{"weekDay":2,"timeRanges":[{"opening":"09:00","closing":"21:00"}]},{"weekDay":3,"timeRanges":[{"opening":"09:00","closing":"21:00"}]},{"weekDay":4,"timeRanges":[{"opening":"09:00","closing":"21:00"}]},{"weekDay":5,"timeRanges":[{"opening":"09:00","closing":"21:00"}]},{"weekDay":6,"timeRanges":[{"opening":"09:00","closing":"20:00"}]}]},{"storeNumber":"102","address":{"name":"dm-drogerie markt d.o.o.","street":"Trg Ane Rukavine 1","streetAdditional":"ZG-TRNSKO","zip":"10000","city":"ZAGREB"},"location":{"lat":45.77255,"lon":15.96476},"openingHours":[{"weekDay":1,"timeRanges":[{"opening":"08:00","closing":"20:00"}]},{"weekDay":2,"timeRanges":[{"opening":"08:00","closing":"20:00"}]},{"weekDay":3,"timeRanges":[{"opening":"08:00","closing":"20:00"}]},{"weekDay":4,"timeRanges":[{"opening":"08:00","closing":"20:00"}]},{"weekDay":5,"timeRanges":[{"opening":"08:00","closing":"20:00"}]},{"weekDay":6,"timeRanges":[{"opening":"08:00","closing":"20:00"}]}]},{"storeNumber":"103","address":{"name":"dm-drogerie markt d.o.o.","street":"Put Brodarice 6","streetAdditional":"ST-SC JOKER","zip":"21000","city":"SPLIT"},"location":{"lat":43.52005,"lon":16.44599},"openingHours":[{"weekDay":1,"timeRanges":[{"opening":"08:00","closing":"21:00"}]},{"weekDay":2,"timeRanges":[{"opening":"08:00","closing":"21:00"}]},{"weekDay":3,"timeRanges":[{"opening":"08:00","closing":"21:00"}]},{"weekDay":4,"timeRanges":[{"opening":"08:00","closing":"21:00"}]},{"weekDay":5,"timeRanges":[{"opening":"08:00","closing":"21:00"}]},{"weekDay":6,"timeRanges":[{"opening":"08:00","closing":"21:00"}]},{"weekDay":7,"timeRanges":[{"opening":"09:00","closing":"21:00"}]}]},{"storeNumber":"104","address":{"name":"dm-drogerie markt d.o.o.","street":"I. Fistrovi\u0107a 23","streetAdditional":"SISAK-SC SUPERNOVA EAST","zip":"44000","city":"SISAK"},"location":{"lat":45.49453,"lon":16.37892},"openingHours":[{"weekDay":1,"timeRanges":[{"opening":"08:00","closing":"21:00"}]},{"weekDay":2,"timeRanges":[{"opening":"08:00","closing":"21:00"}]},{"weekDay":3,"timeRanges":[{"opening":"08:00","closing":"21:00"}]},{"weekDay":4,"timeRanges":[{"opening":"08:00","closing":"21:00"}]},{"weekDay":5,"timeRanges":[{"opening":"08:00","closing":"21:00"}]},{"weekDay":6,"timeRanges":[{"opening":"08:00","closing":"21:00"}]},{"weekDay":7,"timeRanges":[{"opening":"08:00","closing":"14:00"}]}]},{"storeNumber":"105","address":{"name":"dm-drogerie markt d.o.o.","street":"Ribarska 4 i 6","streetAdditional":"OS-SC ESSEKER CENTAR","zip":"31000","city":"OSIJEK"},"location":{"lat":45.5622988,"lon":18.6774055},"openingHours":[{"weekDay":1,"timeRanges":[{"opening":"08:00","closing":"20:00"}]},{"weekDay":2,"timeRanges":[{"opening":"08:00","closing":"20:00"}]},{"weekDay":3,"timeRanges":[{"opening":"08:00","closing":"20:00"}]},{"weekDay":4,"timeRanges":[{"opening":"08:00","closing":"20:00"}]},{"weekDay":5,"timeRanges":[{"opening":"08:00","closing":"20:00"}]},{"weekDay":6,"timeRanges":[{"opening":"08:00","closing":"14:00"}]}]},{"storeNumber":"106","address":{"name":"dm-drogerie markt d.o.o.","street":"J. P. Kamova 81\/a","streetAdditional":"RI-SC TOWER CENTAR","zip":"51000","city":"RIJEKA"},"location":{"lat":45.31795,"lon":14.46875},"openingHours":[{"weekDay":1,"timeRanges":[{"opening":"09:00","closing":"21:00"}]},{"weekDay":2,"timeRanges":[{"opening":"09:00","closing":"21:00"}]},{"weekDay":3,"timeRanges":[{"opening":"09:00","closing":"21:00"}]},{"weekDay":4,"timeRanges":[{"opening":"09:00","closing":"21:00"}]},{"weekDay":5,"timeRanges":[{"opening":"09:00","closing":"21:00"}]},{"weekDay":6,"timeRanges":[{"opening":"09:00","closing":"21:00"}]},{"weekDay":7,"timeRanges":[{"opening":"10:00","closing":"21:00"}]}]},{"storeNumber":"107","address":{"name":"dm-drogerie markt d.o.o.","street":"Hr.narodnog preporoda 2","streetAdditional":"SISAK-CAPRAG","zip":"44000","city":"SISAK"},"location":{"lat":45.45784,"lon":16.38804},"openingHours":[{"weekDay":1,"timeRanges":[{"opening":"08:00","closing":"20:00"}]},{"weekDay":2,"timeRanges":[{"opening":"08:00","closing":"20:00"}]},{"weekDay":3,"timeRanges":[{"opening":"08:00","closing":"20:00"}]},{"weekDay":4,"timeRanges":[{"opening":"08:00","closing":"20:00"}]},{"weekDay":5,"timeRanges":[{"opening":"08:00","closing":"20:00"}]},{"weekDay":6,"timeRanges":[{"opening":"08:00","closing":"14:00"}]}]},{"storeNumber":"108","address":{"name":"dm-drogerie markt d.o.o.","street":"Duga ulica 26","streetAdditional":"VINKOVCI-SC VSC","zip":"32100","city":"VINKOVCI"},"location":{"lat":45.288554,"lon":18.8003737},"openingHours":[{"weekDay":1,"timeRanges":[{"opening":"08:00","closing":"20:00"}]},{"weekDay":2,"timeRanges":[{"opening":"08:00","closing":"20:00"}]},{"weekDay":3,"timeRanges":[{"opening":"08:00","closing":"20:00"}]},{"weekDay":4,"timeRanges":[{"opening":"08:00","closing":"20:00"}]},{"weekDay":5,"timeRanges":[{"opening":"08:00","closing":"20:00"}]},{"weekDay":6,"timeRanges":[{"opening":"08:00","closing":"20:00"}]}]},{"storeNumber":"11","address":{"name":"dm-drogerie markt d.o.o.","street":"Gajeva 19","streetAdditional":"SAMOBOR-CENTAR-GAJEVA","zip":"10430","city":"SAMOBOR"},"location":{"lat":45.8037076,"lon":15.7113791},"openingHours":[{"weekDay":1,"timeRanges":[{"opening":"08:00","closing":"20:00"}]},{"weekDay":2,"timeRanges":[{"opening":"08:00","closing":"20:00"}]},{"weekDay":3,"timeRanges":[{"opening":"08:00","closing":"20:00"}]},{"weekDay":4,"timeRanges":[{"opening":"08:00","closing":"20:00"}]},{"weekDay":5,"timeRanges":[{"opening":"08:00","closing":"20:00"}]},{"weekDay":6,"timeRanges":[{"opening":"08:00","closing":"14:00"}]}]},{"storeNumber":"110","address":{"name":"dm-drogerie markt d.o.o.","street":"Ivana Gunduli\u0107a 19","streetAdditional":"METKOVIC","zip":"20350","city":"METKOVI\u0106"},"location":{"lat":43.0541189,"lon":17.6478698},"openingHours":[{"weekDay":1,"timeRanges":[{"opening":"08:00","closing":"21:00"}]},{"weekDay":2,"timeRanges":[{"opening":"08:00","closing":"21:00"}]},{"weekDay":3,"timeRanges":[{"opening":"08:00","closing":"21:00"}]},{"weekDay":4,"timeRanges":[{"opening":"08:00","closing":"21:00"}]},{"weekDay":5,"timeRanges":[{"opening":"08:00","closing":"21:00"}]},{"weekDay":6,"timeRanges":[{"opening":"08:00","closing":"18:00"}]}]},{"storeNumber":"111","address":{"name":"dm-drogerie markt d.o.o.","street":"Fra Pavla Vu\u010dkovi\u0107a 17","streetAdditional":"SINJ-LIDL","zip":"21230","city":"SINJ"},"location":{"lat":43.69558,"lon":16.64146},"openingHours":[{"weekDay":1,"timeRanges":[{"opening":"08:00","closing":"21:00"}]},{"weekDay":2,"timeRanges":[{"opening":"08:00","closing":"21:00"}]},{"weekDay":3,"timeRanges":[{"opening":"08:00","closing":"21:00"}]},{"weekDay":4,"timeRanges":[{"opening":"08:00","closing":"21:00"}]},{"weekDay":5,"timeRanges":[{"opening":"08:00","closing":"21:00"}]},{"weekDay":6,"timeRanges":[{"opening":"08:00","closing":"20:00"}]}]},{"storeNumber":"113","address":{"name":"dm-drogerie markt d.o.o.","street":"Ul. poginulih branitelja 2","streetAdditional":"VRBOVEC","zip":"10340","city":"VRBOVEC"},"location":{"lat":45.88444,"lon":16.41896},"openingHours":[{"weekDay":1,"timeRanges":[{"opening":"08:00","closing":"20:00"}]},{"weekDay":2,"timeRanges":[{"opening":"08:00","closing":"20:00"}]},{"weekDay":3,"timeRanges":[{"opening":"08:00","closing":"20:00"}]},{"weekDay":4,"timeRanges":[{"opening":"08:00","closing":"20:00"}]},{"weekDay":5,"timeRanges":[{"opening":"08:00","closing":"20:00"}]},{"weekDay":6,"timeRanges":[{"opening":"08:00","closing":"17:00"}]}]},{"storeNumber":"114","address":{"name":"dm-drogerie markt d.o.o.","street":"\u0160etali\u0161te kneza Branimira 12","streetAdditional":"BIOGRAD NA MORU","zip":"23210","city":"BIOGRAD N\/M"},"location":{"lat":43.9384451,"lon":15.4443302},"openingHours":[{"weekDay":1,"timeRanges":[{"opening":"08:00","closing":"22:00"}]},{"weekDay":2,"timeRanges":[{"opening":"08:00","closing":"22:00"}]},{"weekDay":3,"timeRanges":[{"opening":"08:00","closing":"22:00"}]},{"weekDay":4,"timeRanges":[{"opening":"08:00","closing":"22:00"}]},{"weekDay":5,"timeRanges":[{"opening":"08:00","closing":"22:00"}]},{"weekDay":6,"timeRanges":[{"opening":"08:00","closing":"21:00"}]},{"weekDay":7,"timeRanges":[{"opening":"08:00","closing":"14:00"}]}]},{"storeNumber":"115","address":{"name":"dm-drogerie markt d.o.o.","street":"Hrv. branitelja 3","streetAdditional":"NOVI VINODOLSKI","zip":"51250","city":"NOVI VINODOLSKI"},"location":{"lat":45.12825,"lon":14.79007},"openingHours":[{"weekDay":1,"timeRanges":[{"opening":"08:00","closing":"23:00"}]},{"weekDay":2,"timeRanges":[{"opening":"08:00","closing":"23:00"}]},{"weekDay":3,"timeRanges":[{"opening":"08:00","closing":"23:00"}]},{"weekDay":4,"timeRanges":[{"opening":"08:00","closing":"23:00"}]},{"weekDay":5,"timeRanges":[{"opening":"08:00","closing":"23:00"}]},{"weekDay":6,"timeRanges":[{"opening":"08:00","closing":"23:00"}]},{"weekDay":7,"timeRanges":[{"opening":"08:00","closing":"23:00"}]}]},{"storeNumber":"116","address":{"name":"dm-drogerie markt d.o.o.","street":"Avenija Dubrava 216","streetAdditional":"ZG-AVENIJA DUBRAVA","zip":"10000","city":"ZAGREB"},"location":{"lat":45.82865,"lon":16.06434},"openingHours":[{"weekDay":1,"timeRanges":[{"opening":"08:00","closing":"20:00"}]},{"weekDay":2,"timeRanges":[{"opening":"08:00","closing":"20:00"}]},{"weekDay":3,"timeRanges":[{"opening":"08:00","closing":"20:00"}]},{"weekDay":4,"timeRanges":[{"opening":"08:00","closing":"20:00"}]},{"weekDay":5,"timeRanges":[{"opening":"08:00","closing":"20:00"}]},{"weekDay":6,"timeRanges":[{"opening":"08:00","closing":"15:00"}]}]},{"storeNumber":"117","address":{"name":"dm-drogerie markt d.o.o.","street":"Trg kralja Tomislava 2 i 4","streetAdditional":"PULA-VERUDA","zip":"52100","city":"PULA"},"location":{"lat":44.85698,"lon":13.83848},"openingHours":[{"weekDay":1,"timeRanges":[{"opening":"08:00","closing":"21:00"}]},{"weekDay":2,"timeRanges":[{"opening":"08:00","closing":"21:00"}]},{"weekDay":3,"timeRanges":[{"opening":"08:00","closing":"21:00"}]},{"weekDay":4,"timeRanges":[{"opening":"08:00","closing":"21:00"}]},{"weekDay":5,"timeRanges":[{"opening":"08:00","closing":"21:00"}]},{"weekDay":6,"timeRanges":[{"opening":"08:00","closing":"15:00"}]},{"weekDay":7,"timeRanges":[{"opening":"08:00","closing":"14:00"}]}]},{"storeNumber":"118","address":{"name":"dm-drogerie markt d.o.o.","street":"Osje\u010dka 284","streetAdditional":"SLAVONSKI BROD-TC SUPERNOVA","zip":"35000","city":"SLAVONSKI BROD"},"location":{"lat":45.1739347,"lon":18.0522056},"openingHours":[{"weekDay":1,"timeRanges":[{"opening":"08:00","closing":"21:00"}]},{"weekDay":2,"timeRanges":[{"opening":"08:00","closing":"21:00"}]},{"weekDay":3,"timeRanges":[{"opening":"08:00","closing":"21:00"}]},{"weekDay":4,"timeRanges":[{"opening":"08:00","closing":"21:00"}]},{"weekDay":5,"timeRanges":[{"opening":"08:00","closing":"21:00"}]},{"weekDay":6,"timeRanges":[{"opening":"08:00","closing":"21:00"}]},{"weekDay":7,"timeRanges":[{"opening":"08:00","closing":"14:00"}]}]},{"storeNumber":"119","address":{"name":"dm-drogerie markt d.o.o.","street":"Rudolfa Kolaka 14","streetAdditional":"ZG-SC SUPERNOVA GARDEN MALL","zip":"10000","city":"ZAGREB"},"location":{"lat":45.8358324,"lon":16.0465397},"openingHours":[{"weekDay":1,"timeRanges":[{"opening":"09:00","closing":"21:00"}]},{"weekDay":2,"timeRanges":[{"opening":"09:00","closing":"21:00"}]},{"weekDay":3,"timeRanges":[{"opening":"09:00","closing":"21:00"}]},{"weekDay":4,"timeRanges":[{"opening":"09:00","closing":"21:00"}]},{"weekDay":5,"timeRanges":[{"opening":"09:00","closing":"21:00"}]},{"weekDay":6,"timeRanges":[{"opening":"09:00","closing":"21:00"}]},{"weekDay":7,"timeRanges":[{"opening":"09:00","closing":"21:00"}]}]},{"storeNumber":"12","address":{"name":"dm-drogerie markt d.o.o.","street":"Trg S.Radi\u0107a 12","streetAdditional":"VELIKA GORICA","zip":"10410","city":"VELIKA GORICA"},"location":{"lat":45.7121819,"lon":16.0664843},"openingHours":[{"weekDay":1,"timeRanges":[{"opening":"08:00","closing":"20:00"}]},{"weekDay":2,"timeRanges":[{"opening":"08:00","closing":"20:00"}]},{"weekDay":3,"timeRanges":[{"opening":"08:00","closing":"20:00"}]},{"weekDay":4,"timeRanges":[{"opening":"08:00","closing":"20:00"}]},{"weekDay":5,"timeRanges":[{"opening":"08:00","closing":"20:00"}]},{"weekDay":6,"timeRanges":[{"opening":"08:00","closing":"14:00"}]}]},{"storeNumber":"120","address":{"name":"dm-drogerie markt d.o.o.","street":"Obala dr. Franje Tu\u0111mana 5","streetAdditional":"SENJ","zip":"53270","city":"SENJ"},"location":{"lat":44.9910814,"lon":14.9012471},"openingHours":[{"weekDay":1,"timeRanges":[{"opening":"08:00","closing":"23:00"}]},{"weekDay":2,"timeRanges":[{"opening":"08:00","closing":"23:00"}]},{"weekDay":3,"timeRanges":[{"opening":"08:00","closing":"23:00"}]},{"weekDay":4,"timeRanges":[{"opening":"08:00","closing":"23:00"}]},{"weekDay":5,"timeRanges":[{"opening":"08:00","closing":"23:00"}]},{"weekDay":6,"timeRanges":[{"opening":"08:00","closing":"23:00"}]},{"weekDay":7,"timeRanges":[{"opening":"08:00","closing":"23:00"}]}]},{"storeNumber":"121","address":{"name":"dm-drogerie markt d.o.o.","street":"Bra\u0107e Radi\u0107a 2","streetAdditional":"NASICE-RADICEVA","zip":"31500","city":"NA\u0160ICE"},"location":{"lat":45.49048,"lon":18.0945},"openingHours":[{"weekDay":1,"timeRanges":[{"opening":"08:00","closing":"20:00"}]},{"weekDay":2,"timeRanges":[{"opening":"08:00","closing":"20:00"}]},{"weekDay":3,"timeRanges":[{"opening":"08:00","closing":"20:00"}]},{"weekDay":4,"timeRanges":[{"opening":"08:00","closing":"20:00"}]},{"weekDay":5,"timeRanges":[{"opening":"08:00","closing":"20:00"}]},{"weekDay":6,"timeRanges":[{"opening":"08:00","closing":"14:00"}]}]},{"storeNumber":"123","address":{"name":"dm-drogerie markt d.o.o.","street":"Trajektno pristani\u0161te 2","streetAdditional":"HVAR-TC KERUM","zip":"21460","city":"STARI GRAD"},"location":{"lat":43.17962,"lon":16.57644},"openingHours":[{"weekDay":1,"timeRanges":[{"opening":"07:00","closing":"22:00"}]},{"weekDay":2,"timeRanges":[{"opening":"07:00","closing":"22:00"}]},{"weekDay":3,"timeRanges":[{"opening":"07:00","closing":"22:00"}]},{"weekDay":4,"timeRanges":[{"opening":"07:00","closing":"22:00"}]},{"weekDay":5,"timeRanges":[{"opening":"07:00","closing":"22:00"}]},{"weekDay":6,"timeRanges":[{"opening":"07:00","closing":"22:00"}]},{"weekDay":7,"timeRanges":[{"opening":"08:00","closing":"21:00"}]}]},{"storeNumber":"125","address":{"name":"dm-drogerie markt d.o.o.","street":"Koprivni\u010dka 17","streetAdditional":"VARAZDIN-TC KAUFLAND","zip":"42000","city":"VARA\u017dDIN"},"location":{"lat":46.31515,"lon":16.33689},"openingHours":[{"weekDay":1,"timeRanges":[{"opening":"07:00","closing":"21:00"}]},{"weekDay":2,"timeRanges":[{"opening":"07:00","closing":"21:00"}]},{"weekDay":3,"timeRanges":[{"opening":"07:00","closing":"21:00"}]},{"weekDay":4,"timeRanges":[{"opening":"07:00","closing":"21:00"}]},{"weekDay":5,"timeRanges":[{"opening":"07:00","closing":"21:00"}]},{"weekDay":6,"timeRanges":[{"opening":"07:00","closing":"21:00"}]},{"weekDay":7,"timeRanges":[{"opening":"08:00","closing":"14:00"}]}]},{"storeNumber":"126","address":{"name":"dm-drogerie markt d.o.o.","street":"Davorina Bazjanca 1","streetAdditional":"ZG-KNEZIJA","zip":"10000","city":"ZAGREB"},"location":{"lat":45.79261,"lon":15.95122},"openingHours":[{"weekDay":1,"timeRanges":[{"opening":"08:00","closing":"20:00"}]},{"weekDay":2,"timeRanges":[{"opening":"08:00","closing":"20:00"}]},{"weekDay":3,"timeRanges":[{"opening":"08:00","closing":"20:00"}]},{"weekDay":4,"timeRanges":[{"opening":"08:00","closing":"20:00"}]},{"weekDay":5,"timeRanges":[{"opening":"08:00","closing":"20:00"}]},{"weekDay":6,"timeRanges":[{"opening":"08:00","closing":"15:00"}]}]},{"storeNumber":"127","address":{"name":"dm-drogerie markt d.o.o.","street":"Augustina Vivode 1","streetAdditional":"BUZET","zip":"52420","city":"BUZET"},"location":{"lat":45.40712,"lon":13.96279},"openingHours":[{"weekDay":1,"timeRanges":[{"opening":"08:00","closing":"20:00"}]},{"weekDay":2,"timeRanges":[{"opening":"08:00","closing":"20:00"}]},{"weekDay":3,"timeRanges":[{"opening":"08:00","closing":"20:00"}]},{"weekDay":4,"timeRanges":[{"opening":"08:00","closing":"20:00"}]},{"weekDay":5,"timeRanges":[{"opening":"08:00","closing":"20:00"}]},{"weekDay":6,"timeRanges":[{"opening":"08:00","closing":"14:00"}]}]},{"storeNumber":"128","address":{"name":"dm-drogerie markt d.o.o.","street":"Vukovarska 87","streetAdditional":"RI-TC PLODINE","zip":"51000","city":"RIJEKA"},"location":{"lat":45.342616,"lon":14.4135926},"openingHours":[{"weekDay":1,"timeRanges":[{"opening":"08:00","closing":"21:00"}]},{"weekDay":2,"timeRanges":[{"opening":"08:00","closing":"21:00"}]},{"weekDay":3,"timeRanges":[{"opening":"08:00","closing":"21:00"}]},{"weekDay":4,"timeRanges":[{"opening":"08:00","closing":"21:00"}]},{"weekDay":5,"timeRanges":[{"opening":"08:00","closing":"21:00"}]},{"weekDay":6,"timeRanges":[{"opening":"08:00","closing":"20:00"}]},{"weekDay":7,"timeRanges":[{"opening":"09:00","closing":"14:00"}]}]},{"storeNumber":"131","address":{"name":"dm-drogerie markt d.o.o.","street":"\u0160etali\u0161te dr. Franje Tu\u0111mana 1","streetAdditional":"MAKARSKA","zip":"21300","city":"MAKARSKA"},"location":{"lat":43.2956338,"lon":17.0152845},"openingHours":[{"weekDay":1,"timeRanges":[{"opening":"08:00","closing":"23:59"}]},{"weekDay":2,"timeRanges":[{"opening":"08:00","closing":"23:59"}]},{"weekDay":3,"timeRanges":[{"opening":"08:00","closing":"23:59"}]},{"weekDay":4,"timeRanges":[{"opening":"08:00","closing":"23:59"}]},{"weekDay":5,"timeRanges":[{"opening":"08:00","closing":"23:59"}]},{"weekDay":6,"timeRanges":[{"opening":"08:00","closing":"23:59"}]},{"weekDay":7,"timeRanges":[{"opening":"09:00","closing":"23:59"}]}]},{"storeNumber":"132","address":{"name":"dm-drogerie markt d.o.o.","street":"Vladimira Nazora 4","streetAdditional":"SLATINA","zip":"33520","city":"SLATINA"},"location":{"lat":45.7030112,"lon":17.7014833},"openingHours":[{"weekDay":1,"timeRanges":[{"opening":"08:00","closing":"20:00"}]},{"weekDay":2,"timeRanges":[{"opening":"08:00","closing":"20:00"}]},{"weekDay":3,"timeRanges":[{"opening":"08:00","closing":"20:00"}]},{"weekDay":4,"timeRanges":[{"opening":"08:00","closing":"20:00"}]},{"weekDay":5,"timeRanges":[{"opening":"08:00","closing":"20:00"}]},{"weekDay":6,"timeRanges":[{"opening":"08:00","closing":"14:00"}]}]},{"storeNumber":"133","address":{"name":"dm-drogerie markt d.o.o.","street":"Ante Star\u010devi\u0107a 4","streetAdditional":"RI-KORZO-STARCEVICA","zip":"51000","city":"RIJEKA"},"location":{"lat":45.32599,"lon":14.44531},"openingHours":[{"weekDay":1,"timeRanges":[{"opening":"08:00","closing":"21:00"}]},{"weekDay":2,"timeRanges":[{"opening":"08:00","closing":"21:00"}]},{"weekDay":3,"timeRanges":[{"opening":"08:00","closing":"21:00"}]},{"weekDay":4,"timeRanges":[{"opening":"08:00","closing":"21:00"}]},{"weekDay":5,"timeRanges":[{"opening":"08:00","closing":"21:00"}]},{"weekDay":6,"timeRanges":[{"opening":"08:00","closing":"15:00"}]}]},{"storeNumber":"134","address":{"name":"dm-drogerie markt d.o.o.","street":"Avenija Ve\u0107eslava Holjevca 62","streetAdditional":"ZG-SC SUPERNOVA BUZIN","zip":"10000","city":"ZAGREB"},"location":{"lat":45.7547481,"lon":15.987768},"openingHours":[{"weekDay":1,"timeRanges":[{"opening":"09:00","closing":"21:00"}]},{"weekDay":2,"timeRanges":[{"opening":"09:00","closing":"21:00"}]},{"weekDay":3,"timeRanges":[{"opening":"09:00","closing":"21:00"}]},{"weekDay":4,"timeRanges":[{"opening":"09:00","closing":"21:00"}]},{"weekDay":5,"timeRanges":[{"opening":"09:00","closing":"21:00"}]},{"weekDay":6,"timeRanges":[{"opening":"09:00","closing":"21:00"}]},{"weekDay":7,"timeRanges":[{"opening":"09:00","closing":"21:00"}]}]},{"storeNumber":"135","address":{"name":"dm-drogerie markt d.o.o.","street":"Ulica Vice Vukova 6","streetAdditional":"ZG-SC ARENA","zip":"10000","city":"ZAGREB"},"location":{"lat":45.77034,"lon":15.94007},"openingHours":[{"weekDay":1,"timeRanges":[{"opening":"09:00","closing":"21:00"}]},{"weekDay":2,"timeRanges":[{"opening":"09:00","closing":"21:00"}]},{"weekDay":3,"timeRanges":[{"opening":"09:00","closing":"21:00"}]},{"weekDay":4,"timeRanges":[{"opening":"09:00","closing":"21:00"}]},{"weekDay":5,"timeRanges":[{"opening":"09:00","closing":"21:00"}]},{"weekDay":6,"timeRanges":[{"opening":"09:00","closing":"21:00"}]},{"weekDay":7,"timeRanges":[{"opening":"09:00","closing":"21:00"}]}]},{"storeNumber":"136","address":{"name":"dm-drogerie markt d.o.o.","street":"Trg kralja Tomislava 3","streetAdditional":"VALPOVO","zip":"31550","city":"VALPOVO"},"location":{"lat":45.6583684,"lon":18.4173884},"openingHours":[{"weekDay":1,"timeRanges":[{"opening":"08:00","closing":"20:00"}]},{"weekDay":2,"timeRanges":[{"opening":"08:00","closing":"20:00"}]},{"weekDay":3,"timeRanges":[{"opening":"08:00","closing":"20:00"}]},{"weekDay":4,"timeRanges":[{"opening":"08:00","closing":"20:00"}]},{"weekDay":5,"timeRanges":[{"opening":"08:00","closing":"20:00"}]},{"weekDay":6,"timeRanges":[{"opening":"08:00","closing":"14:00"}]}]},{"storeNumber":"137","address":{"name":"dm-drogerie markt d.o.o.","street":"Spin\u010di\u0107eva 2b","streetAdditional":"ST-LAZARICA","zip":"21000","city":"SPLIT"},"location":{"lat":43.50486,"lon":16.45598},"openingHours":[{"weekDay":1,"timeRanges":[{"opening":"08:00","closing":"21:00"}]},{"weekDay":2,"timeRanges":[{"opening":"08:00","closing":"21:00"}]},{"weekDay":3,"timeRanges":[{"opening":"08:00","closing":"21:00"}]},{"weekDay":4,"timeRanges":[{"opening":"08:00","closing":"21:00"}]},{"weekDay":5,"timeRanges":[{"opening":"08:00","closing":"21:00"}]},{"weekDay":6,"timeRanges":[{"opening":"08:00","closing":"21:00"}]}]},{"storeNumber":"138","address":{"name":"dm-drogerie markt d.o.o.","street":"Gospodarska 1","streetAdditional":"KOPRIVNICA-SC SUPERNOVA","zip":"48000","city":"KOPRIVNICA"},"location":{"lat":46.146629,"lon":16.834964},"openingHours":[{"weekDay":1,"timeRanges":[{"opening":"08:00","closing":"21:00"}]},{"weekDay":2,"timeRanges":[{"opening":"08:00","closing":"21:00"}]},{"weekDay":3,"timeRanges":[{"opening":"08:00","closing":"21:00"}]},{"weekDay":4,"timeRanges":[{"opening":"08:00","closing":"21:00"}]},{"weekDay":5,"timeRanges":[{"opening":"08:00","closing":"21:00"}]},{"weekDay":6,"timeRanges":[{"opening":"08:00","closing":"21:00"}]},{"weekDay":7,"timeRanges":[{"opening":"08:00","closing":"18:00"}]}]},{"storeNumber":"139","address":{"name":"dm-drogerie markt d.o.o.","street":"V. \u0160korpika 23","streetAdditional":"SIBENIK-SC DALMARE","zip":"22000","city":"\u0160IBENIK"},"location":{"lat":43.71174,"lon":15.91269},"openingHours":[{"weekDay":1,"timeRanges":[{"opening":"08:00","closing":"22:00"}]},{"weekDay":2,"timeRanges":[{"opening":"08:00","closing":"22:00"}]},{"weekDay":3,"timeRanges":[{"opening":"08:00","closing":"22:00"}]},{"weekDay":4,"timeRanges":[{"opening":"08:00","closing":"22:00"}]},{"weekDay":5,"timeRanges":[{"opening":"08:00","closing":"22:00"}]},{"weekDay":6,"timeRanges":[{"opening":"08:00","closing":"22:00"}]},{"weekDay":7,"timeRanges":[{"opening":"08:00","closing":"21:00"}]}]},{"storeNumber":"14","address":{"name":"dm-drogerie markt d.o.o.","street":"Gru\u0161ka 22","streetAdditional":"ZG-GRUSKA","zip":"10000","city":"ZAGREB"},"location":{"lat":45.79511,"lon":15.99509},"openingHours":[{"weekDay":1,"timeRanges":[{"opening":"08:00","closing":"21:00"}]},{"weekDay":2,"timeRanges":[{"opening":"08:00","closing":"21:00"}]},{"weekDay":3,"timeRanges":[{"opening":"08:00","closing":"21:00"}]},{"weekDay":4,"timeRanges":[{"opening":"08:00","closing":"21:00"}]},{"weekDay":5,"timeRanges":[{"opening":"08:00","closing":"21:00"}]},{"weekDay":6,"timeRanges":[{"opening":"08:00","closing":"17:00"}]},{"weekDay":7,"timeRanges":[{"opening":"08:00","closing":"13:00"}]}]},{"storeNumber":"140","address":{"name":"dm-drogerie markt d.o.o.","street":"Prilaz V. Holjevca 12","streetAdditional":"KARLOVAC-SC SUPERNOVA","zip":"47000","city":"KARLOVAC"},"location":{"lat":45.50531,"lon":15.54453},"openingHours":[{"weekDay":1,"timeRanges":[{"opening":"09:00","closing":"21:00"}]},{"weekDay":2,"timeRanges":[{"opening":"09:00","closing":"21:00"}]},{"weekDay":3,"timeRanges":[{"opening":"09:00","closing":"21:00"}]},{"weekDay":4,"timeRanges":[{"opening":"09:00","closing":"21:00"}]},{"weekDay":5,"timeRanges":[{"opening":"09:00","closing":"21:00"}]},{"weekDay":6,"timeRanges":[{"opening":"09:00","closing":"21:00"}]},{"weekDay":7,"timeRanges":[{"opening":"09:00","closing":"21:00"}]}]},{"storeNumber":"141","address":{"name":"dm-drogerie markt d.o.o.","street":" J.J.Strossmayera 5c","streetAdditional":"VUKOVAR","zip":"32000","city":"VUKOVAR"},"location":{"lat":45.35226,"lon":19.00146},"openingHours":[{"weekDay":1,"timeRanges":[{"opening":"08:00","closing":"21:00"}]},{"weekDay":2,"timeRanges":[{"opening":"08:00","closing":"21:00"}]},{"weekDay":3,"timeRanges":[{"opening":"08:00","closing":"21:00"}]},{"weekDay":4,"timeRanges":[{"opening":"08:00","closing":"21:00"}]},{"weekDay":5,"timeRanges":[{"opening":"08:00","closing":"21:00"}]},{"weekDay":6,"timeRanges":[{"opening":"08:00","closing":"21:00"}]}]},{"storeNumber":"143","address":{"name":"dm-drogerie markt d.o.o.","street":"Jankomir 33","streetAdditional":"ZG-SC CCO WEST","zip":"10000","city":"ZAGREB"},"location":{"lat":45.79979,"lon":15.88437},"openingHours":[{"weekDay":1,"timeRanges":[{"opening":"09:00","closing":"21:00"}]},{"weekDay":2,"timeRanges":[{"opening":"09:00","closing":"21:00"}]},{"weekDay":3,"timeRanges":[{"opening":"09:00","closing":"21:00"}]},{"weekDay":4,"timeRanges":[{"opening":"09:00","closing":"21:00"}]},{"weekDay":5,"timeRanges":[{"opening":"09:00","closing":"21:00"}]},{"weekDay":6,"timeRanges":[{"opening":"09:00","closing":"21:00"}]},{"weekDay":7,"timeRanges":[{"opening":"09:00","closing":"21:00"}]}]},{"storeNumber":"144","address":{"name":"dm-drogerie markt d.o.o.","street":"Gospodarska 5","streetAdditional":"ZG-SC EMMEZETA","zip":"10255","city":"DONJI STUPNIK"},"location":{"lat":45.7483529,"lon":15.8797646},"openingHours":[{"weekDay":1,"timeRanges":[{"opening":"09:00","closing":"21:00"}]},{"weekDay":2,"timeRanges":[{"opening":"09:00","closing":"21:00"}]},{"weekDay":3,"timeRanges":[{"opening":"09:00","closing":"21:00"}]},{"weekDay":4,"timeRanges":[{"opening":"09:00","closing":"21:00"}]},{"weekDay":5,"timeRanges":[{"opening":"09:00","closing":"21:00"}]},{"weekDay":6,"timeRanges":[{"opening":"09:00","closing":"21:00"}]},{"weekDay":7,"timeRanges":[{"opening":"09:00","closing":"21:00"}]}]},{"storeNumber":"145","address":{"name":"dm-drogerie markt d.o.o.","street":"Omladinska 1a","streetAdditional":"MALI LOSINJ-TC BOCAC","zip":"51550","city":"MALI LO\u0160INJ"},"location":{"lat":44.53019,"lon":14.46748},"openingHours":[{"weekDay":1,"timeRanges":[{"opening":"08:00","closing":"23:00"}]},{"weekDay":2,"timeRanges":[{"opening":"08:00","closing":"23:00"}]},{"weekDay":3,"timeRanges":[{"opening":"08:00","closing":"23:00"}]},{"weekDay":4,"timeRanges":[{"opening":"08:00","closing":"23:00"}]},{"weekDay":5,"timeRanges":[{"opening":"08:00","closing":"23:00"}]},{"weekDay":6,"timeRanges":[{"opening":"08:00","closing":"23:00"}]},{"weekDay":7,"timeRanges":[{"opening":"08:00","closing":"22:00"}]}]},{"storeNumber":"146","address":{"name":"dm-drogerie markt d.o.o.","street":"Vijenac Frane Gotovca 12","streetAdditional":"ZG-DUGAVE","zip":"10000","city":"ZAGREB"},"location":{"lat":45.76684,"lon":15.99599},"openingHours":[{"weekDay":1,"timeRanges":[{"opening":"08:00","closing":"20:00"}]},{"weekDay":2,"timeRanges":[{"opening":"08:00","closing":"20:00"}]},{"weekDay":3,"timeRanges":[{"opening":"08:00","closing":"20:00"}]},{"weekDay":4,"timeRanges":[{"opening":"08:00","closing":"20:00"}]},{"weekDay":5,"timeRanges":[{"opening":"08:00","closing":"20:00"}]},{"weekDay":6,"timeRanges":[{"opening":"08:00","closing":"15:00"}]}]},{"storeNumber":"147","address":{"name":"dm-drogerie markt d.o.o.","street":"Trg rije\u010dkih olimpijaca 15","streetAdditional":"RI-ZAMET","zip":"51000","city":"RIJEKA"},"location":{"lat":45.34411,"lon":14.38232},"openingHours":[{"weekDay":1,"timeRanges":[{"opening":"08:00","closing":"21:00"}]},{"weekDay":2,"timeRanges":[{"opening":"08:00","closing":"21:00"}]},{"weekDay":3,"timeRanges":[{"opening":"08:00","closing":"21:00"}]},{"weekDay":4,"timeRanges":[{"opening":"08:00","closing":"21:00"}]},{"weekDay":5,"timeRanges":[{"opening":"08:00","closing":"21:00"}]},{"weekDay":6,"timeRanges":[{"opening":"08:00","closing":"15:00"}]},{"weekDay":7,"timeRanges":[{"opening":"08:00","closing":"13:00"}]}]},{"storeNumber":"148","address":{"name":"dm-drogerie markt d.o.o.","street":"Av. Dubrava 33","streetAdditional":"ZG-TC DUBRAVA","zip":"10000","city":"ZAGREB"},"location":{"lat":45.8264,"lon":16.04372},"openingHours":[{"weekDay":1,"timeRanges":[{"opening":"08:00","closing":"20:00"}]},{"weekDay":2,"timeRanges":[{"opening":"08:00","closing":"20:00"}]},{"weekDay":3,"timeRanges":[{"opening":"08:00","closing":"20:00"}]},{"weekDay":4,"timeRanges":[{"opening":"08:00","closing":"20:00"}]},{"weekDay":5,"timeRanges":[{"opening":"08:00","closing":"20:00"}]},{"weekDay":6,"timeRanges":[{"opening":"08:00","closing":"20:00"}]}]},{"storeNumber":"151","address":{"name":"dm-drogerie markt d.o.o.","street":"Sv. L.B.Mandi\u0107a 50A","streetAdditional":"OS-SC AVENUE MALL","zip":"31000","city":"OSIJEK"},"location":{"lat":45.54658,"lon":18.65757},"openingHours":[{"weekDay":1,"timeRanges":[{"opening":"09:00","closing":"21:00"}]},{"weekDay":2,"timeRanges":[{"opening":"09:00","closing":"21:00"}]},{"weekDay":3,"timeRanges":[{"opening":"09:00","closing":"21:00"}]},{"weekDay":4,"timeRanges":[{"opening":"09:00","closing":"21:00"}]},{"weekDay":5,"timeRanges":[{"opening":"09:00","closing":"21:00"}]},{"weekDay":6,"timeRanges":[{"opening":"09:00","closing":"21:00"}]},{"weekDay":7,"timeRanges":[{"opening":"09:00","closing":"21:00"}]}]},{"storeNumber":"152","address":{"name":"dm-drogerie markt d.o.o.","street":"Zvonimira Rihtmana 4","streetAdditional":"ZG-TRAKO\u0160\u0106ANSKA","zip":"10000","city":"ZAGREB"},"location":{"lat":45.80173,"lon":15.95373},"openingHours":[{"weekDay":1,"timeRanges":[{"opening":"08:00","closing":"21:00"}]},{"weekDay":2,"timeRanges":[{"opening":"08:00","closing":"21:00"}]},{"weekDay":3,"timeRanges":[{"opening":"08:00","closing":"21:00"}]},{"weekDay":4,"timeRanges":[{"opening":"08:00","closing":"21:00"}]},{"weekDay":5,"timeRanges":[{"opening":"08:00","closing":"21:00"}]},{"weekDay":6,"timeRanges":[{"opening":"08:00","closing":"20:00"}]},{"weekDay":7,"timeRanges":[{"opening":"08:00","closing":"15:00"}]}]},{"storeNumber":"154","address":{"name":"dm-drogerie markt d.o.o.","street":"Svilajska 31A 31A","streetAdditional":"OS-SC PORTANOVA","zip":"31000","city":"OSIJEK"},"location":{"lat":45.5548019,"lon":18.6391104},"openingHours":[{"weekDay":1,"timeRanges":[{"opening":"10:00","closing":"21:00"}]},{"weekDay":2,"timeRanges":[{"opening":"10:00","closing":"21:00"}]},{"weekDay":3,"timeRanges":[{"opening":"10:00","closing":"21:00"}]},{"weekDay":4,"timeRanges":[{"opening":"10:00","closing":"21:00"}]},{"weekDay":5,"timeRanges":[{"opening":"10:00","closing":"21:00"}]},{"weekDay":6,"timeRanges":[{"opening":"09:00","closing":"21:00"}]},{"weekDay":7,"timeRanges":[{"opening":"09:00","closing":"21:00"}]}]},{"storeNumber":"156","address":{"name":"dm-drogerie markt d.o.o.","street":"Bra\u0107e Bo\u017ei\u0107 4c","streetAdditional":"ROVINJ-TC MERCATOR","zip":"52210","city":"ROVINJ"},"location":{"lat":45.0805564,"lon":13.6545467},"openingHours":[{"weekDay":1,"timeRanges":[{"opening":"08:00","closing":"22:00"}]},{"weekDay":2,"timeRanges":[{"opening":"08:00","closing":"22:00"}]},{"weekDay":3,"timeRanges":[{"opening":"08:00","closing":"22:00"}]},{"weekDay":4,"timeRanges":[{"opening":"08:00","closing":"22:00"}]},{"weekDay":5,"timeRanges":[{"opening":"08:00","closing":"22:00"}]},{"weekDay":6,"timeRanges":[{"opening":"08:00","closing":"22:00"}]},{"weekDay":7,"timeRanges":[{"opening":"08:00","closing":"22:00"}]}]},{"storeNumber":"158","address":{"name":"dm-drogerie markt d.o.o.","street":"Osje\u010dka 71","streetAdditional":"RI-TC MERCATOR","zip":"51000","city":"RIJEKA"},"location":{"lat":45.35151,"lon":14.41677},"openingHours":[{"weekDay":1,"timeRanges":[{"opening":"08:00","closing":"21:00"}]},{"weekDay":2,"timeRanges":[{"opening":"08:00","closing":"21:00"}]},{"weekDay":3,"timeRanges":[{"opening":"08:00","closing":"21:00"}]},{"weekDay":4,"timeRanges":[{"opening":"08:00","closing":"21:00"}]},{"weekDay":5,"timeRanges":[{"opening":"08:00","closing":"21:00"}]},{"weekDay":6,"timeRanges":[{"opening":"08:00","closing":"21:00"}]},{"weekDay":7,"timeRanges":[{"opening":"08:00","closing":"15:00"}]}]},{"storeNumber":"16","address":{"name":"dm-drogerie markt d.o.o.","street":"Kre\u0161imirova 8","streetAdditional":"RI-KRESIMIROVA","zip":"51000","city":"RIJEKA"},"location":{"lat":45.3291338,"lon":14.4354982},"openingHours":[{"weekDay":1,"timeRanges":[{"opening":"08:00","closing":"20:00"}]},{"weekDay":2,"timeRanges":[{"opening":"08:00","closing":"20:00"}]},{"weekDay":3,"timeRanges":[{"opening":"08:00","closing":"20:00"}]},{"weekDay":4,"timeRanges":[{"opening":"08:00","closing":"20:00"}]},{"weekDay":5,"timeRanges":[{"opening":"08:00","closing":"20:00"}]},{"weekDay":6,"timeRanges":[{"opening":"08:00","closing":"14:00"}]}]},{"storeNumber":"160","address":{"name":"dm-drogerie markt d.o.o.","street":"Ul. grada Lipika 15","streetAdditional":"VARAZDIN-SC LUMINI","zip":"42204","city":"D.KNEGINEC, TUR\u010cIN"},"location":{"lat":46.263533,"lon":16.3742071},"openingHours":[{"weekDay":1,"timeRanges":[{"opening":"09:00","closing":"21:00"}]},{"weekDay":2,"timeRanges":[{"opening":"09:00","closing":"21:00"}]},{"weekDay":3,"timeRanges":[{"opening":"09:00","closing":"21:00"}]},{"weekDay":4,"timeRanges":[{"opening":"09:00","closing":"21:00"}]},{"weekDay":5,"timeRanges":[{"opening":"09:00","closing":"21:00"}]},{"weekDay":6,"timeRanges":[{"opening":"09:00","closing":"21:00"}]},{"weekDay":7,"timeRanges":[{"opening":"09:00","closing":"21:00"}]}]},{"storeNumber":"162","address":{"name":"dm-drogerie markt d.o.o.","street":"Ninska 12","streetAdditional":"SESVETE-NINSKA","zip":"10360","city":"SESVETE"},"location":{"lat":45.82579,"lon":16.10865},"openingHours":[{"weekDay":1,"timeRanges":[{"opening":"08:00","closing":"20:00"}]},{"weekDay":2,"timeRanges":[{"opening":"08:00","closing":"20:00"}]},{"weekDay":3,"timeRanges":[{"opening":"08:00","closing":"20:00"}]},{"weekDay":4,"timeRanges":[{"opening":"08:00","closing":"20:00"}]},{"weekDay":5,"timeRanges":[{"opening":"08:00","closing":"20:00"}]},{"weekDay":6,"timeRanges":[{"opening":"08:00","closing":"15:00"}]}]},{"storeNumber":"163","address":{"name":"dm-drogerie markt d.o.o.","street":"Vukovarska 13","streetAdditional":"DUBROVNIK-VUKOVARSKA","zip":"20000","city":"DUBROVNIK"},"location":{"lat":42.6509647,"lon":18.0918509},"openingHours":[{"weekDay":1,"timeRanges":[{"opening":"08:00","closing":"21:00"}]},{"weekDay":2,"timeRanges":[{"opening":"08:00","closing":"21:00"}]},{"weekDay":3,"timeRanges":[{"opening":"08:00","closing":"21:00"}]},{"weekDay":4,"timeRanges":[{"opening":"08:00","closing":"21:00"}]},{"weekDay":5,"timeRanges":[{"opening":"08:00","closing":"21:00"}]},{"weekDay":6,"timeRanges":[{"opening":"08:00","closing":"21:00"}]}]},{"storeNumber":"164","address":{"name":"dm-drogerie markt d.o.o.","street":"Josipa R. Kira 40","streetAdditional":"OS-TC KAUFLAND","zip":"31000","city":"OSIJEK"},"location":{"lat":45.5446567,"lon":18.709277},"openingHours":[{"weekDay":1,"timeRanges":[{"opening":"08:00","closing":"21:00"}]},{"weekDay":2,"timeRanges":[{"opening":"08:00","closing":"21:00"}]},{"weekDay":3,"timeRanges":[{"opening":"08:00","closing":"21:00"}]},{"weekDay":4,"timeRanges":[{"opening":"08:00","closing":"21:00"}]},{"weekDay":5,"timeRanges":[{"opening":"08:00","closing":"21:00"}]},{"weekDay":6,"timeRanges":[{"opening":"08:00","closing":"21:00"}]},{"weekDay":7,"timeRanges":[{"opening":"08:00","closing":"20:00"}]}]},{"storeNumber":"165","address":{"name":"dm-drogerie markt d.o.o.","street":"Obrtni\u010dka 1","streetAdditional":"CAKOVEC-TC KAUFLAND","zip":"40000","city":"\u010cAKOVEC"},"location":{"lat":46.38865,"lon":16.41338},"openingHours":[{"weekDay":1,"timeRanges":[{"opening":"07:00","closing":"21:00"}]},{"weekDay":2,"timeRanges":[{"opening":"07:00","closing":"21:00"}]},{"weekDay":3,"timeRanges":[{"opening":"07:00","closing":"21:00"}]},{"weekDay":4,"timeRanges":[{"opening":"07:00","closing":"21:00"}]},{"weekDay":5,"timeRanges":[{"opening":"07:00","closing":"21:00"}]},{"weekDay":6,"timeRanges":[{"opening":"07:00","closing":"21:00"}]},{"weekDay":7,"timeRanges":[{"opening":"08:00","closing":"14:00"}]}]},{"storeNumber":"166","address":{"name":"dm-drogerie markt d.o.o.","street":"Mesni\u010dka 5","streetAdditional":"POZEGA","zip":"34000","city":"PO\u017dEGA"},"location":{"lat":45.33191,"lon":17.67649},"openingHours":[{"weekDay":1,"timeRanges":[{"opening":"08:00","closing":"20:00"}]},{"weekDay":2,"timeRanges":[{"opening":"08:00","closing":"20:00"}]},{"weekDay":3,"timeRanges":[{"opening":"08:00","closing":"20:00"}]},{"weekDay":4,"timeRanges":[{"opening":"08:00","closing":"20:00"}]},{"weekDay":5,"timeRanges":[{"opening":"08:00","closing":"20:00"}]},{"weekDay":6,"timeRanges":[{"opening":"08:00","closing":"20:00"}]}]},{"storeNumber":"168","address":{"name":"dm-drogerie markt d.o.o.","street":"Franje Tu\u0111mana 7","streetAdditional":"ST-SC EMMEZETA","zip":"21212","city":"KA\u0160TEL SU\u0106URAC"},"location":{"lat":43.53867,"lon":16.44992},"openingHours":[{"weekDay":1,"timeRanges":[{"opening":"08:00","closing":"21:00"}]},{"weekDay":2,"timeRanges":[{"opening":"08:00","closing":"21:00"}]},{"weekDay":3,"timeRanges":[{"opening":"08:00","closing":"21:00"}]},{"weekDay":4,"timeRanges":[{"opening":"08:00","closing":"21:00"}]},{"weekDay":5,"timeRanges":[{"opening":"08:00","closing":"21:00"}]},{"weekDay":6,"timeRanges":[{"opening":"08:00","closing":"21:00"}]},{"weekDay":7,"timeRanges":[{"opening":"08:00","closing":"21:00"}]}]},{"storeNumber":"171","address":{"name":"dm-drogerie markt d.o.o.","street":"\u0160etali\u0161te dr. Franje Tu\u0111mana 2a","streetAdditional":"DUBROVNIK-SC SUB CITY, MLINI","zip":"20207","city":"MLINI, DUBROVNIK"},"location":{"lat":42.6242502,"lon":18.1920304},"openingHours":[{"weekDay":1,"timeRanges":[{"opening":"09:00","closing":"21:00"}]},{"weekDay":2,"timeRanges":[{"opening":"09:00","closing":"21:00"}]},{"weekDay":3,"timeRanges":[{"opening":"09:00","closing":"21:00"}]},{"weekDay":4,"timeRanges":[{"opening":"09:00","closing":"21:00"}]},{"weekDay":5,"timeRanges":[{"opening":"09:00","closing":"21:00"}]},{"weekDay":6,"timeRanges":[{"opening":"09:00","closing":"21:00"}]},{"weekDay":7,"timeRanges":[{"opening":"09:00","closing":"21:00"}]}]},{"storeNumber":"172","address":{"name":"dm-drogerie markt d.o.o.","street":"Tomi\u0107eva 1","streetAdditional":"ZG-TOMICEVA","zip":"10000","city":"ZAGREB"},"location":{"lat":45.81326,"lon":15.97297},"openingHours":[{"weekDay":1,"timeRanges":[{"opening":"08:00","closing":"21:00"}]},{"weekDay":2,"timeRanges":[{"opening":"08:00","closing":"21:00"}]},{"weekDay":3,"timeRanges":[{"opening":"08:00","closing":"21:00"}]},{"weekDay":4,"timeRanges":[{"opening":"08:00","closing":"21:00"}]},{"weekDay":5,"timeRanges":[{"opening":"08:00","closing":"21:00"}]},{"weekDay":6,"timeRanges":[{"opening":"08:00","closing":"21:00"}]}]},{"storeNumber":"173","address":{"name":"dm-drogerie markt d.o.o.","street":"Mato\u0161eva 10","streetAdditional":"SOLIN-SC SALONA MALL","zip":"21210","city":"SOLIN"},"location":{"lat":43.52973,"lon":16.49112},"openingHours":[{"weekDay":1,"timeRanges":[{"opening":"08:00","closing":"21:00"}]},{"weekDay":2,"timeRanges":[{"opening":"08:00","closing":"21:00"}]},{"weekDay":3,"timeRanges":[{"opening":"08:00","closing":"21:00"}]},{"weekDay":4,"timeRanges":[{"opening":"08:00","closing":"21:00"}]},{"weekDay":5,"timeRanges":[{"opening":"08:00","closing":"21:00"}]},{"weekDay":6,"timeRanges":[{"opening":"08:00","closing":"21:00"}]},{"weekDay":7,"timeRanges":[{"opening":"08:00","closing":"21:00"}]}]},{"storeNumber":"175","address":{"name":"dm-drogerie markt d.o.o.","street":"\u0160iroka ulica 14","streetAdditional":"ZADAR-KALELARGA 1","zip":"23000","city":"ZADAR"},"location":{"lat":44.1158,"lon":15.22539},"openingHours":[{"weekDay":1,"timeRanges":[{"opening":"08:00","closing":"23:00"}]},{"weekDay":2,"timeRanges":[{"opening":"08:00","closing":"23:00"}]},{"weekDay":3,"timeRanges":[{"opening":"08:00","closing":"23:00"}]},{"weekDay":4,"timeRanges":[{"opening":"08:00","closing":"23:00"}]},{"weekDay":5,"timeRanges":[{"opening":"08:00","closing":"23:00"}]},{"weekDay":6,"timeRanges":[{"opening":"08:00","closing":"23:00"}]},{"weekDay":7,"timeRanges":[{"opening":"08:00","closing":"22:00"}]}]},{"storeNumber":"176","address":{"name":"dm-drogerie markt d.o.o.","street":"Planinska ulica 2","streetAdditional":"ZG-PLANINSKA","zip":"10000","city":"ZAGREB"},"location":{"lat":45.80924,"lon":16.01489},"openingHours":[{"weekDay":1,"timeRanges":[{"opening":"08:00","closing":"20:00"}]},{"weekDay":2,"timeRanges":[{"opening":"08:00","closing":"20:00"}]},{"weekDay":3,"timeRanges":[{"opening":"08:00","closing":"20:00"}]},{"weekDay":4,"timeRanges":[{"opening":"08:00","closing":"20:00"}]},{"weekDay":5,"timeRanges":[{"opening":"08:00","closing":"20:00"}]},{"weekDay":6,"timeRanges":[{"opening":"08:00","closing":"15:00"}]}]},{"storeNumber":"177","address":{"name":"dm-drogerie markt d.o.o.","street":"Trg P.Preradovi\u0107a 6","streetAdditional":"ZG-SC CVJETNI","zip":"10000","city":"ZAGREB"},"location":{"lat":45.81248,"lon":15.97371},"openingHours":[{"weekDay":1,"timeRanges":[{"opening":"09:00","closing":"21:00"}]},{"weekDay":2,"timeRanges":[{"opening":"09:00","closing":"21:00"}]},{"weekDay":3,"timeRanges":[{"opening":"09:00","closing":"21:00"}]},{"weekDay":4,"timeRanges":[{"opening":"09:00","closing":"21:00"}]},{"weekDay":5,"timeRanges":[{"opening":"09:00","closing":"21:00"}]},{"weekDay":6,"timeRanges":[{"opening":"09:00","closing":"21:00"}]},{"weekDay":7,"timeRanges":[{"opening":"10:00","closing":"19:00"}]}]},{"storeNumber":"178","address":{"name":"dm-drogerie markt d.o.o.","street":"Trg Kralja Tomislava 17","streetAdditional":"DARUVAR-TC MERCATOR","zip":"43500","city":"DARUVAR"},"location":{"lat":45.5924,"lon":17.22423},"openingHours":[{"weekDay":1,"timeRanges":[{"opening":"08:00","closing":"21:00"}]},{"weekDay":2,"timeRanges":[{"opening":"08:00","closing":"21:00"}]},{"weekDay":3,"timeRanges":[{"opening":"08:00","closing":"21:00"}]},{"weekDay":4,"timeRanges":[{"opening":"08:00","closing":"21:00"}]},{"weekDay":5,"timeRanges":[{"opening":"08:00","closing":"21:00"}]},{"weekDay":6,"timeRanges":[{"opening":"08:00","closing":"14:00"}]}]},{"storeNumber":"179","address":{"name":"dm-drogerie markt d.o.o.","street":"Branimirova 119","streetAdditional":"ZG-TC KAUFLAND RAVNICE","zip":"10000","city":"ZAGREB"},"location":{"lat":45.8176,"lon":16.03616},"openingHours":[{"weekDay":1,"timeRanges":[{"opening":"08:00","closing":"21:00"}]},{"weekDay":2,"timeRanges":[{"opening":"08:00","closing":"21:00"}]},{"weekDay":3,"timeRanges":[{"opening":"08:00","closing":"21:00"}]},{"weekDay":4,"timeRanges":[{"opening":"08:00","closing":"21:00"}]},{"weekDay":5,"timeRanges":[{"opening":"08:00","closing":"21:00"}]},{"weekDay":6,"timeRanges":[{"opening":"08:00","closing":"21:00"}]},{"weekDay":7,"timeRanges":[{"opening":"08:00","closing":"20:00"}]}]},{"storeNumber":"180","address":{"name":"dm-drogerie markt d.o.o.","street":"Zvonimirova 3","streetAdditional":"RI-SC ZTC","zip":"51000","city":"RIJEKA"},"location":{"lat":45.33776,"lon":14.40874},"openingHours":[{"weekDay":1,"timeRanges":[{"opening":"09:00","closing":"21:00"}]},{"weekDay":2,"timeRanges":[{"opening":"09:00","closing":"21:00"}]},{"weekDay":3,"timeRanges":[{"opening":"09:00","closing":"21:00"}]},{"weekDay":4,"timeRanges":[{"opening":"09:00","closing":"21:00"}]},{"weekDay":5,"timeRanges":[{"opening":"09:00","closing":"21:00"}]},{"weekDay":6,"timeRanges":[{"opening":"09:00","closing":"21:00"}]},{"weekDay":7,"timeRanges":[{"opening":"09:00","closing":"21:00"}]}]},{"storeNumber":"183","address":{"name":"dm-drogerie markt d.o.o.","street":"Rude\u0161ka cesta 169a","streetAdditional":"ZG-SC POINT CENTAR","zip":"10000","city":"ZAGREB"},"location":{"lat":45.7910245,"lon":15.9131641},"openingHours":[{"weekDay":1,"timeRanges":[{"opening":"09:00","closing":"21:00"}]},{"weekDay":2,"timeRanges":[{"opening":"09:00","closing":"21:00"}]},{"weekDay":3,"timeRanges":[{"opening":"09:00","closing":"21:00"}]},{"weekDay":4,"timeRanges":[{"opening":"09:00","closing":"21:00"}]},{"weekDay":5,"timeRanges":[{"opening":"09:00","closing":"21:00"}]},{"weekDay":6,"timeRanges":[{"opening":"09:00","closing":"21:00"}]},{"weekDay":7,"timeRanges":[{"opening":"09:00","closing":"21:00"}]}]},{"storeNumber":"184","address":{"name":"dm-drogerie markt d.o.o.","street":"Gra\u010danska cesta 208","streetAdditional":"ZG-SC MERIDIJAN 16","zip":"10000","city":"ZAGREB"},"location":{"lat":45.862097,"lon":15.9861602},"openingHours":[{"weekDay":1,"timeRanges":[{"opening":"09:00","closing":"21:00"}]},{"weekDay":2,"timeRanges":[{"opening":"09:00","closing":"21:00"}]},{"weekDay":3,"timeRanges":[{"opening":"09:00","closing":"21:00"}]},{"weekDay":4,"timeRanges":[{"opening":"09:00","closing":"21:00"}]},{"weekDay":5,"timeRanges":[{"opening":"09:00","closing":"21:00"}]},{"weekDay":6,"timeRanges":[{"opening":"09:00","closing":"21:00"}]},{"weekDay":7,"timeRanges":[{"opening":"09:00","closing":"17:00"}]}]},{"storeNumber":"185","address":{"name":"dm-drogerie markt d.o.o.","street":"Josipa Rimca 7","streetAdditional":"SLAVONSKI BROD-SC-COLOSSEUM","zip":"35000","city":"SLAVONSKI BROD"},"location":{"lat":45.16005,"lon":17.99802},"openingHours":[{"weekDay":1,"timeRanges":[{"opening":"09:00","closing":"21:00"}]},{"weekDay":2,"timeRanges":[{"opening":"09:00","closing":"21:00"}]},{"weekDay":3,"timeRanges":[{"opening":"09:00","closing":"21:00"}]},{"weekDay":4,"timeRanges":[{"opening":"09:00","closing":"21:00"}]},{"weekDay":5,"timeRanges":[{"opening":"09:00","closing":"21:00"}]},{"weekDay":6,"timeRanges":[{"opening":"09:00","closing":"21:00"}]},{"weekDay":7,"timeRanges":[{"opening":"09:00","closing":"21:00"}]}]},{"storeNumber":"187","address":{"name":"dm-drogerie markt d.o.o.","street":"Andrije Hebranga 2","streetAdditional":"ZADAR-TC KAUFLAND","zip":"23000","city":"ZADAR"},"location":{"lat":44.11814,"lon":15.24102},"openingHours":[{"weekDay":1,"timeRanges":[{"opening":"08:00","closing":"22:00"}]},{"weekDay":2,"timeRanges":[{"opening":"08:00","closing":"22:00"}]},{"weekDay":3,"timeRanges":[{"opening":"08:00","closing":"22:00"}]},{"weekDay":4,"timeRanges":[{"opening":"08:00","closing":"22:00"}]},{"weekDay":5,"timeRanges":[{"opening":"08:00","closing":"22:00"}]},{"weekDay":6,"timeRanges":[{"opening":"08:00","closing":"22:00"}]},{"weekDay":7,"timeRanges":[{"opening":"08:00","closing":"22:00"}]}]},{"storeNumber":"188","address":{"name":"dm-drogerie markt d.o.o.","street":"Trg bana P. Zrinskog 10","streetAdditional":"KARLOVAC-\u017dITNA KU\u0106A","zip":"47000","city":"KARLOVAC"},"location":{"lat":45.4928403,"lon":15.5498253},"openingHours":[{"weekDay":1,"timeRanges":[{"opening":"08:00","closing":"20:00"}]},{"weekDay":2,"timeRanges":[{"opening":"08:00","closing":"20:00"}]},{"weekDay":3,"timeRanges":[{"opening":"08:00","closing":"20:00"}]},{"weekDay":4,"timeRanges":[{"opening":"08:00","closing":"20:00"}]},{"weekDay":5,"timeRanges":[{"opening":"08:00","closing":"20:00"}]},{"weekDay":6,"timeRanges":[{"opening":"08:00","closing":"20:00"}]}]},{"storeNumber":"189","address":{"name":"dm-drogerie markt d.o.o.","street":"Fonti\u010dka 4","streetAdditional":"PULA-FONTICKA","zip":"52440","city":"PULA"},"location":{"lat":44.86753,"lon":13.84847},"openingHours":[{"weekDay":1,"timeRanges":[{"opening":"08:00","closing":"21:00"}]},{"weekDay":2,"timeRanges":[{"opening":"08:00","closing":"21:00"}]},{"weekDay":3,"timeRanges":[{"opening":"08:00","closing":"21:00"}]},{"weekDay":4,"timeRanges":[{"opening":"08:00","closing":"21:00"}]},{"weekDay":5,"timeRanges":[{"opening":"08:00","closing":"21:00"}]},{"weekDay":6,"timeRanges":[{"opening":"08:00","closing":"15:00"}]},{"weekDay":7,"timeRanges":[{"opening":"08:00","closing":"13:00"}]}]},{"storeNumber":"190","address":{"name":"dm-drogerie markt d.o.o.","street":"Trg Kralja Tomislava 12","streetAdditional":"VELIKA GORICA-TRG KRALJA TOMISLAVA","zip":"10410","city":"VELIKA GORICA"},"location":{"lat":45.71276,"lon":16.07809},"openingHours":[{"weekDay":1,"timeRanges":[{"opening":"08:00","closing":"20:00"}]},{"weekDay":2,"timeRanges":[{"opening":"08:00","closing":"20:00"}]},{"weekDay":3,"timeRanges":[{"opening":"08:00","closing":"20:00"}]},{"weekDay":4,"timeRanges":[{"opening":"08:00","closing":"20:00"}]},{"weekDay":5,"timeRanges":[{"opening":"08:00","closing":"20:00"}]},{"weekDay":6,"timeRanges":[{"opening":"08:00","closing":"15:00"}]},{"weekDay":7,"timeRanges":[{"opening":"08:00","closing":"13:00"}]}]},{"storeNumber":"192","address":{"name":"dm-drogerie markt d.o.o.","street":"Meduli\u0107eva ulica 2","streetAdditional":"ZG-MEDUL\u0106EVA","zip":"10000","city":"ZAGREB"},"location":{"lat":45.81286,"lon":15.9666},"openingHours":[{"weekDay":1,"timeRanges":[{"opening":"08:00","closing":"21:00"}]},{"weekDay":2,"timeRanges":[{"opening":"08:00","closing":"21:00"}]},{"weekDay":3,"timeRanges":[{"opening":"08:00","closing":"21:00"}]},{"weekDay":4,"timeRanges":[{"opening":"08:00","closing":"21:00"}]},{"weekDay":5,"timeRanges":[{"opening":"08:00","closing":"21:00"}]},{"weekDay":6,"timeRanges":[{"opening":"08:00","closing":"21:00"}]},{"weekDay":7,"timeRanges":[{"opening":"09:00","closing":"17:00"}]}]},{"storeNumber":"193","address":{"name":"dm-drogerie markt d.o.o","street":"Me\u0161trovi\u0107ev trg 1J","streetAdditional":"ZG-ZAPRU\u0110E","zip":"10000","city":"ZAGREB"},"location":{"lat":45.7787992,"lon":15.9964143},"openingHours":[{"weekDay":1,"timeRanges":[{"opening":"08:00","closing":"20:00"}]},{"weekDay":2,"timeRanges":[{"opening":"08:00","closing":"20:00"}]},{"weekDay":3,"timeRanges":[{"opening":"08:00","closing":"20:00"}]},{"weekDay":4,"timeRanges":[{"opening":"08:00","closing":"20:00"}]},{"weekDay":5,"timeRanges":[{"opening":"08:00","closing":"20:00"}]},{"weekDay":6,"timeRanges":[{"opening":"08:00","closing":"15:00"}]},{"weekDay":7,"timeRanges":[{"opening":"08:00","closing":"13:00"}]}]},{"storeNumber":"194","address":{"name":"dm-drogerie markt d.o.o.","street":"Nike Veja\u010di\u0107a 4","streetAdditional":"CRIKVENICA-NIKE VELJA\u010cI\u0106A","zip":"51260","city":"CRIKVENICA"},"location":{"lat":45.1728971,"lon":14.6921915},"openingHours":[{"weekDay":1,"timeRanges":[{"opening":"08:00","closing":"23:00"}]},{"weekDay":2,"timeRanges":[{"opening":"08:00","closing":"23:00"}]},{"weekDay":3,"timeRanges":[{"opening":"08:00","closing":"23:00"}]},{"weekDay":4,"timeRanges":[{"opening":"08:00","closing":"23:00"}]},{"weekDay":5,"timeRanges":[{"opening":"08:00","closing":"23:00"}]},{"weekDay":6,"timeRanges":[{"opening":"08:00","closing":"23:00"}]},{"weekDay":7,"timeRanges":[{"opening":"08:00","closing":"23:00"}]}]},{"storeNumber":"195","address":{"name":"dm-drogerie markt d.o.o.","street":"Ulica Rimske centurijacije 101","streetAdditional":"PULA-SC CITY MALL","zip":"52100","city":"PULA"},"location":{"lat":44.8692128,"lon":13.8684341},"openingHours":[{"weekDay":1,"timeRanges":[{"opening":"09:00","closing":"22:00"}]},{"weekDay":2,"timeRanges":[{"opening":"09:00","closing":"22:00"}]},{"weekDay":3,"timeRanges":[{"opening":"09:00","closing":"22:00"}]},{"weekDay":4,"timeRanges":[{"opening":"09:00","closing":"22:00"}]},{"weekDay":5,"timeRanges":[{"opening":"09:00","closing":"22:00"}]},{"weekDay":6,"timeRanges":[{"opening":"09:00","closing":"22:00"}]},{"weekDay":7,"timeRanges":[{"opening":"09:00","closing":"22:00"}]}]},{"storeNumber":"196","address":{"name":"dm-drogerie markt d.o.o.","street":"Trg Stjepana Radi\u0107a 18","streetAdditional":"GOSPI\u0106-TC GOSPI\u0106","zip":"53000","city":"GOSPI\u0106"},"location":{"lat":44.5477491,"lon":15.371375},"openingHours":[{"weekDay":1,"timeRanges":[{"opening":"08:00","closing":"20:00"}]},{"weekDay":2,"timeRanges":[{"opening":"08:00","closing":"20:00"}]},{"weekDay":3,"timeRanges":[{"opening":"08:00","closing":"20:00"}]},{"weekDay":4,"timeRanges":[{"opening":"08:00","closing":"20:00"}]},{"weekDay":5,"timeRanges":[{"opening":"08:00","closing":"20:00"}]},{"weekDay":6,"timeRanges":[{"opening":"08:00","closing":"20:00"}]}]},{"storeNumber":"197","address":{"name":"dm-drogerie markt d.o.o","street":"Trg slobode 6","streetAdditional":"OS-RK SUPER","zip":"31000","city":"OSIJEK"},"location":{"lat":45.5598275,"lon":18.6781906},"openingHours":[{"weekDay":1,"timeRanges":[{"opening":"08:00","closing":"20:00"}]},{"weekDay":2,"timeRanges":[{"opening":"08:00","closing":"20:00"}]},{"weekDay":3,"timeRanges":[{"opening":"08:00","closing":"20:00"}]},{"weekDay":4,"timeRanges":[{"opening":"08:00","closing":"20:00"}]},{"weekDay":5,"timeRanges":[{"opening":"08:00","closing":"20:00"}]},{"weekDay":6,"timeRanges":[{"opening":"08:00","closing":"20:00"}]}]},{"storeNumber":"198","address":{"name":"dm-drogerie markt d.o.o.","street":"Ru\u0111era Bo\u0161kovi\u0107a 11","streetAdditional":"ST-RU\u0110ERA BO\u0160KOVI\u0106A","zip":"21000","city":"SPLIT"},"location":{"lat":43.5076581,"lon":16.4673285},"openingHours":[{"weekDay":1,"timeRanges":[{"opening":"08:00","closing":"21:00"}]},{"weekDay":2,"timeRanges":[{"opening":"08:00","closing":"21:00"}]},{"weekDay":3,"timeRanges":[{"opening":"08:00","closing":"21:00"}]},{"weekDay":4,"timeRanges":[{"opening":"08:00","closing":"21:00"}]},{"weekDay":5,"timeRanges":[{"opening":"08:00","closing":"21:00"}]},{"weekDay":6,"timeRanges":[{"opening":"08:00","closing":"20:00"}]}]},{"storeNumber":"199","address":{"name":"dm-drogerie markt d.o.o.","street":"Zapre\u0161i\u0107ka 2","streetAdditional":"ZG-SC WEST GATE","zip":"10290","city":"JABLANOVEC, ZAPRE\u0160I\u0106"},"location":{"lat":45.8715989,"lon":15.8270453},"openingHours":[{"weekDay":1,"timeRanges":[{"opening":"09:00","closing":"21:00"}]},{"weekDay":2,"timeRanges":[{"opening":"09:00","closing":"21:00"}]},{"weekDay":3,"timeRanges":[{"opening":"09:00","closing":"21:00"}]},{"weekDay":4,"timeRanges":[{"opening":"09:00","closing":"21:00"}]},{"weekDay":5,"timeRanges":[{"opening":"09:00","closing":"21:00"}]},{"weekDay":6,"timeRanges":[{"opening":"09:00","closing":"21:00"}]},{"weekDay":7,"timeRanges":[{"opening":"09:00","closing":"21:00"}]}]},{"storeNumber":"2","address":{"name":"dm-drogerie markt d.o.o.","street":"Trg \u017ertava fa\u0161izma 18","streetAdditional":"ZAPRESIC-CENTAR","zip":"10290","city":"ZAPRE\u0160I\u0106"},"location":{"lat":45.8572,"lon":15.80463},"openingHours":[{"weekDay":1,"timeRanges":[{"opening":"08:00","closing":"20:00"}]},{"weekDay":2,"timeRanges":[{"opening":"08:00","closing":"20:00"}]},{"weekDay":3,"timeRanges":[{"opening":"08:00","closing":"20:00"}]},{"weekDay":4,"timeRanges":[{"opening":"08:00","closing":"20:00"}]},{"weekDay":5,"timeRanges":[{"opening":"08:00","closing":"20:00"}]},{"weekDay":6,"timeRanges":[{"opening":"08:00","closing":"15:00"}]}]},{"storeNumber":"200","address":{"name":"dm-drogerie markt d.o.o.","street":"\u017dedno Drage","zip":"21400","city":"SUPETAR"},"location":{"lat":43.3788137,"lon":16.5583051},"openingHours":[{"weekDay":1,"timeRanges":[{"opening":"08:00","closing":"22:00"}]},{"weekDay":2,"timeRanges":[{"opening":"08:00","closing":"22:00"}]},{"weekDay":3,"timeRanges":[{"opening":"08:00","closing":"22:00"}]},{"weekDay":4,"timeRanges":[{"opening":"08:00","closing":"22:00"}]},{"weekDay":5,"timeRanges":[{"opening":"08:00","closing":"22:00"}]},{"weekDay":6,"timeRanges":[{"opening":"08:00","closing":"22:00"}]},{"weekDay":7,"timeRanges":[{"opening":"08:00","closing":"20:00"}]}]},{"storeNumber":"202","address":{"name":"dm-drogerie markt d.o.o.","street":"B. Frankopana 15a","streetAdditional":"OGULIN-CENTAR","zip":"47300","city":"OGULIN"},"location":{"lat":45.2643837,"lon":15.2284384},"openingHours":[{"weekDay":1,"timeRanges":[{"opening":"08:00","closing":"20:00"}]},{"weekDay":2,"timeRanges":[{"opening":"08:00","closing":"20:00"}]},{"weekDay":3,"timeRanges":[{"opening":"08:00","closing":"20:00"}]},{"weekDay":4,"timeRanges":[{"opening":"08:00","closing":"20:00"}]},{"weekDay":5,"timeRanges":[{"opening":"08:00","closing":"20:00"}]},{"weekDay":6,"timeRanges":[{"opening":"08:00","closing":"20:00"}]}]},{"storeNumber":"204","address":{"name":"dm-drogerie markt d.o.o.","street":"Maksimirska 8","streetAdditional":"ZG-TC KVATERNIK PLAZA","zip":"10000","city":"Zagreb"},"location":{"lat":45.8152938,"lon":15.9985057},"openingHours":[{"weekDay":1,"timeRanges":[{"opening":"08:00","closing":"21:00"}]},{"weekDay":2,"timeRanges":[{"opening":"08:00","closing":"21:00"}]},{"weekDay":3,"timeRanges":[{"opening":"08:00","closing":"21:00"}]},{"weekDay":4,"timeRanges":[{"opening":"08:00","closing":"21:00"}]},{"weekDay":5,"timeRanges":[{"opening":"08:00","closing":"21:00"}]},{"weekDay":6,"timeRanges":[{"opening":"08:00","closing":"17:00"}]}]},{"storeNumber":"205","address":{"name":"dm-drogerie markt d.o.o.","street":"Akcije Maslenica 1","streetAdditional":"ZADAR-SC SUPERNOVA","zip":"23000","city":"ZADAR"},"location":{"lat":44.1149078,"lon":15.2729226},"openingHours":[{"weekDay":1,"timeRanges":[{"opening":"09:00","closing":"22:00"}]},{"weekDay":2,"timeRanges":[{"opening":"09:00","closing":"22:00"}]},{"weekDay":3,"timeRanges":[{"opening":"09:00","closing":"22:00"}]},{"weekDay":4,"timeRanges":[{"opening":"09:00","closing":"22:00"}]},{"weekDay":5,"timeRanges":[{"opening":"09:00","closing":"22:00"}]},{"weekDay":6,"timeRanges":[{"opening":"09:00","closing":"22:00"}]},{"weekDay":7,"timeRanges":[{"opening":"09:00","closing":"22:00"}]}]},{"storeNumber":"206","address":{"name":"dm-drogerie markt d.o.o.","street":"Stoja 14a","streetAdditional":"PULA-SC MAX CITY","zip":"52100","city":"PULA"},"location":{"lat":44.8610915,"lon":13.8238936},"openingHours":[{"weekDay":1,"timeRanges":[{"opening":"09:00","closing":"22:00"}]},{"weekDay":2,"timeRanges":[{"opening":"09:00","closing":"22:00"}]},{"weekDay":3,"timeRanges":[{"opening":"09:00","closing":"22:00"}]},{"weekDay":4,"timeRanges":[{"opening":"09:00","closing":"22:00"}]},{"weekDay":5,"timeRanges":[{"opening":"09:00","closing":"22:00"}]},{"weekDay":6,"timeRanges":[{"opening":"09:00","closing":"22:00"}]},{"weekDay":7,"timeRanges":[{"opening":"09:00","closing":"22:00"}]}]},{"storeNumber":"207","address":{"name":"dm-drogerie markt d.o.o.","street":"Trg Vladimira Nazora 10","streetAdditional":"IVANI\u0106 GRAD-TRG VLADIMIRA NAZORA","zip":"10310","city":"IVANI\u0106-GRAD"},"location":{"lat":45.7034483,"lon":16.3934552},"openingHours":[{"weekDay":1,"timeRanges":[{"opening":"08:00","closing":"20:00"}]},{"weekDay":2,"timeRanges":[{"opening":"08:00","closing":"20:00"}]},{"weekDay":3,"timeRanges":[{"opening":"08:00","closing":"20:00"}]},{"weekDay":4,"timeRanges":[{"opening":"08:00","closing":"20:00"}]},{"weekDay":5,"timeRanges":[{"opening":"08:00","closing":"20:00"}]},{"weekDay":6,"timeRanges":[{"opening":"08:00","closing":"17:00"}]}]},{"storeNumber":"208","address":{"name":"dm-drogerie markt d.o.o.","street":"Martinkovac 127","streetAdditional":"RI-TC MARTINKOVAC","zip":"51000","city":"RIJEKA"},"location":{"lat":45.3551188,"lon":14.3633798},"openingHours":[{"weekDay":1,"timeRanges":[{"opening":"09:00","closing":"21:00"}]},{"weekDay":2,"timeRanges":[{"opening":"09:00","closing":"21:00"}]},{"weekDay":3,"timeRanges":[{"opening":"09:00","closing":"21:00"}]},{"weekDay":4,"timeRanges":[{"opening":"09:00","closing":"21:00"}]},{"weekDay":5,"timeRanges":[{"opening":"09:00","closing":"21:00"}]},{"weekDay":6,"timeRanges":[{"opening":"09:00","closing":"21:00"}]},{"weekDay":7,"timeRanges":[{"opening":"09:00","closing":"21:00"}]}]},{"storeNumber":"209","address":{"name":"dm-drogerie markt d.o.o.","street":"Slavonska av. 11d","streetAdditional":"ZG-SC CCO EAST","zip":"10000","city":"Zagreb"},"location":{"lat":45.80218,"lon":16.0507618},"openingHours":[{"weekDay":1,"timeRanges":[{"opening":"09:00","closing":"21:00"}]},{"weekDay":2,"timeRanges":[{"opening":"09:00","closing":"21:00"}]},{"weekDay":3,"timeRanges":[{"opening":"09:00","closing":"21:00"}]},{"weekDay":4,"timeRanges":[{"opening":"09:00","closing":"21:00"}]},{"weekDay":5,"timeRanges":[{"opening":"09:00","closing":"21:00"}]},{"weekDay":6,"timeRanges":[{"opening":"09:00","closing":"21:00"}]},{"weekDay":7,"timeRanges":[{"opening":"09:00","closing":"21:00"}]}]},{"storeNumber":"21","address":{"name":"dm-drogerie markt d.o.o.","street":"Riva 6","streetAdditional":"RI-RK RIVA","zip":"51000","city":"RIJEKA"},"location":{"lat":45.32669,"lon":14.44211},"openingHours":[{"weekDay":1,"timeRanges":[{"opening":"08:00","closing":"20:00"}]},{"weekDay":2,"timeRanges":[{"opening":"08:00","closing":"20:00"}]},{"weekDay":3,"timeRanges":[{"opening":"08:00","closing":"20:00"}]},{"weekDay":4,"timeRanges":[{"opening":"08:00","closing":"20:00"}]},{"weekDay":5,"timeRanges":[{"opening":"08:00","closing":"20:00"}]},{"weekDay":6,"timeRanges":[{"opening":"08:00","closing":"21:00"}]}]},{"storeNumber":"210","address":{"name":"dm-drogerie markt d.o.o.","street":"Branimirova 29","streetAdditional":"ZG-TC BRANIMIR MINGLE MALL","zip":"10000","city":"Zagreb"},"location":{"lat":45.8057819,"lon":15.9847236},"openingHours":[{"weekDay":1,"timeRanges":[{"opening":"09:00","closing":"21:00"}]},{"weekDay":2,"timeRanges":[{"opening":"09:00","closing":"21:00"}]},{"weekDay":3,"timeRanges":[{"opening":"09:00","closing":"21:00"}]},{"weekDay":4,"timeRanges":[{"opening":"09:00","closing":"21:00"}]},{"weekDay":5,"timeRanges":[{"opening":"09:00","closing":"21:00"}]},{"weekDay":6,"timeRanges":[{"opening":"09:00","closing":"15:00"}]}]},{"storeNumber":"211","address":{"name":"dm-drogerie markt d.o.o.","street":"Nova Ves 17","streetAdditional":"ZG-SC CENTAR KAPTOL","zip":"10000","city":"ZAGREB"},"location":{"lat":45.8203864,"lon":15.9772831},"openingHours":[{"weekDay":1,"timeRanges":[{"opening":"09:00","closing":"21:00"}]},{"weekDay":2,"timeRanges":[{"opening":"09:00","closing":"21:00"}]},{"weekDay":3,"timeRanges":[{"opening":"09:00","closing":"21:00"}]},{"weekDay":4,"timeRanges":[{"opening":"09:00","closing":"21:00"}]},{"weekDay":5,"timeRanges":[{"opening":"09:00","closing":"21:00"}]},{"weekDay":6,"timeRanges":[{"opening":"09:00","closing":"21:00"}]}]},{"storeNumber":"212","address":{"name":"dm-drogerie markt d.o.o.","street":"Zagreba\u010dka 52","streetAdditional":"PO\u017dEGA-TC SUPERNOVA","zip":"34000","city":"PO\u017dEGA"},"location":{"lat":45.3307249,"lon":17.6473008},"openingHours":[{"weekDay":1,"timeRanges":[{"opening":"09:00","closing":"21:00"}]},{"weekDay":2,"timeRanges":[{"opening":"09:00","closing":"21:00"}]},{"weekDay":3,"timeRanges":[{"opening":"09:00","closing":"21:00"}]},{"weekDay":4,"timeRanges":[{"opening":"09:00","closing":"21:00"}]},{"weekDay":5,"timeRanges":[{"opening":"09:00","closing":"21:00"}]},{"weekDay":6,"timeRanges":[{"opening":"09:00","closing":"21:00"}]},{"weekDay":7,"timeRanges":[{"opening":"09:00","closing":"19:00"}]}]},{"storeNumber":"213","address":{"name":"dm-drogerie markt d.o.o.","street":"Kralja Tomislava 8","streetAdditional":"\u0110AKOVO-CENTAR-KRALJA TOMISLAVA","zip":"31400","city":"\u0110AKOVO"},"location":{"lat":45.3101155,"lon":18.4117075},"openingHours":[{"weekDay":1,"timeRanges":[{"opening":"08:00","closing":"20:00"}]},{"weekDay":2,"timeRanges":[{"opening":"08:00","closing":"20:00"}]},{"weekDay":3,"timeRanges":[{"opening":"08:00","closing":"20:00"}]},{"weekDay":4,"timeRanges":[{"opening":"08:00","closing":"20:00"}]},{"weekDay":5,"timeRanges":[{"opening":"08:00","closing":"20:00"}]},{"weekDay":6,"timeRanges":[{"opening":"08:00","closing":"20:00"}]}]},{"storeNumber":"214","address":{"name":"dm-drogerie markt d.o.o.","street":"Vukovarska 207","streetAdditional":"ST-SC CITY CENTER ONE","zip":"21000","city":"Split"},"location":{"lat":43.51389,"lon":16.50237},"openingHours":[{"weekDay":1,"timeRanges":[{"opening":"09:00","closing":"22:00"}]},{"weekDay":2,"timeRanges":[{"opening":"09:00","closing":"22:00"}]},{"weekDay":3,"timeRanges":[{"opening":"09:00","closing":"22:00"}]},{"weekDay":4,"timeRanges":[{"opening":"09:00","closing":"22:00"}]},{"weekDay":5,"timeRanges":[{"opening":"09:00","closing":"22:00"}]},{"weekDay":6,"timeRanges":[{"opening":"09:00","closing":"22:00"}]},{"weekDay":7,"timeRanges":[{"opening":"09:00","closing":"22:00"}]}]},{"storeNumber":"215","address":{"name":"dm-drogerie markt d.o.o.","street":"Partizanska 6A","streetAdditional":"PORE\u010c-PARTIZANSKA","zip":"52440","city":"PORE\u010c"},"location":{"lat":45.2266501,"lon":13.6003796},"openingHours":[{"weekDay":1,"timeRanges":[{"opening":"08:00","closing":"22:00"}]},{"weekDay":2,"timeRanges":[{"opening":"08:00","closing":"22:00"}]},{"weekDay":3,"timeRanges":[{"opening":"08:00","closing":"22:00"}]},{"weekDay":4,"timeRanges":[{"opening":"08:00","closing":"22:00"}]},{"weekDay":5,"timeRanges":[{"opening":"08:00","closing":"22:00"}]},{"weekDay":6,"timeRanges":[{"opening":"08:00","closing":"22:00"}]},{"weekDay":7,"timeRanges":[{"opening":"08:00","closing":"14:00"}]}]},{"storeNumber":"218","address":{"name":"dm-drogerie markt d.o.o.","street":"Ulica Toma\u0161a Gori\u010danca 1","streetAdditional":"\u010cAKOVEC-TC JUG","zip":"40000","city":"\u010cAKOVEC"},"location":{"lat":46.3802286,"lon":16.4432191},"openingHours":[{"weekDay":1,"timeRanges":[{"opening":"08:00","closing":"21:00"}]},{"weekDay":2,"timeRanges":[{"opening":"08:00","closing":"21:00"}]},{"weekDay":3,"timeRanges":[{"opening":"08:00","closing":"21:00"}]},{"weekDay":4,"timeRanges":[{"opening":"08:00","closing":"21:00"}]},{"weekDay":5,"timeRanges":[{"opening":"08:00","closing":"21:00"}]},{"weekDay":6,"timeRanges":[{"opening":"08:00","closing":"21:00"}]},{"weekDay":7,"timeRanges":[{"opening":"08:00","closing":"17:00"}]}]},{"storeNumber":"22","address":{"name":"dm-drogerie markt d.o.o.","street":"Maksimirska 75","streetAdditional":"ZG-MAXIMA","zip":"10000","city":"ZAGREB"},"location":{"lat":45.81729,"lon":16.00594},"openingHours":[{"weekDay":1,"timeRanges":[{"opening":"08:00","closing":"20:00"}]},{"weekDay":2,"timeRanges":[{"opening":"08:00","closing":"20:00"}]},{"weekDay":3,"timeRanges":[{"opening":"08:00","closing":"20:00"}]},{"weekDay":4,"timeRanges":[{"opening":"08:00","closing":"20:00"}]},{"weekDay":5,"timeRanges":[{"opening":"08:00","closing":"20:00"}]},{"weekDay":6,"timeRanges":[{"opening":"08:00","closing":"15:00"}]}]},{"storeNumber":"223","address":{"name":"dm-drogerie markt d.o.o.","street":"Gacka 10","streetAdditional":"OS-TC MERCATOR","zip":"31000","city":"OSIJEK"},"location":{"lat":45.5444642,"lon":18.6786314},"openingHours":[{"weekDay":1,"timeRanges":[{"opening":"09:00","closing":"21:00"}]},{"weekDay":2,"timeRanges":[{"opening":"09:00","closing":"21:00"}]},{"weekDay":3,"timeRanges":[{"opening":"09:00","closing":"21:00"}]},{"weekDay":4,"timeRanges":[{"opening":"09:00","closing":"21:00"}]},{"weekDay":5,"timeRanges":[{"opening":"09:00","closing":"21:00"}]},{"weekDay":6,"timeRanges":[{"opening":"09:00","closing":"21:00"}]},{"weekDay":7,"timeRanges":[{"opening":"09:00","closing":"13:00"}]}]},{"storeNumber":"225","address":{"name":"dm-drogerie markt d.o.o.","street":"Radni\u010dka cesta 49","zip":"10000","city":"ZAGREB"},"location":{"lat":45.802891,"lon":16.006883},"openingHours":[{"weekDay":1,"timeRanges":[{"opening":"08:00","closing":"22:00"}]},{"weekDay":2,"timeRanges":[{"opening":"08:00","closing":"22:00"}]},{"weekDay":3,"timeRanges":[{"opening":"08:00","closing":"22:00"}]},{"weekDay":4,"timeRanges":[{"opening":"08:00","closing":"22:00"}]},{"weekDay":5,"timeRanges":[{"opening":"08:00","closing":"22:00"}]},{"weekDay":6,"timeRanges":[{"opening":"08:00","closing":"22:00"}]},{"weekDay":7,"timeRanges":[{"opening":"08:00","closing":"20:00"}]}]},{"storeNumber":"227","address":{"name":"dm-drogerie markt d.o.o.","street":"Vile Velebita 6","streetAdditional":"ZG TC KAUFLAND DUBRAVA","zip":"10040","city":"ZAGREB"},"location":{"lat":45.8341521,"lon":16.0577285},"openingHours":[{"weekDay":1,"timeRanges":[{"opening":"08:00","closing":"21:00"}]},{"weekDay":2,"timeRanges":[{"opening":"08:00","closing":"21:00"}]},{"weekDay":3,"timeRanges":[{"opening":"08:00","closing":"21:00"}]},{"weekDay":4,"timeRanges":[{"opening":"08:00","closing":"21:00"}]},{"weekDay":5,"timeRanges":[{"opening":"08:00","closing":"21:00"}]},{"weekDay":6,"timeRanges":[{"opening":"08:00","closing":"21:00"}]},{"weekDay":7,"timeRanges":[{"opening":"08:00","closing":"20:00"}]}]},{"storeNumber":"24","address":{"name":"dm-drogerie markt d.o.o.","street":"Bana Jela\u010di\u0107a 6","streetAdditional":"VINKOVCI-BANA JELACICA","zip":"32100","city":"VINKOVCI"},"location":{"lat":45.2879044,"lon":18.8057654},"openingHours":[{"weekDay":1,"timeRanges":[{"opening":"08:00","closing":"20:00"}]},{"weekDay":2,"timeRanges":[{"opening":"08:00","closing":"20:00"}]},{"weekDay":3,"timeRanges":[{"opening":"08:00","closing":"20:00"}]},{"weekDay":4,"timeRanges":[{"opening":"08:00","closing":"20:00"}]},{"weekDay":5,"timeRanges":[{"opening":"08:00","closing":"20:00"}]},{"weekDay":6,"timeRanges":[{"opening":"08:00","closing":"14:00"}]}]},{"storeNumber":"25","address":{"name":"dm-drogerie markt d.o.o.","street":"Trg hrvatskih branitelja 2","streetAdditional":"KARLOVAC-TRZNICA","zip":"47000","city":"KARLOVAC"},"location":{"lat":45.4891266,"lon":15.5462547},"openingHours":[{"weekDay":1,"timeRanges":[{"opening":"08:00","closing":"20:00"}]},{"weekDay":2,"timeRanges":[{"opening":"08:00","closing":"20:00"}]},{"weekDay":3,"timeRanges":[{"opening":"08:00","closing":"20:00"}]},{"weekDay":4,"timeRanges":[{"opening":"08:00","closing":"20:00"}]},{"weekDay":5,"timeRanges":[{"opening":"08:00","closing":"20:00"}]},{"weekDay":6,"timeRanges":[{"opening":"08:00","closing":"14:00"}]}]},{"storeNumber":"26","address":{"name":"dm-drogerie markt d.o.o.","street":"Alojzija Stepinca 42","streetAdditional":"TROGIR","zip":"21220","city":"TROGIR"},"location":{"lat":43.5186498,"lon":16.2480588},"openingHours":[{"weekDay":1,"timeRanges":[{"opening":"07:00","closing":"22:00"}]},{"weekDay":2,"timeRanges":[{"opening":"07:00","closing":"22:00"}]},{"weekDay":3,"timeRanges":[{"opening":"07:00","closing":"22:00"}]},{"weekDay":4,"timeRanges":[{"opening":"07:00","closing":"22:00"}]},{"weekDay":5,"timeRanges":[{"opening":"07:00","closing":"22:00"}]},{"weekDay":6,"timeRanges":[{"opening":"07:00","closing":"22:00"}]},{"weekDay":7,"timeRanges":[{"opening":"08:00","closing":"21:00"}]}]},{"storeNumber":"27","address":{"name":"dm-drogerie markt d.o.o.","street":"Ilica 308","streetAdditional":"ZG-KUSTOSIJA","zip":"10000","city":"ZAGREB"},"location":{"lat":45.81369,"lon":15.92704},"openingHours":[{"weekDay":1,"timeRanges":[{"opening":"08:00","closing":"20:00"}]},{"weekDay":2,"timeRanges":[{"opening":"08:00","closing":"20:00"}]},{"weekDay":3,"timeRanges":[{"opening":"08:00","closing":"20:00"}]},{"weekDay":4,"timeRanges":[{"opening":"08:00","closing":"20:00"}]},{"weekDay":5,"timeRanges":[{"opening":"08:00","closing":"20:00"}]},{"weekDay":6,"timeRanges":[{"opening":"08:00","closing":"15:00"}]}]},{"storeNumber":"28","address":{"name":"dm-drogerie markt d.o.o.","street":"Hrastin prilaz 3","streetAdditional":"ZG-UTRINE","zip":"10000","city":"ZAGREB"},"location":{"lat":45.77731,"lon":15.99572},"openingHours":[{"weekDay":1,"timeRanges":[{"opening":"08:00","closing":"20:00"}]},{"weekDay":2,"timeRanges":[{"opening":"08:00","closing":"20:00"}]},{"weekDay":3,"timeRanges":[{"opening":"08:00","closing":"20:00"}]},{"weekDay":4,"timeRanges":[{"opening":"08:00","closing":"20:00"}]},{"weekDay":5,"timeRanges":[{"opening":"08:00","closing":"20:00"}]},{"weekDay":6,"timeRanges":[{"opening":"08:00","closing":"15:00"}]},{"weekDay":7,"timeRanges":[{"opening":"08:00","closing":"13:00"}]}]},{"storeNumber":"30","address":{"name":"dm-drogerie markt d.o.o.","street":"Petra Preradovi\u0107a 1","streetAdditional":"BJELOVAR","zip":"43000","city":"BJELOVAR"},"location":{"lat":45.89753,"lon":16.84265},"openingHours":[{"weekDay":1,"timeRanges":[{"opening":"08:00","closing":"20:00"}]},{"weekDay":2,"timeRanges":[{"opening":"08:00","closing":"20:00"}]},{"weekDay":3,"timeRanges":[{"opening":"08:00","closing":"20:00"}]},{"weekDay":4,"timeRanges":[{"opening":"08:00","closing":"20:00"}]},{"weekDay":5,"timeRanges":[{"opening":"08:00","closing":"20:00"}]},{"weekDay":6,"timeRanges":[{"opening":"08:00","closing":"20:00"}]}]},{"storeNumber":"32","address":{"name":"dm-drogerie markt d.o.o.","street":"Iblerov trg 10","streetAdditional":"ZG-SC GALLERIA","zip":"10000","city":"ZAGREB"},"location":{"lat":45.8133873,"lon":15.9847983},"openingHours":[{"weekDay":1,"timeRanges":[{"opening":"09:00","closing":"21:00"}]},{"weekDay":2,"timeRanges":[{"opening":"09:00","closing":"21:00"}]},{"weekDay":3,"timeRanges":[{"opening":"09:00","closing":"21:00"}]},{"weekDay":4,"timeRanges":[{"opening":"09:00","closing":"21:00"}]},{"weekDay":5,"timeRanges":[{"opening":"09:00","closing":"21:00"}]},{"weekDay":6,"timeRanges":[{"opening":"09:00","closing":"21:00"}]}]},{"storeNumber":"33","address":{"name":"dm-drogerie markt d.o.o.","street":"\u0160eferova 2","streetAdditional":"ZG-RAVNICE","zip":"10000","city":"ZAGREB"},"location":{"lat":45.81912,"lon":16.02592},"openingHours":[{"weekDay":1,"timeRanges":[{"opening":"08:00","closing":"20:00"}]},{"weekDay":2,"timeRanges":[{"opening":"08:00","closing":"20:00"}]},{"weekDay":3,"timeRanges":[{"opening":"08:00","closing":"20:00"}]},{"weekDay":4,"timeRanges":[{"opening":"08:00","closing":"20:00"}]},{"weekDay":5,"timeRanges":[{"opening":"08:00","closing":"20:00"}]},{"weekDay":6,"timeRanges":[{"opening":"08:00","closing":"15:00"}]}]},{"storeNumber":"35","address":{"name":"dm-drogerie markt d.o.o.","street":"Josipa Zori\u0107a 14","streetAdditional":"DUGO SELO","zip":"10370","city":"DUGO SELO"},"location":{"lat":45.80564,"lon":16.23458},"openingHours":[{"weekDay":1,"timeRanges":[{"opening":"08:00","closing":"20:00"}]},{"weekDay":2,"timeRanges":[{"opening":"08:00","closing":"20:00"}]},{"weekDay":3,"timeRanges":[{"opening":"08:00","closing":"20:00"}]},{"weekDay":4,"timeRanges":[{"opening":"08:00","closing":"20:00"}]},{"weekDay":5,"timeRanges":[{"opening":"08:00","closing":"20:00"}]},{"weekDay":6,"timeRanges":[{"opening":"08:00","closing":"15:00"}]}]},{"storeNumber":"36","address":{"name":"dm-drogerie markt d.o.o.","street":"1. svibnja 1b","streetAdditional":"UMAG","zip":"52470","city":"UMAG"},"location":{"lat":45.4319785,"lon":13.5219823},"openingHours":[{"weekDay":1,"timeRanges":[{"opening":"08:00","closing":"22:00"}]},{"weekDay":2,"timeRanges":[{"opening":"08:00","closing":"22:00"}]},{"weekDay":3,"timeRanges":[{"opening":"08:00","closing":"22:00"}]},{"weekDay":4,"timeRanges":[{"opening":"08:00","closing":"22:00"}]},{"weekDay":5,"timeRanges":[{"opening":"08:00","closing":"22:00"}]},{"weekDay":6,"timeRanges":[{"opening":"08:00","closing":"21:00"}]},{"weekDay":7,"timeRanges":[{"opening":"09:00","closing":"14:00"}]}]},{"storeNumber":"41","address":{"name":"dm-drogerie markt d.o.o.","street":"Trg kralja Tomislava 5","streetAdditional":"KUTINA","zip":"44320","city":"KUTINA"},"location":{"lat":45.48268,"lon":16.77645},"openingHours":[{"weekDay":1,"timeRanges":[{"opening":"08:00","closing":"20:00"}]},{"weekDay":2,"timeRanges":[{"opening":"08:00","closing":"20:00"}]},{"weekDay":3,"timeRanges":[{"opening":"08:00","closing":"20:00"}]},{"weekDay":4,"timeRanges":[{"opening":"08:00","closing":"20:00"}]},{"weekDay":5,"timeRanges":[{"opening":"08:00","closing":"20:00"}]},{"weekDay":6,"timeRanges":[{"opening":"08:00","closing":"14:00"}]}]},{"storeNumber":"43","address":{"name":"dm-drogerie markt d.o.o.","street":"Bjelovarska 3","streetAdditional":"SESVETE-BJELOVARSKA","zip":"10360","city":"SESVETE"},"location":{"lat":45.82687,"lon":16.11248},"openingHours":[{"weekDay":1,"timeRanges":[{"opening":"08:00","closing":"20:00"}]},{"weekDay":2,"timeRanges":[{"opening":"08:00","closing":"20:00"}]},{"weekDay":3,"timeRanges":[{"opening":"08:00","closing":"20:00"}]},{"weekDay":4,"timeRanges":[{"opening":"08:00","closing":"20:00"}]},{"weekDay":5,"timeRanges":[{"opening":"08:00","closing":"20:00"}]},{"weekDay":6,"timeRanges":[{"opening":"08:00","closing":"15:00"}]}]},{"storeNumber":"45","address":{"name":"dm-drogerie markt d.o.o.","street":"Slavonskih grani\u010dara 12","streetAdditional":"NOVA GRADISKA","zip":"35400","city":"NOVA GRADI\u0160KA"},"location":{"lat":45.2598388,"lon":17.3824001},"openingHours":[{"weekDay":1,"timeRanges":[{"opening":"08:00","closing":"20:00"}]},{"weekDay":2,"timeRanges":[{"opening":"08:00","closing":"20:00"}]},{"weekDay":3,"timeRanges":[{"opening":"08:00","closing":"20:00"}]},{"weekDay":4,"timeRanges":[{"opening":"08:00","closing":"20:00"}]},{"weekDay":5,"timeRanges":[{"opening":"08:00","closing":"20:00"}]},{"weekDay":6,"timeRanges":[{"opening":"08:00","closing":"14:00"}]}]},{"storeNumber":"46","address":{"name":"dm-drogerie markt d.o.o.","street":"Trg A.Star\u010devi\u0107a 7","streetAdditional":"ZG-SC IMPORTANNE","zip":"10000","city":"ZAGREB"},"location":{"lat":45.8049394,"lon":15.9770993},"openingHours":[{"weekDay":1,"timeRanges":[{"opening":"09:00","closing":"21:00"}]},{"weekDay":2,"timeRanges":[{"opening":"09:00","closing":"21:00"}]},{"weekDay":3,"timeRanges":[{"opening":"09:00","closing":"21:00"}]},{"weekDay":4,"timeRanges":[{"opening":"09:00","closing":"21:00"}]},{"weekDay":5,"timeRanges":[{"opening":"09:00","closing":"21:00"}]},{"weekDay":6,"timeRanges":[{"opening":"09:00","closing":"21:00"}]}]},{"storeNumber":"47","address":{"name":"dm-drogerie markt d.o.o.","street":"Vukovarska 72","streetAdditional":"ZG-VUKOVARSKA","zip":"10000","city":"ZAGREB"},"location":{"lat":45.79964,"lon":15.97356},"openingHours":[{"weekDay":1,"timeRanges":[{"opening":"07:00","closing":"20:00"}]},{"weekDay":2,"timeRanges":[{"opening":"07:00","closing":"20:00"}]},{"weekDay":3,"timeRanges":[{"opening":"07:00","closing":"20:00"}]},{"weekDay":4,"timeRanges":[{"opening":"07:00","closing":"20:00"}]},{"weekDay":5,"timeRanges":[{"opening":"07:00","closing":"20:00"}]},{"weekDay":6,"timeRanges":[{"opening":"09:00","closing":"14:00"}]}]},{"storeNumber":"48","address":{"name":"dm-drogerie markt d.o.o.","street":"Valenta Morandinija 4","streetAdditional":"CAKOVEC-MORANDINIJEVA","zip":"40000","city":"\u010cAKOVEC"},"location":{"lat":46.38821,"lon":16.43649},"openingHours":[{"weekDay":1,"timeRanges":[{"opening":"08:00","closing":"20:00"}]},{"weekDay":2,"timeRanges":[{"opening":"08:00","closing":"20:00"}]},{"weekDay":3,"timeRanges":[{"opening":"08:00","closing":"20:00"}]},{"weekDay":4,"timeRanges":[{"opening":"08:00","closing":"20:00"}]},{"weekDay":5,"timeRanges":[{"opening":"08:00","closing":"20:00"}]},{"weekDay":6,"timeRanges":[{"opening":"08:00","closing":"14:00"}]}]},{"storeNumber":"49","address":{"name":"dm-drogerie markt d.o.o.","street":"Stjepana Radi\u0107a bb","streetAdditional":"KRK","zip":"51500","city":"KRK"},"location":{"lat":45.02697,"lon":14.57301},"openingHours":[{"weekDay":1,"timeRanges":[{"opening":"08:00","closing":"23:00"}]},{"weekDay":2,"timeRanges":[{"opening":"08:00","closing":"23:00"}]},{"weekDay":3,"timeRanges":[{"opening":"08:00","closing":"23:00"}]},{"weekDay":4,"timeRanges":[{"opening":"08:00","closing":"23:00"}]},{"weekDay":5,"timeRanges":[{"opening":"08:00","closing":"23:00"}]},{"weekDay":6,"timeRanges":[{"opening":"08:00","closing":"23:00"}]},{"weekDay":7,"timeRanges":[{"opening":"08:00","closing":"23:00"}]}]},{"storeNumber":"50","address":{"name":"dm-drogerie markt d.o.o.","street":"Ma\u017eurani\u0107evo \u0161etali\u0161te 53\/a","streetAdditional":"ST-RAVEL","zip":"21000","city":"SPLIT"},"location":{"lat":43.5136942,"lon":16.4511338},"openingHours":[{"weekDay":1,"timeRanges":[{"opening":"08:00","closing":"21:00"}]},{"weekDay":2,"timeRanges":[{"opening":"08:00","closing":"21:00"}]},{"weekDay":3,"timeRanges":[{"opening":"08:00","closing":"21:00"}]},{"weekDay":4,"timeRanges":[{"opening":"08:00","closing":"21:00"}]},{"weekDay":5,"timeRanges":[{"opening":"08:00","closing":"21:00"}]},{"weekDay":6,"timeRanges":[{"opening":"08:00","closing":"14:00"}]}]},{"storeNumber":"51","address":{"name":"dm-drogerie markt d.o.o.","street":"Oki\u0107ka 3","streetAdditional":"ZG-OKICKA","zip":"10000","city":"ZAGREB"},"location":{"lat":45.79879,"lon":15.9475},"openingHours":[{"weekDay":1,"timeRanges":[{"opening":"08:00","closing":"20:00"}]},{"weekDay":2,"timeRanges":[{"opening":"08:00","closing":"20:00"}]},{"weekDay":3,"timeRanges":[{"opening":"08:00","closing":"20:00"}]},{"weekDay":4,"timeRanges":[{"opening":"08:00","closing":"20:00"}]},{"weekDay":5,"timeRanges":[{"opening":"08:00","closing":"20:00"}]},{"weekDay":6,"timeRanges":[{"opening":"08:00","closing":"15:00"}]}]},{"storeNumber":"54","address":{"name":"dm-drogerie markt d.o.o.","street":"Bo\u017eidara Magovca 23","streetAdditional":"ZG-MAMUTICA","zip":"10000","city":"ZAGREB"},"location":{"lat":45.7717505,"lon":15.9942455},"openingHours":[{"weekDay":1,"timeRanges":[{"opening":"08:00","closing":"20:00"}]},{"weekDay":2,"timeRanges":[{"opening":"08:00","closing":"20:00"}]},{"weekDay":3,"timeRanges":[{"opening":"08:00","closing":"20:00"}]},{"weekDay":4,"timeRanges":[{"opening":"08:00","closing":"20:00"}]},{"weekDay":5,"timeRanges":[{"opening":"08:00","closing":"20:00"}]},{"weekDay":6,"timeRanges":[{"opening":"08:00","closing":"15:00"}]}]},{"storeNumber":"56","address":{"name":"dm-drogerie markt d.o.o.","street":"Kralja Zvonimira 2","streetAdditional":"ZG-ZVONIMIROVA","zip":"10000","city":"ZAGREB"},"location":{"lat":45.80978,"lon":15.98827},"openingHours":[{"weekDay":1,"timeRanges":[{"opening":"08:00","closing":"21:00"}]},{"weekDay":2,"timeRanges":[{"opening":"08:00","closing":"21:00"}]},{"weekDay":3,"timeRanges":[{"opening":"08:00","closing":"21:00"}]},{"weekDay":4,"timeRanges":[{"opening":"08:00","closing":"21:00"}]},{"weekDay":5,"timeRanges":[{"opening":"08:00","closing":"21:00"}]},{"weekDay":6,"timeRanges":[{"opening":"08:00","closing":"15:00"}]}]},{"storeNumber":"57","address":{"name":"dm-drogerie markt d.o.o.","street":"Murvi\u010dka 1","streetAdditional":"ZADAR-SC RELJA","zip":"23000","city":"ZADAR"},"location":{"lat":44.11,"lon":15.23773},"openingHours":[{"weekDay":1,"timeRanges":[{"opening":"08:00","closing":"21:00"}]},{"weekDay":2,"timeRanges":[{"opening":"08:00","closing":"21:00"}]},{"weekDay":3,"timeRanges":[{"opening":"08:00","closing":"21:00"}]},{"weekDay":4,"timeRanges":[{"opening":"08:00","closing":"21:00"}]},{"weekDay":5,"timeRanges":[{"opening":"08:00","closing":"21:00"}]},{"weekDay":6,"timeRanges":[{"opening":"08:00","closing":"20:00"}]}]},{"storeNumber":"58","address":{"name":"dm-drogerie markt d.o.o.","street":"Florijanski trg 15","streetAdditional":"KOPRIVNICA-FLORIJANSKI TRG","zip":"48000","city":"KOPRIVNICA"},"location":{"lat":46.16399,"lon":16.82884},"openingHours":[{"weekDay":1,"timeRanges":[{"opening":"08:00","closing":"20:00"}]},{"weekDay":2,"timeRanges":[{"opening":"08:00","closing":"20:00"}]},{"weekDay":3,"timeRanges":[{"opening":"08:00","closing":"20:00"}]},{"weekDay":4,"timeRanges":[{"opening":"08:00","closing":"20:00"}]},{"weekDay":5,"timeRanges":[{"opening":"08:00","closing":"20:00"}]},{"weekDay":6,"timeRanges":[{"opening":"08:00","closing":"15:00"}]}]},{"storeNumber":"60","address":{"name":"dm-drogerie markt d.o.o.","street":"\u0160korpikova 34","streetAdditional":"ZG-SC KING CROSS","zip":"10000","city":"ZAGREB"},"location":{"lat":45.79771,"lon":15.85548},"openingHours":[{"weekDay":1,"timeRanges":[{"opening":"09:00","closing":"21:00"}]},{"weekDay":2,"timeRanges":[{"opening":"09:00","closing":"21:00"}]},{"weekDay":3,"timeRanges":[{"opening":"09:00","closing":"21:00"}]},{"weekDay":4,"timeRanges":[{"opening":"09:00","closing":"21:00"}]},{"weekDay":5,"timeRanges":[{"opening":"09:00","closing":"21:00"}]},{"weekDay":6,"timeRanges":[{"opening":"09:00","closing":"21:00"}]},{"weekDay":7,"timeRanges":[{"opening":"09:00","closing":"20:00"}]}]},{"storeNumber":"61","address":{"name":"dm-drogerie markt d.o.o.","street":"Trg Draga 6","streetAdditional":"SIBENIK-KOLODVOR","zip":"22000","city":"\u0160IBENIK"},"location":{"lat":43.73198,"lon":15.8937},"openingHours":[{"weekDay":1,"timeRanges":[{"opening":"08:00","closing":"21:00"}]},{"weekDay":2,"timeRanges":[{"opening":"08:00","closing":"21:00"}]},{"weekDay":3,"timeRanges":[{"opening":"08:00","closing":"21:00"}]},{"weekDay":4,"timeRanges":[{"opening":"08:00","closing":"21:00"}]},{"weekDay":5,"timeRanges":[{"opening":"08:00","closing":"21:00"}]},{"weekDay":6,"timeRanges":[{"opening":"08:00","closing":"20:00"}]}]},{"storeNumber":"62","address":{"name":"dm-drogerie markt d.o.o.","street":"I. Kr\u0161njavoga 1","streetAdditional":"ZG-HOTEL WESTIN","zip":"10000","city":"ZAGREB"},"location":{"lat":45.8062656,"lon":15.9662719},"openingHours":[{"weekDay":1,"timeRanges":[{"opening":"08:00","closing":"20:00"}]},{"weekDay":2,"timeRanges":[{"opening":"08:00","closing":"20:00"}]},{"weekDay":3,"timeRanges":[{"opening":"08:00","closing":"20:00"}]},{"weekDay":4,"timeRanges":[{"opening":"08:00","closing":"20:00"}]},{"weekDay":5,"timeRanges":[{"opening":"08:00","closing":"20:00"}]},{"weekDay":6,"timeRanges":[{"opening":"09:00","closing":"13:00"}]}]},{"storeNumber":"63","address":{"name":"dm-drogerie markt d.o.o.","street":"I. Tijardovi\u0107a 4A","streetAdditional":"OS-RK DOMA","zip":"31000","city":"OSIJEK"},"location":{"lat":45.55618,"lon":18.72004},"openingHours":[{"weekDay":1,"timeRanges":[{"opening":"08:00","closing":"20:00"}]},{"weekDay":2,"timeRanges":[{"opening":"08:00","closing":"20:00"}]},{"weekDay":3,"timeRanges":[{"opening":"08:00","closing":"20:00"}]},{"weekDay":4,"timeRanges":[{"opening":"08:00","closing":"20:00"}]},{"weekDay":5,"timeRanges":[{"opening":"08:00","closing":"20:00"}]},{"weekDay":6,"timeRanges":[{"opening":"08:00","closing":"14:00"}]}]},{"storeNumber":"64","address":{"name":"dm-drogerie markt d.o.o.","street":"Franje Tu\u0111mana 20","streetAdditional":"KNIN","zip":"22300","city":"KNIN"},"location":{"lat":44.0366902,"lon":16.197135},"openingHours":[{"weekDay":1,"timeRanges":[{"opening":"08:00","closing":"21:00"}]},{"weekDay":2,"timeRanges":[{"opening":"08:00","closing":"21:00"}]},{"weekDay":3,"timeRanges":[{"opening":"08:00","closing":"21:00"}]},{"weekDay":4,"timeRanges":[{"opening":"08:00","closing":"21:00"}]},{"weekDay":5,"timeRanges":[{"opening":"08:00","closing":"21:00"}]},{"weekDay":6,"timeRanges":[{"opening":"08:00","closing":"14:00"}]}]},{"storeNumber":"65","address":{"name":"dm-drogerie markt d.o.o.","street":"J.J.Strossmayera 17","streetAdditional":"SLAVONSKI BROD-STROSSMAYEROVA","zip":"35000","city":"SLAVONSKI BROD"},"location":{"lat":45.1534905,"lon":18.0228559},"openingHours":[{"weekDay":1,"timeRanges":[{"opening":"08:00","closing":"20:00"}]},{"weekDay":2,"timeRanges":[{"opening":"08:00","closing":"20:00"}]},{"weekDay":3,"timeRanges":[{"opening":"08:00","closing":"20:00"}]},{"weekDay":4,"timeRanges":[{"opening":"08:00","closing":"20:00"}]},{"weekDay":5,"timeRanges":[{"opening":"08:00","closing":"20:00"}]},{"weekDay":6,"timeRanges":[{"opening":"08:00","closing":"14:00"}]}]},{"storeNumber":"66","address":{"name":"dm-drogerie markt d.o.o.","street":" J.J.Strossmayera 2","streetAdditional":"ZUPANJA","zip":"32270","city":"\u017dUPANJA"},"location":{"lat":45.07264,"lon":18.69451},"openingHours":[{"weekDay":1,"timeRanges":[{"opening":"08:00","closing":"20:00"}]},{"weekDay":2,"timeRanges":[{"opening":"08:00","closing":"20:00"}]},{"weekDay":3,"timeRanges":[{"opening":"08:00","closing":"20:00"}]},{"weekDay":4,"timeRanges":[{"opening":"08:00","closing":"20:00"}]},{"weekDay":5,"timeRanges":[{"opening":"08:00","closing":"20:00"}]},{"weekDay":6,"timeRanges":[{"opening":"08:00","closing":"14:00"}]}]},{"storeNumber":"67","address":{"name":"dm-drogerie markt d.o.o.","street":"Britanski trg 2","streetAdditional":"ZG-BRITANSKI TRG","zip":"10000","city":"ZAGREB"},"location":{"lat":45.8128344,"lon":15.9643884},"openingHours":[{"weekDay":1,"timeRanges":[{"opening":"08:00","closing":"20:00"}]},{"weekDay":2,"timeRanges":[{"opening":"08:00","closing":"20:00"}]},{"weekDay":3,"timeRanges":[{"opening":"08:00","closing":"20:00"}]},{"weekDay":4,"timeRanges":[{"opening":"08:00","closing":"20:00"}]},{"weekDay":5,"timeRanges":[{"opening":"08:00","closing":"20:00"}]},{"weekDay":6,"timeRanges":[{"opening":"08:00","closing":"20:00"}]}]},{"storeNumber":"68","address":{"name":"dm-drogerie markt d.o.o.","street":"Gandhijeva 3","streetAdditional":"ZG-GAJNICE","zip":"10000","city":"ZAGREB"},"location":{"lat":45.81529,"lon":15.87688},"openingHours":[{"weekDay":1,"timeRanges":[{"opening":"08:00","closing":"20:00"}]},{"weekDay":2,"timeRanges":[{"opening":"08:00","closing":"20:00"}]},{"weekDay":3,"timeRanges":[{"opening":"08:00","closing":"20:00"}]},{"weekDay":4,"timeRanges":[{"opening":"08:00","closing":"20:00"}]},{"weekDay":5,"timeRanges":[{"opening":"08:00","closing":"20:00"}]},{"weekDay":6,"timeRanges":[{"opening":"08:00","closing":"15:00"}]}]},{"storeNumber":"69","address":{"name":"dm-drogerie markt d.o.o.","street":"Trg I. Kukuljevi\u0107a 10","streetAdditional":"ZG-SPANSKO","zip":"10000","city":"ZAGREB"},"location":{"lat":45.8047517,"lon":15.8963346},"openingHours":[{"weekDay":1,"timeRanges":[{"opening":"08:00","closing":"21:00"}]},{"weekDay":2,"timeRanges":[{"opening":"08:00","closing":"21:00"}]},{"weekDay":3,"timeRanges":[{"opening":"08:00","closing":"21:00"}]},{"weekDay":4,"timeRanges":[{"opening":"08:00","closing":"21:00"}]},{"weekDay":5,"timeRanges":[{"opening":"08:00","closing":"21:00"}]},{"weekDay":6,"timeRanges":[{"opening":"08:00","closing":"15:00"}]}]},{"storeNumber":"72","address":{"name":"dm-drogerie markt d.o.o.","street":"\u0160ubi\u0107eva 40","streetAdditional":"ZG-SUBICEVA","zip":"10000","city":"ZAGREB"},"location":{"lat":45.8132151,"lon":15.9968186},"openingHours":[{"weekDay":1,"timeRanges":[{"opening":"08:00","closing":"20:00"}]},{"weekDay":2,"timeRanges":[{"opening":"08:00","closing":"20:00"}]},{"weekDay":3,"timeRanges":[{"opening":"08:00","closing":"20:00"}]},{"weekDay":4,"timeRanges":[{"opening":"08:00","closing":"20:00"}]},{"weekDay":5,"timeRanges":[{"opening":"08:00","closing":"20:00"}]},{"weekDay":6,"timeRanges":[{"opening":"08:00","closing":"15:00"}]},{"weekDay":7,"timeRanges":[{"opening":"08:00","closing":"13:00"}]}]},{"storeNumber":"73","address":{"name":"dm-drogerie markt d.o.o.","street":"Sjenjak 133","streetAdditional":"OS-RK SJENJAK","zip":"31000","city":"OSIJEK"},"location":{"lat":45.55119,"lon":18.69609},"openingHours":[{"weekDay":1,"timeRanges":[{"opening":"08:00","closing":"20:00"}]},{"weekDay":2,"timeRanges":[{"opening":"08:00","closing":"20:00"}]},{"weekDay":3,"timeRanges":[{"opening":"08:00","closing":"20:00"}]},{"weekDay":4,"timeRanges":[{"opening":"08:00","closing":"20:00"}]},{"weekDay":5,"timeRanges":[{"opening":"08:00","closing":"20:00"}]},{"weekDay":6,"timeRanges":[{"opening":"08:00","closing":"20:00"}]}]},{"storeNumber":"74","address":{"name":"dm-drogerie markt d.o.o.","street":"Trg Franje Tu\u0111mana 3","streetAdditional":"IMOTSKI","zip":"21260","city":"IMOTSKI"},"location":{"lat":43.4462306,"lon":17.2155886},"openingHours":[{"weekDay":1,"timeRanges":[{"opening":"08:00","closing":"21:00"}]},{"weekDay":2,"timeRanges":[{"opening":"08:00","closing":"21:00"}]},{"weekDay":3,"timeRanges":[{"opening":"08:00","closing":"21:00"}]},{"weekDay":4,"timeRanges":[{"opening":"08:00","closing":"21:00"}]},{"weekDay":5,"timeRanges":[{"opening":"08:00","closing":"21:00"}]},{"weekDay":6,"timeRanges":[{"opening":"08:00","closing":"15:00"}]}]},{"storeNumber":"75","address":{"name":"dm-drogerie markt d.o.o.","street":"Matije Gupca 64","streetAdditional":"SC ZABOK","zip":"49210","city":"ZABOK"},"location":{"lat":46.02596,"lon":15.90404},"openingHours":[{"weekDay":1,"timeRanges":[{"opening":"08:00","closing":"20:00"}]},{"weekDay":2,"timeRanges":[{"opening":"08:00","closing":"20:00"}]},{"weekDay":3,"timeRanges":[{"opening":"08:00","closing":"20:00"}]},{"weekDay":4,"timeRanges":[{"opening":"08:00","closing":"20:00"}]},{"weekDay":5,"timeRanges":[{"opening":"08:00","closing":"20:00"}]},{"weekDay":6,"timeRanges":[{"opening":"08:00","closing":"15:00"}]}]},{"storeNumber":"76","address":{"name":"dm-drogerie markt d.o.o.","street":"Tolstojeva 4","streetAdditional":"ST-TOLSTOJEVA","zip":"21000","city":"SPLIT"},"location":{"lat":43.509854,"lon":16.4437095},"openingHours":[{"weekDay":1,"timeRanges":[{"opening":"08:00","closing":"21:00"}]},{"weekDay":2,"timeRanges":[{"opening":"08:00","closing":"21:00"}]},{"weekDay":3,"timeRanges":[{"opening":"08:00","closing":"21:00"}]},{"weekDay":4,"timeRanges":[{"opening":"08:00","closing":"21:00"}]},{"weekDay":5,"timeRanges":[{"opening":"08:00","closing":"21:00"}]},{"weekDay":6,"timeRanges":[{"opening":"08:00","closing":"15:00"}]}]},{"storeNumber":"77","address":{"name":"dm-drogerie markt d.o.o.","street":"Ilica 239","streetAdditional":"ZG-CRNOMEREC","zip":"10000","city":"ZAGREB"},"location":{"lat":45.8148,"lon":15.93505},"openingHours":[{"weekDay":1,"timeRanges":[{"opening":"08:00","closing":"20:00"}]},{"weekDay":2,"timeRanges":[{"opening":"08:00","closing":"20:00"}]},{"weekDay":3,"timeRanges":[{"opening":"08:00","closing":"20:00"}]},{"weekDay":4,"timeRanges":[{"opening":"08:00","closing":"20:00"}]},{"weekDay":5,"timeRanges":[{"opening":"08:00","closing":"20:00"}]},{"weekDay":6,"timeRanges":[{"opening":"08:00","closing":"15:00"}]}]},{"storeNumber":"78","address":{"name":"dm-drogerie markt d.o.o.","street":"Flanati\u010dka 25","streetAdditional":"PULA-TRZNICA","zip":"52100","city":"PULA"},"location":{"lat":44.86754,"lon":13.84969},"openingHours":[{"weekDay":1,"timeRanges":[{"opening":"08:00","closing":"21:00"}]},{"weekDay":2,"timeRanges":[{"opening":"08:00","closing":"21:00"}]},{"weekDay":3,"timeRanges":[{"opening":"08:00","closing":"21:00"}]},{"weekDay":4,"timeRanges":[{"opening":"08:00","closing":"21:00"}]},{"weekDay":5,"timeRanges":[{"opening":"08:00","closing":"21:00"}]},{"weekDay":6,"timeRanges":[{"opening":"08:00","closing":"15:00"}]},{"weekDay":7,"timeRanges":[{"opening":"08:00","closing":"13:00"}]}]},{"storeNumber":"79","address":{"name":"dm-drogerie markt d.o.o.","street":"Bleib. \u017ertava 1945 1","streetAdditional":"SAMOBOR-TC MERCATOR","zip":"10430","city":"SAMOBOR"},"location":{"lat":45.81145,"lon":15.7124},"openingHours":[{"weekDay":1,"timeRanges":[{"opening":"08:00","closing":"21:00"}]},{"weekDay":2,"timeRanges":[{"opening":"08:00","closing":"21:00"}]},{"weekDay":3,"timeRanges":[{"opening":"08:00","closing":"21:00"}]},{"weekDay":4,"timeRanges":[{"opening":"08:00","closing":"21:00"}]},{"weekDay":5,"timeRanges":[{"opening":"08:00","closing":"21:00"}]},{"weekDay":6,"timeRanges":[{"opening":"08:00","closing":"21:00"}]},{"weekDay":7,"timeRanges":[{"opening":"08:00","closing":"14:00"}]}]},{"storeNumber":"8","address":{"name":"dm-drogerie markt d.o.o.","street":"Ulica Ankice Opolski 1","streetAdditional":"VARAZDIN-CENTAR-TRG SLOBODE","zip":"42000","city":"VARA\u017dDIN"},"location":{"lat":46.3061,"lon":16.33621},"openingHours":[{"weekDay":1,"timeRanges":[{"opening":"08:00","closing":"20:00"}]},{"weekDay":2,"timeRanges":[{"opening":"08:00","closing":"20:00"}]},{"weekDay":3,"timeRanges":[{"opening":"08:00","closing":"20:00"}]},{"weekDay":4,"timeRanges":[{"opening":"08:00","closing":"20:00"}]},{"weekDay":5,"timeRanges":[{"opening":"08:00","closing":"20:00"}]},{"weekDay":6,"timeRanges":[{"opening":"08:00","closing":"14:00"}]}]},{"storeNumber":"80","address":{"name":"dm-drogerie markt d.o.o.","street":"Petrinjska 6","streetAdditional":"ZG-PETRINJSKA","zip":"10000","city":"ZAGREB"},"location":{"lat":45.81167,"lon":15.97935},"openingHours":[{"weekDay":1,"timeRanges":[{"opening":"08:00","closing":"20:00"}]},{"weekDay":2,"timeRanges":[{"opening":"08:00","closing":"20:00"}]},{"weekDay":3,"timeRanges":[{"opening":"08:00","closing":"20:00"}]},{"weekDay":4,"timeRanges":[{"opening":"08:00","closing":"20:00"}]},{"weekDay":5,"timeRanges":[{"opening":"08:00","closing":"20:00"}]},{"weekDay":6,"timeRanges":[{"opening":"08:00","closing":"16:00"}]}]},{"storeNumber":"82","address":{"name":"dm-drogerie markt d.o.o.","street":"Kralja Tomislava 1","streetAdditional":"KRIZEVCI","zip":"48260","city":"KRI\u017dEVCI"},"location":{"lat":46.02191,"lon":16.54672},"openingHours":[{"weekDay":1,"timeRanges":[{"opening":"08:00","closing":"20:00"}]},{"weekDay":2,"timeRanges":[{"opening":"08:00","closing":"20:00"}]},{"weekDay":3,"timeRanges":[{"opening":"08:00","closing":"20:00"}]},{"weekDay":4,"timeRanges":[{"opening":"08:00","closing":"20:00"}]},{"weekDay":5,"timeRanges":[{"opening":"08:00","closing":"20:00"}]},{"weekDay":6,"timeRanges":[{"opening":"08:00","closing":"17:00"}]}]},{"storeNumber":"83","address":{"name":"dm-drogerie markt d.o.o.","street":"Paromlinska 2\/a","streetAdditional":"ZG-SC POTHODNIK","zip":"10000","city":"ZAGREB"},"location":{"lat":45.80385,"lon":15.97762},"openingHours":[{"weekDay":1,"timeRanges":[{"opening":"07:00","closing":"21:00"}]},{"weekDay":2,"timeRanges":[{"opening":"07:00","closing":"21:00"}]},{"weekDay":3,"timeRanges":[{"opening":"07:00","closing":"21:00"}]},{"weekDay":4,"timeRanges":[{"opening":"07:00","closing":"21:00"}]},{"weekDay":5,"timeRanges":[{"opening":"07:00","closing":"21:00"}]},{"weekDay":6,"timeRanges":[{"opening":"08:00","closing":"20:00"}]}]},{"storeNumber":"84","address":{"name":"dm-drogerie markt d.o.o.","street":"Matice hrvatske 1","streetAdditional":"ST-KOTEX","zip":"21000","city":"SPLIT"},"location":{"lat":43.50829,"lon":16.45175},"openingHours":[{"weekDay":1,"timeRanges":[{"opening":"08:00","closing":"21:00"}]},{"weekDay":2,"timeRanges":[{"opening":"08:00","closing":"21:00"}]},{"weekDay":3,"timeRanges":[{"opening":"08:00","closing":"21:00"}]},{"weekDay":4,"timeRanges":[{"opening":"08:00","closing":"21:00"}]},{"weekDay":5,"timeRanges":[{"opening":"08:00","closing":"21:00"}]},{"weekDay":6,"timeRanges":[{"opening":"08:00","closing":"21:00"}]}]},{"storeNumber":"85","address":{"name":"dm-drogerie markt d.o.o.","street":"Bleibur\u0161kih \u017ertva 18","streetAdditional":"ZADAR-TC INTERSPAR","zip":"23000","city":"ZADAR"},"location":{"lat":44.11547,"lon":15.25259},"openingHours":[{"weekDay":1,"timeRanges":[{"opening":"08:00","closing":"22:00"}]},{"weekDay":2,"timeRanges":[{"opening":"08:00","closing":"22:00"}]},{"weekDay":3,"timeRanges":[{"opening":"08:00","closing":"22:00"}]},{"weekDay":4,"timeRanges":[{"opening":"08:00","closing":"22:00"}]},{"weekDay":5,"timeRanges":[{"opening":"08:00","closing":"22:00"}]},{"weekDay":6,"timeRanges":[{"opening":"08:00","closing":"22:00"}]},{"weekDay":7,"timeRanges":[{"opening":"08:00","closing":"21:00"}]}]},{"storeNumber":"86","address":{"name":"dm-drogerie markt d.o.o.","street":"Ferde Rusana 18","streetAdditional":"VIROVITICA","zip":"33000","city":"VIROVITICA"},"location":{"lat":45.8358,"lon":17.38821},"openingHours":[{"weekDay":1,"timeRanges":[{"opening":"08:00","closing":"20:00"}]},{"weekDay":2,"timeRanges":[{"opening":"08:00","closing":"20:00"}]},{"weekDay":3,"timeRanges":[{"opening":"08:00","closing":"20:00"}]},{"weekDay":4,"timeRanges":[{"opening":"08:00","closing":"20:00"}]},{"weekDay":5,"timeRanges":[{"opening":"08:00","closing":"20:00"}]},{"weekDay":6,"timeRanges":[{"opening":"08:00","closing":"14:00"}]}]},{"storeNumber":"87","address":{"name":"dm-drogerie markt d.o.o.","street":"Kralja Tomislava 7","streetAdditional":"DUBROVNIK-SC DOC","zip":"20000","city":"DUBROVNIK"},"location":{"lat":42.65546,"lon":18.07654},"openingHours":[{"weekDay":1,"timeRanges":[{"opening":"08:00","closing":"21:00"}]},{"weekDay":2,"timeRanges":[{"opening":"08:00","closing":"21:00"}]},{"weekDay":3,"timeRanges":[{"opening":"08:00","closing":"21:00"}]},{"weekDay":4,"timeRanges":[{"opening":"08:00","closing":"21:00"}]},{"weekDay":5,"timeRanges":[{"opening":"08:00","closing":"21:00"}]},{"weekDay":6,"timeRanges":[{"opening":"08:00","closing":"21:00"}]}]},{"storeNumber":"88","address":{"name":"dm-drogerie markt d.o.o.","street":"Trg Stjepana Radi\u0107a 9","streetAdditional":"KRAPINA","zip":"49000","city":"KRAPINA"},"location":{"lat":46.16032,"lon":15.87349},"openingHours":[{"weekDay":1,"timeRanges":[{"opening":"08:00","closing":"20:00"}]},{"weekDay":2,"timeRanges":[{"opening":"08:00","closing":"20:00"}]},{"weekDay":3,"timeRanges":[{"opening":"08:00","closing":"20:00"}]},{"weekDay":4,"timeRanges":[{"opening":"08:00","closing":"20:00"}]},{"weekDay":5,"timeRanges":[{"opening":"08:00","closing":"20:00"}]},{"weekDay":6,"timeRanges":[{"opening":"08:00","closing":"14:00"}]}]},{"storeNumber":"9","address":{"name":"dm-drogerie markt d.o.o.","street":"Stjepana Radi\u0107a 31","streetAdditional":"SIBENIK-CENTAR-RADICEVA","zip":"22000","city":"\u0160IBENIK"},"location":{"lat":43.7339,"lon":15.89553},"openingHours":[{"weekDay":1,"timeRanges":[{"opening":"08:00","closing":"21:00"}]},{"weekDay":2,"timeRanges":[{"opening":"08:00","closing":"21:00"}]},{"weekDay":3,"timeRanges":[{"opening":"08:00","closing":"21:00"}]},{"weekDay":4,"timeRanges":[{"opening":"08:00","closing":"21:00"}]},{"weekDay":5,"timeRanges":[{"opening":"08:00","closing":"21:00"}]},{"weekDay":6,"timeRanges":[{"opening":"08:00","closing":"20:00"}]}]},{"storeNumber":"90","address":{"name":"dm-drogerie markt d.o.o.","street":"Obala kneza Domagoja 3","streetAdditional":"ST-OBALA","zip":"21000","city":"SPLIT"},"location":{"lat":43.505835,"lon":16.4421798},"openingHours":[{"weekDay":1,"timeRanges":[{"opening":"07:00","closing":"22:00"}]},{"weekDay":2,"timeRanges":[{"opening":"07:00","closing":"22:00"}]},{"weekDay":3,"timeRanges":[{"opening":"07:00","closing":"22:00"}]},{"weekDay":4,"timeRanges":[{"opening":"07:00","closing":"22:00"}]},{"weekDay":5,"timeRanges":[{"opening":"07:00","closing":"22:00"}]},{"weekDay":6,"timeRanges":[{"opening":"07:00","closing":"22:00"}]},{"weekDay":7,"timeRanges":[{"opening":"08:00","closing":"21:00"}]}]},{"storeNumber":"91","address":{"name":"dm-drogerie markt d.o.o.","street":"114. brigade 6","streetAdditional":"ST-TC KAUFLAND","zip":"21000","city":"SPLIT"},"location":{"lat":43.5200893,"lon":16.4679877},"openingHours":[{"weekDay":1,"timeRanges":[{"opening":"08:00","closing":"22:00"}]},{"weekDay":2,"timeRanges":[{"opening":"08:00","closing":"22:00"}]},{"weekDay":3,"timeRanges":[{"opening":"08:00","closing":"22:00"}]},{"weekDay":4,"timeRanges":[{"opening":"08:00","closing":"22:00"}]},{"weekDay":5,"timeRanges":[{"opening":"08:00","closing":"22:00"}]},{"weekDay":6,"timeRanges":[{"opening":"08:00","closing":"22:00"}]},{"weekDay":7,"timeRanges":[{"opening":"08:00","closing":"21:00"}]}]},{"storeNumber":"92","address":{"name":"dm-drogerie markt d.o.o.","street":"\u017dnjanska 2","streetAdditional":"ST-ZNJAN","zip":"21000","city":"SPLIT"},"location":{"lat":43.5064596,"lon":16.483155},"openingHours":[{"weekDay":1,"timeRanges":[{"opening":"08:00","closing":"21:00"}]},{"weekDay":2,"timeRanges":[{"opening":"08:00","closing":"21:00"}]},{"weekDay":3,"timeRanges":[{"opening":"08:00","closing":"21:00"}]},{"weekDay":4,"timeRanges":[{"opening":"08:00","closing":"21:00"}]},{"weekDay":5,"timeRanges":[{"opening":"08:00","closing":"21:00"}]},{"weekDay":6,"timeRanges":[{"opening":"08:00","closing":"21:00"}]}]},{"storeNumber":"93","address":{"name":"dm-drogerie markt d.o.o.","street":"I.K.Sakcinskog 21","streetAdditional":"SISAK-HOTEL PANONIJA","zip":"44000","city":"SISAK"},"location":{"lat":45.48728,"lon":16.37589},"openingHours":[{"weekDay":1,"timeRanges":[{"opening":"08:00","closing":"20:00"}]},{"weekDay":2,"timeRanges":[{"opening":"08:00","closing":"20:00"}]},{"weekDay":3,"timeRanges":[{"opening":"08:00","closing":"20:00"}]},{"weekDay":4,"timeRanges":[{"opening":"08:00","closing":"20:00"}]},{"weekDay":5,"timeRanges":[{"opening":"08:00","closing":"20:00"}]},{"weekDay":6,"timeRanges":[{"opening":"08:00","closing":"14:00"}]}]},{"storeNumber":"95","address":{"name":"dm-drogerie markt d.o.o.","street":"Ba\u0161tijanova 54","streetAdditional":"ZG-BASTIJANOVA","zip":"10000","city":"ZAGREB"},"location":{"lat":45.80073,"lon":15.92957},"openingHours":[{"weekDay":1,"timeRanges":[{"opening":"08:00","closing":"20:00"}]},{"weekDay":2,"timeRanges":[{"opening":"08:00","closing":"20:00"}]},{"weekDay":3,"timeRanges":[{"opening":"08:00","closing":"20:00"}]},{"weekDay":4,"timeRanges":[{"opening":"08:00","closing":"20:00"}]},{"weekDay":5,"timeRanges":[{"opening":"08:00","closing":"20:00"}]},{"weekDay":6,"timeRanges":[{"opening":"08:00","closing":"15:00"}]}]},{"storeNumber":"98","address":{"name":"dm-drogerie markt d.o.o.","street":"\u0160etali\u0161te M. Dominisa 3","streetAdditional":"RAB","zip":"51280","city":"RAB"},"location":{"lat":44.7602314,"lon":14.7609041},"openingHours":[{"weekDay":1,"timeRanges":[{"opening":"08:00","closing":"23:00"}]},{"weekDay":2,"timeRanges":[{"opening":"08:00","closing":"23:00"}]},{"weekDay":3,"timeRanges":[{"opening":"08:00","closing":"23:00"}]},{"weekDay":4,"timeRanges":[{"opening":"08:00","closing":"23:00"}]},{"weekDay":5,"timeRanges":[{"opening":"08:00","closing":"23:00"}]},{"weekDay":6,"timeRanges":[{"opening":"08:00","closing":"23:00"}]},{"weekDay":7,"timeRanges":[{"opening":"08:00","closing":"23:00"}]}]},{"storeNumber":"99","address":{"name":"dm-drogerie markt d.o.o.","street":"Trg F. Tu\u0111mana 7","streetAdditional":"ZAPRESIC-TRG F TUDJMANA","zip":"10290","city":"ZAPRE\u0160I\u0106"},"location":{"lat":45.87053,"lon":15.7952},"openingHours":[{"weekDay":1,"timeRanges":[{"opening":"08:00","closing":"21:00"}]},{"weekDay":2,"timeRanges":[{"opening":"08:00","closing":"21:00"}]},{"weekDay":3,"timeRanges":[{"opening":"08:00","closing":"21:00"}]},{"weekDay":4,"timeRanges":[{"opening":"08:00","closing":"21:00"}]},{"weekDay":5,"timeRanges":[{"opening":"08:00","closing":"21:00"}]},{"weekDay":6,"timeRanges":[{"opening":"08:00","closing":"21:00"}]},{"weekDay":7,"timeRanges":[{"opening":"09:00","closing":"14:00"}]}]}]