[{"storeNumber":"1","address":{"name":"dm drogerie markt","street":"Dobrinjske bolnice 12","streetAdditional":"SA-Dobrinja","zip":"71000","city":"Sarajevo"},"location":{"lat":43.82944107055664,"lon":18.345069885253906},"openingHours":[{"weekDay":1,"timeRanges":[{"opening":"08:00","closing":"20:00"}]},{"weekDay":2,"timeRanges":[{"opening":"08:00","closing":"20:00"}]},{"weekDay":3,"timeRanges":[{"opening":"08:00","closing":"20:00"}]},{"weekDay":4,"timeRanges":[{"opening":"08:00","closing":"20:00"}]},{"weekDay":5,"timeRanges":[{"opening":"08:00","closing":"20:00"}]},{"weekDay":6,"timeRanges":[{"opening":"08:00","closing":"20:00"}]}],"coronaStationAvailable":false},{"storeNumber":"10","address":{"name":"dm drogerie markt","street":"Aleja \u0160ehida bb","streetAdditional":"ZE-SC D\u017dANANOVI\u0106**","zip":"72000","city":"Zenica"},"location":{"lat":44.20402145385742,"lon":17.912809371948242},"openingHours":[{"weekDay":1,"timeRanges":[{"opening":"09:00","closing":"20:00"}]},{"weekDay":2,"timeRanges":[{"opening":"09:00","closing":"20:00"}]},{"weekDay":3,"timeRanges":[{"opening":"09:00","closing":"20:00"}]},{"weekDay":4,"timeRanges":[{"opening":"09:00","closing":"20:00"}]},{"weekDay":5,"timeRanges":[{"opening":"09:00","closing":"20:00"}]},{"weekDay":6,"timeRanges":[{"opening":"09:00","closing":"20:00"}]},{"weekDay":7,"timeRanges":[{"opening":"11:00","closing":"19:00"}]}],"coronaStationAvailable":false},{"storeNumber":"11","address":{"name":"dm drogerie markt","street":"Kralja Tvrtka 42","streetAdditional":"Novi Travnik","zip":"72290","city":"Novi Travnik"},"location":{"lat":44.172000885009766,"lon":17.661779403686523},"openingHours":[{"weekDay":1,"timeRanges":[{"opening":"09:00","closing":"20:00"}]},{"weekDay":2,"timeRanges":[{"opening":"09:00","closing":"20:00"}]},{"weekDay":3,"timeRanges":[{"opening":"09:00","closing":"20:00"}]},{"weekDay":4,"timeRanges":[{"opening":"09:00","closing":"20:00"}]},{"weekDay":5,"timeRanges":[{"opening":"09:00","closing":"20:00"}]},{"weekDay":6,"timeRanges":[{"opening":"09:00","closing":"20:00"}]}],"coronaStationAvailable":false},{"storeNumber":"12","address":{"name":"dm drogerie markt","street":"Bosanska 6","streetAdditional":"Bugojno","zip":"70230","city":"Bugojno"},"location":{"lat":44.05561828613281,"lon":17.44700050354004},"openingHours":[{"weekDay":1,"timeRanges":[{"opening":"09:00","closing":"20:00"}]},{"weekDay":2,"timeRanges":[{"opening":"09:00","closing":"20:00"}]},{"weekDay":3,"timeRanges":[{"opening":"09:00","closing":"20:00"}]},{"weekDay":4,"timeRanges":[{"opening":"09:00","closing":"20:00"}]},{"weekDay":5,"timeRanges":[{"opening":"09:00","closing":"20:00"}]},{"weekDay":6,"timeRanges":[{"opening":"09:00","closing":"20:00"}]}],"coronaStationAvailable":false},{"storeNumber":"13","address":{"name":"dm drogerie markt","street":"Bana Josipa Jela\u010di\u0107a 54","streetAdditional":"Kiseljak","zip":"71250","city":"Kiseljak"},"location":{"lat":43.94348907470703,"lon":18.076929092407227},"openingHours":[{"weekDay":1,"timeRanges":[{"opening":"09:00","closing":"20:00"}]},{"weekDay":2,"timeRanges":[{"opening":"09:00","closing":"20:00"}]},{"weekDay":3,"timeRanges":[{"opening":"09:00","closing":"20:00"}]},{"weekDay":4,"timeRanges":[{"opening":"09:00","closing":"20:00"}]},{"weekDay":5,"timeRanges":[{"opening":"09:00","closing":"20:00"}]},{"weekDay":6,"timeRanges":[{"opening":"09:00","closing":"20:00"}]}],"coronaStationAvailable":false},{"storeNumber":"14","address":{"name":"dm drogerie markt","street":"Grbavi\u010dka 40","streetAdditional":"SA-Grbavica","zip":"71000","city":"Sarajevo"},"location":{"lat":43.85108184814453,"lon":18.395570755004883},"openingHours":[{"weekDay":1,"timeRanges":[{"opening":"08:00","closing":"20:00"}]},{"weekDay":2,"timeRanges":[{"opening":"08:00","closing":"20:00"}]},{"weekDay":3,"timeRanges":[{"opening":"08:00","closing":"20:00"}]},{"weekDay":4,"timeRanges":[{"opening":"08:00","closing":"20:00"}]},{"weekDay":5,"timeRanges":[{"opening":"08:00","closing":"20:00"}]},{"weekDay":6,"timeRanges":[{"opening":"08:00","closing":"20:00"}]}],"coronaStationAvailable":false},{"storeNumber":"15","address":{"name":"dm drogerie markt","street":"Mar\u0161ala Tita bb","streetAdditional":"Konjic","zip":"88400","city":"Konjic"},"location":{"lat":43.65312957763672,"lon":17.96246910095215},"openingHours":[{"weekDay":1,"timeRanges":[{"opening":"09:00","closing":"20:00"}]},{"weekDay":2,"timeRanges":[{"opening":"09:00","closing":"20:00"}]},{"weekDay":3,"timeRanges":[{"opening":"09:00","closing":"20:00"}]},{"weekDay":4,"timeRanges":[{"opening":"09:00","closing":"20:00"}]},{"weekDay":5,"timeRanges":[{"opening":"09:00","closing":"20:00"}]},{"weekDay":6,"timeRanges":[{"opening":"09:00","closing":"20:00"}]}],"coronaStationAvailable":false},{"storeNumber":"16","address":{"name":"dm drogerie markt","street":"Trg srpskih boraca bb","streetAdditional":"Prnjavor","zip":"78430","city":"Prnjavor"},"location":{"lat":44.86928176879883,"lon":17.662429809570312},"openingHours":[{"weekDay":1,"timeRanges":[{"opening":"08:00","closing":"20:00"}]},{"weekDay":2,"timeRanges":[{"opening":"08:00","closing":"20:00"}]},{"weekDay":3,"timeRanges":[{"opening":"08:00","closing":"20:00"}]},{"weekDay":4,"timeRanges":[{"opening":"08:00","closing":"20:00"}]},{"weekDay":5,"timeRanges":[{"opening":"08:00","closing":"20:00"}]},{"weekDay":6,"timeRanges":[{"opening":"08:00","closing":"19:00"}]}],"coronaStationAvailable":false},{"storeNumber":"18","address":{"name":"dm drogerie markt","street":"Poslovni centar 96","streetAdditional":"Vitez-SC GMS**","zip":"72250","city":"Vitez"},"location":{"lat":44.16952896118164,"lon":17.782499313354492},"openingHours":[{"weekDay":1,"timeRanges":[{"opening":"10:00","closing":"20:00"}]},{"weekDay":2,"timeRanges":[{"opening":"10:00","closing":"20:00"}]},{"weekDay":3,"timeRanges":[{"opening":"10:00","closing":"20:00"}]},{"weekDay":4,"timeRanges":[{"opening":"10:00","closing":"20:00"}]},{"weekDay":5,"timeRanges":[{"opening":"10:00","closing":"20:00"}]},{"weekDay":6,"timeRanges":[{"opening":"10:00","closing":"20:00"}]},{"weekDay":7,"timeRanges":[{"opening":"10:00","closing":"18:00"}]}],"coronaStationAvailable":false},{"storeNumber":"19","address":{"name":"dm drogerie markt","street":"15. Maja bb","streetAdditional":"TZ-Br\u010danska Malta","zip":"75000","city":"Tuzla"},"location":{"lat":44.53282165527344,"lon":18.69729995727539},"openingHours":[{"weekDay":1,"timeRanges":[{"opening":"09:00","closing":"20:00"}]},{"weekDay":2,"timeRanges":[{"opening":"09:00","closing":"20:00"}]},{"weekDay":3,"timeRanges":[{"opening":"09:00","closing":"20:00"}]},{"weekDay":4,"timeRanges":[{"opening":"09:00","closing":"20:00"}]},{"weekDay":5,"timeRanges":[{"opening":"09:00","closing":"20:00"}]},{"weekDay":6,"timeRanges":[{"opening":"09:00","closing":"19:00"}]}],"coronaStationAvailable":false},{"storeNumber":"20","address":{"name":"dm drogerie markt","street":"Butmirska cesta 14","streetAdditional":"SA-PC Sany Grand City**","zip":"71210","city":"Ilid\u017ea"},"location":{"lat":43.82965850830078,"lon":18.312320709228516},"openingHours":[{"weekDay":1,"timeRanges":[{"opening":"09:00","closing":"21:00"}]},{"weekDay":2,"timeRanges":[{"opening":"09:00","closing":"21:00"}]},{"weekDay":3,"timeRanges":[{"opening":"09:00","closing":"21:00"}]},{"weekDay":4,"timeRanges":[{"opening":"09:00","closing":"21:00"}]},{"weekDay":5,"timeRanges":[{"opening":"09:00","closing":"21:00"}]},{"weekDay":6,"timeRanges":[{"opening":"09:00","closing":"21:00"}]},{"weekDay":7,"timeRanges":[{"opening":"10:00","closing":"20:00"}]}],"coronaStationAvailable":false},{"storeNumber":"21","address":{"name":"dm drogerie markt","street":"Donje Rosulje 65","streetAdditional":"Visoko","zip":"71300","city":"Visoko"},"location":{"lat":43.9922981262207,"lon":18.177610397338867},"openingHours":[{"weekDay":1,"timeRanges":[{"opening":"08:00","closing":"20:00"}]},{"weekDay":2,"timeRanges":[{"opening":"08:00","closing":"20:00"}]},{"weekDay":3,"timeRanges":[{"opening":"08:00","closing":"20:00"}]},{"weekDay":4,"timeRanges":[{"opening":"08:00","closing":"20:00"}]},{"weekDay":5,"timeRanges":[{"opening":"08:00","closing":"20:00"}]},{"weekDay":6,"timeRanges":[{"opening":"08:00","closing":"20:00"}]}],"coronaStationAvailable":false},{"storeNumber":"22","address":{"name":"dm drogerie markt","street":"Vojvode Radomira Putnika bb","streetAdditional":"SA Lukavica-TC Bingo**","zip":"71126","city":"Lukavica"},"location":{"lat":43.824100494384766,"lon":18.362350463867188},"openingHours":[{"weekDay":1,"timeRanges":[{"opening":"09:00","closing":"21:00"}]},{"weekDay":2,"timeRanges":[{"opening":"09:00","closing":"21:00"}]},{"weekDay":3,"timeRanges":[{"opening":"09:00","closing":"21:00"}]},{"weekDay":4,"timeRanges":[{"opening":"09:00","closing":"21:00"}]},{"weekDay":5,"timeRanges":[{"opening":"09:00","closing":"21:00"}]},{"weekDay":6,"timeRanges":[{"opening":"09:00","closing":"21:00"}]},{"weekDay":7,"timeRanges":[{"opening":"09:00","closing":"13:00"}]}],"coronaStationAvailable":false},{"storeNumber":"25","address":{"name":"dm drogerie markt","street":"Trg djece Sarajeva 1","streetAdditional":"SA-SC BBI**","zip":"71000","city":"Sarajevo"},"location":{"lat":43.85853958129883,"lon":18.416980743408203},"openingHours":[{"weekDay":1,"timeRanges":[{"opening":"09:00","closing":"19:30"}]},{"weekDay":2,"timeRanges":[{"opening":"09:00","closing":"19:30"}]},{"weekDay":3,"timeRanges":[{"opening":"09:00","closing":"19:30"}]},{"weekDay":4,"timeRanges":[{"opening":"09:00","closing":"19:30"}]},{"weekDay":5,"timeRanges":[{"opening":"09:00","closing":"19:30"}]},{"weekDay":6,"timeRanges":[{"opening":"09:00","closing":"21:00"}]},{"weekDay":7,"timeRanges":[{"opening":"10:00","closing":"18:00"}]}],"coronaStationAvailable":false},{"storeNumber":"26","address":{"name":"dm drogerie markt","street":"Trg dr. Ante Star\u010devi\u0107a 4","streetAdditional":"\u0160iroki Brijeg","zip":"88220","city":"\u0160iroki Brijeg"},"location":{"lat":43.38185119628906,"lon":17.591760635375977},"openingHours":[{"weekDay":1,"timeRanges":[{"opening":"08:00","closing":"20:00"}]},{"weekDay":2,"timeRanges":[{"opening":"08:00","closing":"20:00"}]},{"weekDay":3,"timeRanges":[{"opening":"08:00","closing":"20:00"}]},{"weekDay":4,"timeRanges":[{"opening":"08:00","closing":"20:00"}]},{"weekDay":5,"timeRanges":[{"opening":"08:00","closing":"20:00"}]},{"weekDay":6,"timeRanges":[{"opening":"08:00","closing":"20:00"}]}],"coronaStationAvailable":false},{"storeNumber":"27","address":{"name":"dm drogerie markt","street":"Gabrijela Jurki\u0107a bb","streetAdditional":"Livno","zip":"80101","city":"Livno"},"location":{"lat":43.82575988769531,"lon":17.005130767822266},"openingHours":[{"weekDay":1,"timeRanges":[{"opening":"09:00","closing":"20:00"}]},{"weekDay":2,"timeRanges":[{"opening":"09:00","closing":"20:00"}]},{"weekDay":3,"timeRanges":[{"opening":"09:00","closing":"20:00"}]},{"weekDay":4,"timeRanges":[{"opening":"09:00","closing":"20:00"}]},{"weekDay":5,"timeRanges":[{"opening":"09:00","closing":"20:00"}]},{"weekDay":6,"timeRanges":[{"opening":"09:00","closing":"20:00"}]}],"coronaStationAvailable":false},{"storeNumber":"28","address":{"name":"dm drogerie markt","street":"Svetosavska bb","streetAdditional":"Kozarska Dubica","zip":"79240","city":"Kozarska Dubica"},"location":{"lat":45.18165588378906,"lon":16.809850692749023},"openingHours":[{"weekDay":1,"timeRanges":[{"opening":"09:00","closing":"20:00"}]},{"weekDay":2,"timeRanges":[{"opening":"09:00","closing":"20:00"}]},{"weekDay":3,"timeRanges":[{"opening":"09:00","closing":"20:00"}]},{"weekDay":4,"timeRanges":[{"opening":"09:00","closing":"20:00"}]},{"weekDay":5,"timeRanges":[{"opening":"09:00","closing":"20:00"}]},{"weekDay":6,"timeRanges":[{"opening":"09:00","closing":"20:00"}]}],"coronaStationAvailable":false},{"storeNumber":"3","address":{"name":"dm drogerie markt","street":"Kneza Branimira 2","streetAdditional":"MO-SC RONDO","zip":"88000","city":"Mostar"},"location":{"lat":43.341068267822266,"lon":17.80217933654785},"openingHours":[{"weekDay":1,"timeRanges":[{"opening":"08:00","closing":"20:00"}]},{"weekDay":2,"timeRanges":[{"opening":"08:00","closing":"20:00"}]},{"weekDay":3,"timeRanges":[{"opening":"08:00","closing":"20:00"}]},{"weekDay":4,"timeRanges":[{"opening":"08:00","closing":"20:00"}]},{"weekDay":5,"timeRanges":[{"opening":"08:00","closing":"20:00"}]},{"weekDay":6,"timeRanges":[{"opening":"08:00","closing":"20:00"}]}],"coronaStationAvailable":false},{"storeNumber":"30","address":{"name":"dm drogerie markt","street":"Kralja Petra I Kara\u0111or\u0111evi\u0107a 81","streetAdditional":"BL-Kastel","zip":"78000","city":"Banja Luka"},"location":{"lat":44.76822280883789,"lon":17.18732261657715},"openingHours":[{"weekDay":1,"timeRanges":[{"opening":"09:00","closing":"21:00"}]},{"weekDay":2,"timeRanges":[{"opening":"09:00","closing":"21:00"}]},{"weekDay":3,"timeRanges":[{"opening":"09:00","closing":"21:00"}]},{"weekDay":4,"timeRanges":[{"opening":"09:00","closing":"21:00"}]},{"weekDay":5,"timeRanges":[{"opening":"09:00","closing":"21:00"}]},{"weekDay":6,"timeRanges":[{"opening":"09:00","closing":"21:00"}]}],"coronaStationAvailable":false},{"storeNumber":"31","address":{"name":"dm drogerie markt","street":"Dragoje Luki\u0107a 1","streetAdditional":"Gradi\u0161ka","zip":"78400","city":"Gradi\u0161ka"},"location":{"lat":45.146080017089844,"lon":17.250579833984375},"openingHours":[{"weekDay":1,"timeRanges":[{"opening":"08:00","closing":"20:00"}]},{"weekDay":2,"timeRanges":[{"opening":"08:00","closing":"20:00"}]},{"weekDay":3,"timeRanges":[{"opening":"08:00","closing":"20:00"}]},{"weekDay":4,"timeRanges":[{"opening":"08:00","closing":"20:00"}]},{"weekDay":5,"timeRanges":[{"opening":"08:00","closing":"20:00"}]},{"weekDay":6,"timeRanges":[{"opening":"08:00","closing":"20:00"}]}],"coronaStationAvailable":false},{"storeNumber":"32","address":{"name":"dm drogerie markt","street":"Kralja Petra I Oslobodioca bb","streetAdditional":"Prijedor-Centar","zip":"79000","city":"Prijedor"},"location":{"lat":44.977169036865234,"lon":16.70612907409668},"openingHours":[{"weekDay":1,"timeRanges":[{"opening":"09:00","closing":"20:00"}]},{"weekDay":2,"timeRanges":[{"opening":"09:00","closing":"20:00"}]},{"weekDay":3,"timeRanges":[{"opening":"09:00","closing":"20:00"}]},{"weekDay":4,"timeRanges":[{"opening":"09:00","closing":"21:00"}]},{"weekDay":5,"timeRanges":[{"opening":"09:00","closing":"21:00"}]},{"weekDay":6,"timeRanges":[{"opening":"09:00","closing":"21:00"}]}],"coronaStationAvailable":false},{"storeNumber":"33","address":{"name":"dm drogerie markt","street":"Alije Izetbegovi\u0107a bb","streetAdditional":"Gra\u010danica","zip":"75320","city":"Gra\u010danica"},"location":{"lat":44.704898834228516,"lon":18.310739517211914},"openingHours":[{"weekDay":1,"timeRanges":[{"opening":"08:00","closing":"20:00"}]},{"weekDay":2,"timeRanges":[{"opening":"08:00","closing":"20:00"}]},{"weekDay":3,"timeRanges":[{"opening":"08:00","closing":"20:00"}]},{"weekDay":4,"timeRanges":[{"opening":"08:00","closing":"20:00"}]},{"weekDay":5,"timeRanges":[{"opening":"08:00","closing":"20:00"}]},{"weekDay":6,"timeRanges":[{"opening":"08:00","closing":"19:00"}]}],"coronaStationAvailable":false},{"storeNumber":"34","address":{"name":"dm drogerie markt","street":"D\u017eemala Bijedi\u0107a 39","streetAdditional":"SA-\u010cengi\u0107 Vila","zip":"71000","city":"Sarajevo"},"location":{"lat":43.84941101074219,"lon":18.367660522460938},"openingHours":[{"weekDay":1,"timeRanges":[{"opening":"09:00","closing":"21:00"}]},{"weekDay":2,"timeRanges":[{"opening":"09:00","closing":"21:00"}]},{"weekDay":3,"timeRanges":[{"opening":"09:00","closing":"21:00"}]},{"weekDay":4,"timeRanges":[{"opening":"09:00","closing":"21:00"}]},{"weekDay":5,"timeRanges":[{"opening":"09:00","closing":"21:00"}]},{"weekDay":6,"timeRanges":[{"opening":"09:00","closing":"21:00"}]}],"coronaStationAvailable":false},{"storeNumber":"35","address":{"name":"dm drogerie markt","street":"Bulevar Franca Lehara 2","streetAdditional":"SA-SC ALTA**","zip":"71000","city":"Sarajevo"},"location":{"lat":43.8559684753418,"lon":18.405519485473633},"openingHours":[{"weekDay":1,"timeRanges":[{"opening":"09:00","closing":"22:00"}]},{"weekDay":2,"timeRanges":[{"opening":"09:00","closing":"22:00"}]},{"weekDay":3,"timeRanges":[{"opening":"09:00","closing":"22:00"}]},{"weekDay":4,"timeRanges":[{"opening":"09:00","closing":"22:00"}]},{"weekDay":5,"timeRanges":[{"opening":"09:00","closing":"22:00"}]},{"weekDay":6,"timeRanges":[{"opening":"09:00","closing":"22:00"}]},{"weekDay":7,"timeRanges":[{"opening":"11:00","closing":"19:00"}]}],"coronaStationAvailable":false},{"storeNumber":"37","address":{"name":"dm drogerie markt","street":"Trg mladih 4","streetAdditional":"Br\u010dko","zip":"76000","city":"Br\u010dko"},"location":{"lat":44.87791061401367,"lon":18.80937957763672},"openingHours":[{"weekDay":1,"timeRanges":[{"opening":"09:00","closing":"20:00"}]},{"weekDay":2,"timeRanges":[{"opening":"09:00","closing":"20:00"}]},{"weekDay":3,"timeRanges":[{"opening":"09:00","closing":"20:00"}]},{"weekDay":4,"timeRanges":[{"opening":"09:00","closing":"20:00"}]},{"weekDay":5,"timeRanges":[{"opening":"09:00","closing":"20:00"}]},{"weekDay":6,"timeRanges":[{"opening":"09:00","closing":"20:00"}]}],"coronaStationAvailable":false},{"storeNumber":"38","address":{"name":"dm drogerie markt","street":"Univerzitetska 16","streetAdditional":"TZ-RK Omega**","zip":"75000","city":"Tuzla"},"location":{"lat":44.5394401550293,"lon":18.664409637451172},"openingHours":[{"weekDay":1,"timeRanges":[{"opening":"09:00","closing":"20:00"}]},{"weekDay":2,"timeRanges":[{"opening":"09:00","closing":"20:00"}]},{"weekDay":3,"timeRanges":[{"opening":"09:00","closing":"20:00"}]},{"weekDay":4,"timeRanges":[{"opening":"09:00","closing":"20:00"}]},{"weekDay":5,"timeRanges":[{"opening":"09:00","closing":"20:00"}]},{"weekDay":6,"timeRanges":[{"opening":"09:00","closing":"20:00"}]},{"weekDay":7,"timeRanges":[{"opening":"09:00","closing":"17:00"}]}],"coronaStationAvailable":false},{"storeNumber":"39","address":{"name":"dm drogerie markt","street":"Hrvatske mlade\u017ei 4","streetAdditional":"MO\u2013Hrvatske mlade\u017ei","zip":"88000","city":"Mostar"},"location":{"lat":43.34917068481445,"lon":17.79792022705078},"openingHours":[{"weekDay":1,"timeRanges":[{"opening":"08:00","closing":"20:00"}]},{"weekDay":2,"timeRanges":[{"opening":"08:00","closing":"20:00"}]},{"weekDay":3,"timeRanges":[{"opening":"08:00","closing":"20:00"}]},{"weekDay":4,"timeRanges":[{"opening":"08:00","closing":"20:00"}]},{"weekDay":5,"timeRanges":[{"opening":"08:00","closing":"20:00"}]},{"weekDay":6,"timeRanges":[{"opening":"08:00","closing":"20:00"}]}],"coronaStationAvailable":false},{"storeNumber":"4","address":{"name":"dm drogerie markt","street":"Ferhadija 25","streetAdditional":"SA-Ferhadija","zip":"71000","city":"Sarajevo"},"location":{"lat":43.85934066772461,"lon":18.42691993713379},"openingHours":[{"weekDay":1,"timeRanges":[{"opening":"08:00","closing":"20:00"}]},{"weekDay":2,"timeRanges":[{"opening":"08:00","closing":"20:00"}]},{"weekDay":3,"timeRanges":[{"opening":"08:00","closing":"20:00"}]},{"weekDay":4,"timeRanges":[{"opening":"08:00","closing":"20:00"}]},{"weekDay":5,"timeRanges":[{"opening":"08:00","closing":"20:00"}]},{"weekDay":6,"timeRanges":[{"opening":"08:00","closing":"20:00"}]}],"coronaStationAvailable":false},{"storeNumber":"40","address":{"name":"dm drogerie markt","street":"Veselina Masle\u0161e 4","streetAdditional":"BL-SC DAMJAN","zip":"78000","city":"Banja Luka"},"location":{"lat":44.77069854736328,"lon":17.189950942993164},"openingHours":[{"weekDay":1,"timeRanges":[{"opening":"09:00","closing":"21:00"}]},{"weekDay":2,"timeRanges":[{"opening":"09:00","closing":"21:00"}]},{"weekDay":3,"timeRanges":[{"opening":"09:00","closing":"21:00"}]},{"weekDay":4,"timeRanges":[{"opening":"09:00","closing":"21:00"}]},{"weekDay":5,"timeRanges":[{"opening":"09:00","closing":"21:00"}]},{"weekDay":6,"timeRanges":[{"opening":"09:00","closing":"21:00"}]}],"coronaStationAvailable":false},{"storeNumber":"41","address":{"name":"dm drogerie markt","street":"Kardinala Stepinca 29","streetAdditional":"Me\u0111ugorje","zip":"88266","city":"Me\u0111ugorje"},"location":{"lat":43.195640563964844,"lon":17.67597007751465},"openingHours":[{"weekDay":1,"timeRanges":[{"opening":"08:00","closing":"20:00"}]},{"weekDay":2,"timeRanges":[{"opening":"08:00","closing":"20:00"}]},{"weekDay":3,"timeRanges":[{"opening":"08:00","closing":"20:00"}]},{"weekDay":4,"timeRanges":[{"opening":"08:00","closing":"20:00"}]},{"weekDay":5,"timeRanges":[{"opening":"08:00","closing":"20:00"}]},{"weekDay":6,"timeRanges":[{"opening":"08:00","closing":"20:00"}]}],"coronaStationAvailable":false},{"storeNumber":"42","address":{"name":"dm drogerie markt","street":"Trg Zlatnih Ljiljana bb","zip":"77220","city":"Cazin"},"location":{"lat":44.965030670166016,"lon":15.938699722290039},"openingHours":[{"weekDay":1,"timeRanges":[{"opening":"09:00","closing":"20:00"}]},{"weekDay":2,"timeRanges":[{"opening":"09:00","closing":"20:00"}]},{"weekDay":3,"timeRanges":[{"opening":"09:00","closing":"20:00"}]},{"weekDay":4,"timeRanges":[{"opening":"09:00","closing":"20:00"}]},{"weekDay":5,"timeRanges":[{"opening":"09:00","closing":"20:00"}]},{"weekDay":6,"timeRanges":[{"opening":"09:00","closing":"20:00"}]}],"coronaStationAvailable":false},{"storeNumber":"43","address":{"name":"dm-drogerie markt","street":"Ulica XIV 97","streetAdditional":"Ora\u0161je-SC City Center In**","zip":"76270","city":"Ora\u0161je"},"location":{"lat":45.02574157714844,"lon":18.700420379638672},"openingHours":[{"weekDay":1,"timeRanges":[{"opening":"08:30","closing":"21:00"}]},{"weekDay":2,"timeRanges":[{"opening":"08:30","closing":"21:00"}]},{"weekDay":3,"timeRanges":[{"opening":"08:30","closing":"21:00"}]},{"weekDay":4,"timeRanges":[{"opening":"08:30","closing":"21:00"}]},{"weekDay":5,"timeRanges":[{"opening":"08:30","closing":"21:00"}]},{"weekDay":6,"timeRanges":[{"opening":"08:30","closing":"21:00"}]},{"weekDay":7,"timeRanges":[{"opening":"08:30","closing":"21:00"}]}],"coronaStationAvailable":false},{"storeNumber":"44","address":{"name":"dm-drogerie markt","street":"Trg Kralja Petra I Kara\u0111or\u0111evi\u0107a 1","streetAdditional":"Bijeljina","zip":"76300","city":"Bijeljina"},"location":{"lat":44.75733184814453,"lon":19.21523094177246},"openingHours":[{"weekDay":1,"timeRanges":[{"opening":"08:00","closing":"20:00"}]},{"weekDay":2,"timeRanges":[{"opening":"08:00","closing":"20:00"}]},{"weekDay":3,"timeRanges":[{"opening":"08:00","closing":"20:00"}]},{"weekDay":4,"timeRanges":[{"opening":"08:00","closing":"20:00"}]},{"weekDay":5,"timeRanges":[{"opening":"08:00","closing":"20:00"}]},{"weekDay":6,"timeRanges":[{"opening":"08:00","closing":"20:00"}]}],"coronaStationAvailable":false},{"storeNumber":"45","address":{"name":"dm-drogerie markt","street":"Kri\u017eanje ulica Kneza Vi\u0161eslava i Kardinala Stepinca bb","streetAdditional":"Mostar-04","zip":"88000","city":"Mostar"},"location":{"lat":43.348331451416016,"lon":17.80426025390625},"openingHours":[{"weekDay":1,"timeRanges":[{"opening":"09:00","closing":"21:00"}]},{"weekDay":2,"timeRanges":[{"opening":"09:00","closing":"21:00"}]},{"weekDay":3,"timeRanges":[{"opening":"09:00","closing":"21:00"}]},{"weekDay":4,"timeRanges":[{"opening":"09:00","closing":"21:00"}]},{"weekDay":5,"timeRanges":[{"opening":"09:00","closing":"21:00"}]},{"weekDay":6,"timeRanges":[{"opening":"09:00","closing":"21:00"}]},{"weekDay":7,"timeRanges":[{"opening":"12:00","closing":"20:00"}]}],"coronaStationAvailable":false},{"storeNumber":"46","address":{"name":"dm-drogerie markt","street":"Vuka Karad\u017ei\u0107a bb","streetAdditional":"Pale","zip":"71420","city":"Pale"},"location":{"lat":43.81439971923828,"lon":18.570560455322266},"openingHours":[{"weekDay":1,"timeRanges":[{"opening":"09:00","closing":"20:00"}]},{"weekDay":2,"timeRanges":[{"opening":"09:00","closing":"20:00"}]},{"weekDay":3,"timeRanges":[{"opening":"09:00","closing":"20:00"}]},{"weekDay":4,"timeRanges":[{"opening":"09:00","closing":"18:00"}]},{"weekDay":5,"timeRanges":[{"opening":"09:00","closing":"20:00"}]},{"weekDay":6,"timeRanges":[{"opening":"09:00","closing":"20:00"}]}],"coronaStationAvailable":false},{"storeNumber":"47","address":{"name":"dm-drogerie markt","street":"Dubrova\u010dki put 1","streetAdditional":"Trebinje","zip":"89101","city":"Trebinje"},"location":{"lat":42.708770751953125,"lon":18.350540161132812},"openingHours":[{"weekDay":1,"timeRanges":[{"opening":"09:00","closing":"21:00"}]},{"weekDay":2,"timeRanges":[{"opening":"09:00","closing":"21:00"}]},{"weekDay":3,"timeRanges":[{"opening":"09:00","closing":"21:00"}]},{"weekDay":4,"timeRanges":[{"opening":"09:00","closing":"21:00"}]},{"weekDay":5,"timeRanges":[{"opening":"09:00","closing":"21:00"}]},{"weekDay":6,"timeRanges":[{"opening":"09:00","closing":"21:00"}]}],"coronaStationAvailable":false},{"storeNumber":"48","address":{"name":"dm drogerie markt","street":"119. muslimanske brdske brigade 19","zip":"75290","city":"Banovi\u0107i"},"location":{"lat":44.405521392822266,"lon":18.526220321655273},"openingHours":[{"weekDay":1,"timeRanges":[{"opening":"09:00","closing":"20:00"}]},{"weekDay":2,"timeRanges":[{"opening":"09:00","closing":"20:00"}]},{"weekDay":3,"timeRanges":[{"opening":"09:00","closing":"20:00"}]},{"weekDay":4,"timeRanges":[{"opening":"09:00","closing":"20:00"}]},{"weekDay":5,"timeRanges":[{"opening":"09:00","closing":"20:00"}]},{"weekDay":6,"timeRanges":[{"opening":"08:00","closing":"19:00"}]}],"coronaStationAvailable":false},{"storeNumber":"5","address":{"name":"dm drogerie markt","street":"Trg Alije Izetbegovi\u0107a 65","streetAdditional":"ZE-Centar","zip":"72000","city":"Zenica"},"location":{"lat":44.19974136352539,"lon":17.909259796142578},"openingHours":[{"weekDay":1,"timeRanges":[{"opening":"08:00","closing":"20:00"}]},{"weekDay":2,"timeRanges":[{"opening":"08:00","closing":"20:00"}]},{"weekDay":3,"timeRanges":[{"opening":"08:00","closing":"20:00"}]},{"weekDay":4,"timeRanges":[{"opening":"08:00","closing":"20:00"}]},{"weekDay":5,"timeRanges":[{"opening":"08:00","closing":"20:00"}]},{"weekDay":6,"timeRanges":[{"opening":"09:00","closing":"21:00"}]}],"coronaStationAvailable":false},{"storeNumber":"50","address":{"name":"dm drogerie markt","street":"Jovana Du\u010di\u0107a 25","streetAdditional":"BL-TC \u010cajavec**","zip":"78000","city":"Banja Luka"},"location":{"lat":44.77714157104492,"lon":17.18593978881836},"openingHours":[{"weekDay":1,"timeRanges":[{"opening":"09:00","closing":"21:00"}]},{"weekDay":2,"timeRanges":[{"opening":"09:00","closing":"21:00"}]},{"weekDay":3,"timeRanges":[{"opening":"09:00","closing":"21:00"}]},{"weekDay":4,"timeRanges":[{"opening":"09:00","closing":"21:00"}]},{"weekDay":5,"timeRanges":[{"opening":"09:00","closing":"21:00"}]},{"weekDay":6,"timeRanges":[{"opening":"09:00","closing":"21:00"}]},{"weekDay":7,"timeRanges":[{"opening":"09:00","closing":"16:00"}]}],"coronaStationAvailable":false},{"storeNumber":"51","address":{"name":"dm drogerie markt","street":"Rustem-pa\u0161ina 9","streetAdditional":"SA-Ilid\u017ea","zip":"71210","city":"Ilid\u017ea"},"location":{"lat":43.8317985534668,"lon":18.307390213012695},"openingHours":[{"weekDay":1,"timeRanges":[{"opening":"09:00","closing":"20:00"}]},{"weekDay":2,"timeRanges":[{"opening":"09:00","closing":"20:00"}]},{"weekDay":3,"timeRanges":[{"opening":"09:00","closing":"20:00"}]},{"weekDay":4,"timeRanges":[{"opening":"09:00","closing":"20:00"}]},{"weekDay":5,"timeRanges":[{"opening":"09:00","closing":"20:00"}]},{"weekDay":6,"timeRanges":[{"opening":"09:00","closing":"20:00"}]}],"coronaStationAvailable":false},{"storeNumber":"52","address":{"name":"dm drogerie markt","street":"Metkova\u010dka bb","streetAdditional":"\u010capljina","zip":"88300","city":"\u010capljina"},"location":{"lat":43.10892868041992,"lon":17.701459884643555},"openingHours":[{"weekDay":1,"timeRanges":[{"opening":"08:00","closing":"20:00"}]},{"weekDay":2,"timeRanges":[{"opening":"08:00","closing":"20:00"}]},{"weekDay":3,"timeRanges":[{"opening":"08:00","closing":"20:00"}]},{"weekDay":4,"timeRanges":[{"opening":"08:00","closing":"20:00"}]},{"weekDay":5,"timeRanges":[{"opening":"08:00","closing":"20:00"}]},{"weekDay":6,"timeRanges":[{"opening":"08:00","closing":"20:00"}]}],"coronaStationAvailable":false},{"storeNumber":"53","address":{"name":"dm drogerie markt","street":"Kurta Schorka 24 A","streetAdditional":"SA-Stup","zip":"71000","city":"Sarajevo"},"location":{"lat":43.834739685058594,"lon":18.32761001586914},"openingHours":[{"weekDay":1,"timeRanges":[{"opening":"08:00","closing":"20:00"}]},{"weekDay":2,"timeRanges":[{"opening":"08:00","closing":"20:00"}]},{"weekDay":3,"timeRanges":[{"opening":"08:00","closing":"20:00"}]},{"weekDay":4,"timeRanges":[{"opening":"08:00","closing":"20:00"}]},{"weekDay":5,"timeRanges":[{"opening":"08:00","closing":"20:00"}]},{"weekDay":6,"timeRanges":[{"opening":"08:00","closing":"20:00"}]},{"weekDay":7,"timeRanges":[{"opening":"09:00","closing":"18:00"}]}],"coronaStationAvailable":false},{"storeNumber":"54","address":{"name":"dm drogerie markt","street":"Ko\u0161evo 8","streetAdditional":"SA-Ko\u0161evo","zip":"71000","city":"Sarajevo"},"location":{"lat":43.86022186279297,"lon":18.414060592651367},"openingHours":[{"weekDay":1,"timeRanges":[{"opening":"08:00","closing":"20:00"}]},{"weekDay":2,"timeRanges":[{"opening":"08:00","closing":"20:00"}]},{"weekDay":3,"timeRanges":[{"opening":"08:00","closing":"20:00"}]},{"weekDay":4,"timeRanges":[{"opening":"08:00","closing":"20:00"}]},{"weekDay":5,"timeRanges":[{"opening":"08:00","closing":"20:00"}]},{"weekDay":6,"timeRanges":[{"opening":"08:00","closing":"20:00"}]}],"coronaStationAvailable":false},{"storeNumber":"55","address":{"name":"dm drogerie markt","street":"Vrbanja 1","streetAdditional":"SA-SCC**","zip":"71000","city":"Sarajevo"},"location":{"lat":43.85531997680664,"lon":18.406980514526367},"openingHours":[{"weekDay":1,"timeRanges":[{"opening":"10:00","closing":"20:00"}]},{"weekDay":2,"timeRanges":[{"opening":"10:00","closing":"20:00"}]},{"weekDay":3,"timeRanges":[{"opening":"10:00","closing":"20:00"}]},{"weekDay":4,"timeRanges":[{"opening":"10:00","closing":"20:00"}]},{"weekDay":5,"timeRanges":[{"opening":"10:00","closing":"20:00"}]},{"weekDay":6,"timeRanges":[{"opening":"10:00","closing":"20:00"}]},{"weekDay":7,"timeRanges":[{"opening":"10:00","closing":"20:00"}]}],"coronaStationAvailable":false},{"storeNumber":"56","address":{"name":"dm drogerie markt","street":"Prijedorska bb","streetAdditional":"Sanski Most","zip":"79260","city":"Sanski Most"},"location":{"lat":44.76607894897461,"lon":16.66217041015625},"openingHours":[{"weekDay":1,"timeRanges":[{"opening":"09:00","closing":"20:00"}]},{"weekDay":2,"timeRanges":[{"opening":"09:00","closing":"20:00"}]},{"weekDay":3,"timeRanges":[{"opening":"09:00","closing":"20:00"}]},{"weekDay":4,"timeRanges":[{"opening":"09:00","closing":"20:00"}]},{"weekDay":5,"timeRanges":[{"opening":"09:00","closing":"20:00"}]},{"weekDay":6,"timeRanges":[{"opening":"09:00","closing":"20:00"}]}],"coronaStationAvailable":false},{"storeNumber":"57","address":{"name":"dm drogerie markt","street":"Kolo bb","streetAdditional":"Tomislavgrad","zip":"80240","city":"Tomislavgrad"},"location":{"lat":43.70357131958008,"lon":17.210769653320312},"openingHours":[{"weekDay":1,"timeRanges":[{"opening":"09:00","closing":"20:00"}]},{"weekDay":2,"timeRanges":[{"opening":"09:00","closing":"20:00"}]},{"weekDay":3,"timeRanges":[{"opening":"09:00","closing":"20:00"}]},{"weekDay":4,"timeRanges":[{"opening":"09:00","closing":"20:00"}]},{"weekDay":5,"timeRanges":[{"opening":"09:00","closing":"20:00"}]},{"weekDay":6,"timeRanges":[{"opening":"09:00","closing":"20:00"}]}],"coronaStationAvailable":false},{"storeNumber":"58","address":{"name":"dm drogerie markt","street":"\u017drtava srebreni\u010dkog genocida bb","streetAdditional":"BI-TC Bingo**","zip":"77000","city":"Biha\u0107"},"location":{"lat":44.819610595703125,"lon":15.852259635925293},"openingHours":[{"weekDay":1,"timeRanges":[{"opening":"09:00","closing":"21:00"}]},{"weekDay":2,"timeRanges":[{"opening":"09:00","closing":"21:00"}]},{"weekDay":3,"timeRanges":[{"opening":"09:00","closing":"21:00"}]},{"weekDay":4,"timeRanges":[{"opening":"08:00","closing":"21:00"}]},{"weekDay":5,"timeRanges":[{"opening":"09:00","closing":"21:00"}]},{"weekDay":6,"timeRanges":[{"opening":"09:00","closing":"21:00"}]},{"weekDay":7,"timeRanges":[{"opening":"10:00","closing":"18:00"}]}],"coronaStationAvailable":false},{"storeNumber":"59","address":{"name":"dm drogerie markt","street":"Pijeskovi bb","streetAdditional":"DO-TC Belamionix**","zip":"74000","city":"Doboj"},"location":{"lat":44.74020004272461,"lon":18.094600677490234},"openingHours":[{"weekDay":1,"timeRanges":[{"opening":"09:00","closing":"21:00"}]},{"weekDay":2,"timeRanges":[{"opening":"09:00","closing":"21:00"}]},{"weekDay":3,"timeRanges":[{"opening":"09:00","closing":"21:00"}]},{"weekDay":4,"timeRanges":[{"opening":"09:00","closing":"21:00"}]},{"weekDay":5,"timeRanges":[{"opening":"09:00","closing":"21:00"}]},{"weekDay":6,"timeRanges":[{"opening":"09:00","closing":"21:00"}]},{"weekDay":7,"timeRanges":[{"opening":"10:00","closing":"16:00"}]}],"coronaStationAvailable":false},{"storeNumber":"60","address":{"name":"dm-drogerie markt","street":"Ivana Gorana Kova\u010di\u0107a bb","streetAdditional":"BL-TC TROPIC**","zip":"78000","city":"Banja Luka"},"location":{"lat":44.7894172668457,"lon":17.20342445373535},"openingHours":[{"weekDay":1,"timeRanges":[{"opening":"09:00","closing":"21:00"}]},{"weekDay":2,"timeRanges":[{"opening":"09:00","closing":"21:00"}]},{"weekDay":3,"timeRanges":[{"opening":"09:00","closing":"21:00"}]},{"weekDay":4,"timeRanges":[{"opening":"09:00","closing":"21:00"}]},{"weekDay":5,"timeRanges":[{"opening":"09:00","closing":"21:00"}]},{"weekDay":6,"timeRanges":[{"opening":"09:00","closing":"21:00"}]},{"weekDay":7,"timeRanges":[{"opening":"09:00","closing":"16:00"}]}],"coronaStationAvailable":false},{"storeNumber":"61","address":{"name":"dm-drogerie markt","street":"Ferida Dizdarevi\u0107a 3","streetAdditional":"Gora\u017ede","zip":"73000","city":"Gora\u017ede"},"location":{"lat":43.66452407836914,"lon":18.976150512695312},"openingHours":[{"weekDay":1,"timeRanges":[{"opening":"09:00","closing":"20:00"}]},{"weekDay":2,"timeRanges":[{"opening":"09:00","closing":"20:00"}]},{"weekDay":3,"timeRanges":[{"opening":"09:00","closing":"20:00"}]},{"weekDay":4,"timeRanges":[{"opening":"09:00","closing":"20:00"}]},{"weekDay":5,"timeRanges":[{"opening":"09:00","closing":"20:00"}]},{"weekDay":6,"timeRanges":[{"opening":"09:00","closing":"20:00"}]}],"coronaStationAvailable":false},{"storeNumber":"62","address":{"name":"dm drogerie markt","street":"Viteza Ranka Bobana 4","streetAdditional":"Grude","zip":"88340","city":"Grude"},"location":{"lat":43.37215042114258,"lon":17.4141902923584},"openingHours":[{"weekDay":1,"timeRanges":[{"opening":"08:00","closing":"20:00"}]},{"weekDay":2,"timeRanges":[{"opening":"08:00","closing":"20:00"}]},{"weekDay":3,"timeRanges":[{"opening":"08:00","closing":"20:00"}]},{"weekDay":4,"timeRanges":[{"opening":"08:00","closing":"20:00"}]},{"weekDay":5,"timeRanges":[{"opening":"08:00","closing":"20:00"}]},{"weekDay":6,"timeRanges":[{"opening":"08:00","closing":"20:00"}]}],"coronaStationAvailable":false},{"storeNumber":"63","address":{"name":"dm-drogerie markt","street":"Bosanska 6","zip":"77000","city":"Biha\u0107"},"location":{"lat":44.81483840942383,"lon":15.86911678314209},"openingHours":[{"weekDay":1,"timeRanges":[{"opening":"09:00","closing":"20:00"}]},{"weekDay":2,"timeRanges":[{"opening":"09:00","closing":"20:00"}]},{"weekDay":3,"timeRanges":[{"opening":"09:00","closing":"20:00"}]},{"weekDay":4,"timeRanges":[{"opening":"09:00","closing":"20:00"}]},{"weekDay":5,"timeRanges":[{"opening":"09:00","closing":"20:00"}]},{"weekDay":6,"timeRanges":[{"opening":"09:00","closing":"20:00"}]}],"coronaStationAvailable":false},{"storeNumber":"64","address":{"name":"dm-drogerie markt","street":"Sremska bb","zip":"76300","city":"Bijeljina"},"location":{"lat":44.762733459472656,"lon":19.20638656616211},"openingHours":[{"weekDay":1,"timeRanges":[{"opening":"09:00","closing":"21:00"}]},{"weekDay":2,"timeRanges":[{"opening":"09:00","closing":"21:00"}]},{"weekDay":3,"timeRanges":[{"opening":"09:00","closing":"21:00"}]},{"weekDay":4,"timeRanges":[{"opening":"09:00","closing":"21:00"}]},{"weekDay":5,"timeRanges":[{"opening":"09:00","closing":"21:00"}]},{"weekDay":6,"timeRanges":[{"opening":"09:00","closing":"21:00"}]},{"weekDay":7,"timeRanges":[{"opening":"09:00","closing":"17:00"}]}],"coronaStationAvailable":false},{"storeNumber":"65","address":{"name":"dm-drogerie markt","street":"Alipa\u0161ina 45b","zip":"71000","city":"Sarajevo"},"location":{"lat":43.86744689941406,"lon":18.408971786499023},"openingHours":[{"weekDay":1,"timeRanges":[{"opening":"09:00","closing":"20:00"}]},{"weekDay":2,"timeRanges":[{"opening":"09:00","closing":"20:00"}]},{"weekDay":3,"timeRanges":[{"opening":"09:00","closing":"20:00"}]},{"weekDay":4,"timeRanges":[{"opening":"09:00","closing":"20:00"}]},{"weekDay":5,"timeRanges":[{"opening":"09:00","closing":"20:00"}]},{"weekDay":6,"timeRanges":[{"opening":"09:00","closing":"20:00"}]}],"coronaStationAvailable":false},{"storeNumber":"66","address":{"name":"dm-drogerie markt","street":"Mitra Trifunovi\u0107a 2","zip":"75000","city":"Tuzla"},"location":{"lat":44.53227615356445,"lon":18.65169334411621},"openingHours":[{"weekDay":1,"timeRanges":[{"opening":"09:00","closing":"20:00"}]},{"weekDay":2,"timeRanges":[{"opening":"09:00","closing":"20:00"}]},{"weekDay":3,"timeRanges":[{"opening":"09:00","closing":"20:00"}]},{"weekDay":4,"timeRanges":[{"opening":"09:00","closing":"20:00"}]},{"weekDay":5,"timeRanges":[{"opening":"09:00","closing":"20:00"}]},{"weekDay":6,"timeRanges":[{"opening":"09:00","closing":"20:00"}]},{"weekDay":7,"timeRanges":[{"opening":"09:00","closing":"20:00"}]}],"coronaStationAvailable":false},{"storeNumber":"67","address":{"name":"dm-drogerie markt","street":"Katarine Zrinske bb","zip":"88240","city":"Posu\u0161je"},"location":{"lat":43.47026824951172,"lon":17.32646369934082},"openingHours":[{"weekDay":1,"timeRanges":[{"opening":"08:00","closing":"20:00"}]},{"weekDay":2,"timeRanges":[{"opening":"08:00","closing":"20:00"}]},{"weekDay":3,"timeRanges":[{"opening":"08:00","closing":"20:00"}]},{"weekDay":4,"timeRanges":[{"opening":"08:00","closing":"20:00"}]},{"weekDay":5,"timeRanges":[{"opening":"08:00","closing":"20:00"}]},{"weekDay":6,"timeRanges":[{"opening":"08:00","closing":"20:00"}]}],"coronaStationAvailable":false},{"storeNumber":"68","address":{"name":"dm-drogerie markt","street":"Lo\u017eioni\u010dka 16","zip":"71000","city":"Sarajevo"},"location":{"lat":43.85728454589844,"lon":18.383182525634766},"openingHours":[{"weekDay":1,"timeRanges":[{"opening":"09:00","closing":"22:00"}]},{"weekDay":2,"timeRanges":[{"opening":"09:00","closing":"22:00"}]},{"weekDay":3,"timeRanges":[{"opening":"09:00","closing":"22:00"}]},{"weekDay":4,"timeRanges":[{"opening":"09:00","closing":"22:00"}]},{"weekDay":5,"timeRanges":[{"opening":"09:00","closing":"22:00"}]},{"weekDay":6,"timeRanges":[{"opening":"09:00","closing":"22:00"}]},{"weekDay":7,"timeRanges":[{"opening":"09:00","closing":"21:00"}]}],"coronaStationAvailable":false},{"storeNumber":"7","address":{"name":"dm drogerie markt","street":"Trg solidarnosti 2","streetAdditional":"SA-GRAWE","zip":"71000","city":"Sarajevo"},"location":{"lat":43.84672164916992,"lon":18.352529525756836},"openingHours":[{"weekDay":1,"timeRanges":[{"opening":"08:00","closing":"20:00"}]},{"weekDay":2,"timeRanges":[{"opening":"08:00","closing":"20:00"}]},{"weekDay":3,"timeRanges":[{"opening":"08:00","closing":"20:00"}]},{"weekDay":4,"timeRanges":[{"opening":"08:00","closing":"20:00"}]},{"weekDay":5,"timeRanges":[{"opening":"08:00","closing":"20:00"}]},{"weekDay":6,"timeRanges":[{"opening":"08:00","closing":"20:00"}]}],"coronaStationAvailable":false},{"storeNumber":"70","address":{"name":"dm drogerie markt","street":"Branka Popovi\u0107a 310","streetAdditional":"BL-TC Hiper Kort**","zip":"78000","city":"Banja Luka"},"location":{"lat":44.81745910644531,"lon":17.215909957885742},"openingHours":[{"weekDay":1,"timeRanges":[{"opening":"09:00","closing":"21:00"}]},{"weekDay":2,"timeRanges":[{"opening":"09:00","closing":"21:00"}]},{"weekDay":3,"timeRanges":[{"opening":"09:00","closing":"21:00"}]},{"weekDay":4,"timeRanges":[{"opening":"09:00","closing":"21:00"}]},{"weekDay":5,"timeRanges":[{"opening":"09:00","closing":"21:00"}]},{"weekDay":6,"timeRanges":[{"opening":"09:00","closing":"21:00"}]},{"weekDay":7,"timeRanges":[{"opening":"09:00","closing":"16:00"}]}],"coronaStationAvailable":false},{"storeNumber":"71","address":{"name":"dm-drogerie markt","street":"Aleja Svetog Save 69","zip":"78000","city":"Banja Luka"},"location":{"lat":44.77495574951172,"lon":17.205995559692383},"openingHours":[{"weekDay":1,"timeRanges":[{"opening":"09:00","closing":"21:00"}]},{"weekDay":2,"timeRanges":[{"opening":"09:00","closing":"21:00"}]},{"weekDay":3,"timeRanges":[{"opening":"09:00","closing":"21:00"}]},{"weekDay":4,"timeRanges":[{"opening":"09:00","closing":"18:00"}]},{"weekDay":5,"timeRanges":[{"opening":"09:00","closing":"21:00"}]},{"weekDay":6,"timeRanges":[{"opening":"09:00","closing":"21:00"}]},{"weekDay":7,"timeRanges":[{"opening":"09:00","closing":"16:00"}]}],"coronaStationAvailable":false},{"storeNumber":"72","address":{"name":"dm-drogerie markt","street":"Alije Izetbegovi\u0107a bb","zip":"72240","city":"Kakanj"},"location":{"lat":44.13079833984375,"lon":18.12070083618164},"openingHours":[{"weekDay":1,"timeRanges":[{"opening":"09:00","closing":"19:00"}]},{"weekDay":2,"timeRanges":[{"opening":"09:00","closing":"19:00"}]},{"weekDay":3,"timeRanges":[{"opening":"09:00","closing":"19:00"}]},{"weekDay":4,"timeRanges":[{"opening":"09:00","closing":"19:00"}]},{"weekDay":5,"timeRanges":[{"opening":"09:00","closing":"19:00"}]},{"weekDay":6,"timeRanges":[{"opening":"09:00","closing":"19:00"}]}],"coronaStationAvailable":false},{"storeNumber":"73","address":{"name":"dm-drogerie markt","street":"Hrvatskih branitelja 69","zip":"88320","city":"Ljubu\u0161ki"},"location":{"lat":43.19889831542969,"lon":17.547300338745117},"openingHours":[{"weekDay":1,"timeRanges":[{"opening":"08:00","closing":"20:00"}]},{"weekDay":2,"timeRanges":[{"opening":"08:00","closing":"20:00"}]},{"weekDay":3,"timeRanges":[{"opening":"08:00","closing":"20:00"}]},{"weekDay":4,"timeRanges":[{"opening":"08:00","closing":"20:00"}]},{"weekDay":5,"timeRanges":[{"opening":"08:00","closing":"20:00"}]},{"weekDay":6,"timeRanges":[{"opening":"08:00","closing":"20:00"}]}],"coronaStationAvailable":false},{"storeNumber":"74","address":{"name":"dm-drogerie markt","street":"Branilaca grada bb","zip":"75320","city":"Gra\u010danica"},"location":{"lat":44.68659210205078,"lon":18.310518264770508},"openingHours":[{"weekDay":1,"timeRanges":[{"opening":"09:00","closing":"20:00"}]},{"weekDay":2,"timeRanges":[{"opening":"09:00","closing":"20:00"}]},{"weekDay":3,"timeRanges":[{"opening":"09:00","closing":"20:00"}]},{"weekDay":4,"timeRanges":[{"opening":"09:00","closing":"20:00"}]},{"weekDay":5,"timeRanges":[{"opening":"09:00","closing":"20:00"}]},{"weekDay":6,"timeRanges":[{"opening":"09:00","closing":"20:00"}]},{"weekDay":7,"timeRanges":[{"opening":"10:00","closing":"19:00"}]}],"coronaStationAvailable":false},{"storeNumber":"75","address":{"name":"dm-drogerie markt","street":"Magistralni put M-17 5","zip":"88000","city":"Mostar"},"location":{"lat":43.364898681640625,"lon":17.821800231933594},"openingHours":[{"weekDay":1,"timeRanges":[{"opening":"09:00","closing":"20:00"}]},{"weekDay":2,"timeRanges":[{"opening":"09:00","closing":"20:00"}]},{"weekDay":3,"timeRanges":[{"opening":"09:00","closing":"20:00"}]},{"weekDay":4,"timeRanges":[{"opening":"09:00","closing":"20:00"}]},{"weekDay":5,"timeRanges":[{"opening":"09:00","closing":"20:00"}]},{"weekDay":6,"timeRanges":[{"opening":"09:00","closing":"20:00"}]},{"weekDay":7,"timeRanges":[{"opening":"10:00","closing":"18:00"}]}],"coronaStationAvailable":false},{"storeNumber":"76","address":{"name":"dm-drogerie markt","street":"Mala Lisa bb","zip":"77220","city":"Cazin"},"location":{"lat":44.96562957763672,"lon":15.908329963684082},"openingHours":[{"weekDay":1,"timeRanges":[{"opening":"09:00","closing":"20:00"}]},{"weekDay":2,"timeRanges":[{"opening":"09:00","closing":"20:00"}]},{"weekDay":3,"timeRanges":[{"opening":"09:00","closing":"20:00"}]},{"weekDay":4,"timeRanges":[{"opening":"09:00","closing":"20:00"}]},{"weekDay":5,"timeRanges":[{"opening":"09:00","closing":"20:00"}]},{"weekDay":6,"timeRanges":[{"opening":"09:00","closing":"20:00"}]},{"weekDay":7,"timeRanges":[{"opening":"10:00","closing":"18:00"}]}],"coronaStationAvailable":false},{"storeNumber":"77","address":{"name":"dm-drogerie markt","street":"Kninska 1","zip":"74400","city":"Derventa"},"location":{"lat":44.98332977294922,"lon":17.928009033203125},"openingHours":[{"weekDay":1,"timeRanges":[{"opening":"09:00","closing":"21:00"}]},{"weekDay":2,"timeRanges":[{"opening":"09:00","closing":"21:00"}]},{"weekDay":3,"timeRanges":[{"opening":"09:00","closing":"21:00"}]},{"weekDay":4,"timeRanges":[{"opening":"09:00","closing":"21:00"}]},{"weekDay":5,"timeRanges":[{"opening":"09:00","closing":"21:00"}]},{"weekDay":6,"timeRanges":[{"opening":"09:00","closing":"21:00"}]},{"weekDay":7,"timeRanges":[{"opening":"09:00","closing":"16:00"}]}],"coronaStationAvailable":false},{"storeNumber":"78","address":{"name":"dm-drogerie markt","street":"Svetog Save 3","zip":"75400","city":"Zvornik"},"location":{"lat":44.38494873046875,"lon":19.103055953979492},"openingHours":[{"weekDay":1,"timeRanges":[{"opening":"08:00","closing":"20:00"}]},{"weekDay":2,"timeRanges":[{"opening":"08:00","closing":"20:00"}]},{"weekDay":3,"timeRanges":[{"opening":"08:00","closing":"20:00"}]},{"weekDay":4,"timeRanges":[{"opening":"08:00","closing":"20:00"}]},{"weekDay":5,"timeRanges":[{"opening":"08:00","closing":"20:00"}]},{"weekDay":6,"timeRanges":[{"opening":"08:00","closing":"19:00"}]}],"coronaStationAvailable":false},{"storeNumber":"79","address":{"name":"dm-drogerie markt","street":"II Korpusa Armije BiH bb","zip":"75000","city":"Tuzla"},"location":{"lat":44.532737731933594,"lon":18.68354034423828},"openingHours":[{"weekDay":1,"timeRanges":[{"opening":"09:00","closing":"20:00"}]},{"weekDay":2,"timeRanges":[{"opening":"09:00","closing":"20:00"}]},{"weekDay":3,"timeRanges":[{"opening":"09:00","closing":"20:00"}]},{"weekDay":4,"timeRanges":[{"opening":"09:00","closing":"20:00"}]},{"weekDay":5,"timeRanges":[{"opening":"09:00","closing":"20:00"}]},{"weekDay":6,"timeRanges":[{"opening":"09:00","closing":"20:00"}]},{"weekDay":7,"timeRanges":[{"opening":"10:00","closing":"19:00"}]}],"coronaStationAvailable":false},{"storeNumber":"80","address":{"name":"dm-drogerie markt","street":"D\u017eemala Bijedi\u0107a 160","zip":"71000","city":"Sarajevo"},"location":{"lat":43.85068893432617,"lon":18.35401153564453},"openingHours":[{"weekDay":1,"timeRanges":[{"opening":"09:00","closing":"20:00"}]},{"weekDay":2,"timeRanges":[{"opening":"09:00","closing":"20:00"}]},{"weekDay":3,"timeRanges":[{"opening":"09:00","closing":"20:00"}]},{"weekDay":4,"timeRanges":[{"opening":"09:00","closing":"20:00"}]},{"weekDay":5,"timeRanges":[{"opening":"09:00","closing":"20:00"}]},{"weekDay":6,"timeRanges":[{"opening":"09:00","closing":"20:00"}]},{"weekDay":7,"timeRanges":[{"opening":"10:00","closing":"18:00"}]}],"coronaStationAvailable":false},{"storeNumber":"81","address":{"name":"dm-drogerie markt","street":"I ulica bb","zip":"75270","city":"\u017divinice"},"location":{"lat":44.456031799316406,"lon":18.642122268676758},"openingHours":[{"weekDay":1,"timeRanges":[{"opening":"09:00","closing":"20:00"}]},{"weekDay":2,"timeRanges":[{"opening":"09:00","closing":"20:00"}]},{"weekDay":3,"timeRanges":[{"opening":"09:00","closing":"20:00"}]},{"weekDay":4,"timeRanges":[{"opening":"09:00","closing":"20:00"}]},{"weekDay":5,"timeRanges":[{"opening":"09:00","closing":"20:00"}]},{"weekDay":6,"timeRanges":[{"opening":"09:00","closing":"20:00"}]},{"weekDay":7,"timeRanges":[{"opening":"09:00","closing":"20:00"}]}],"coronaStationAvailable":false},{"storeNumber":"82","address":{"name":"dm-drogerie markt","street":"Ugao 1. maja i Novoprojektovane bb i 208","zip":"79101","city":"Prijedor"},"location":{"lat":44.97722244262695,"lon":16.726667404174805},"openingHours":[{"weekDay":1,"timeRanges":[{"opening":"09:00","closing":"21:00"}]},{"weekDay":2,"timeRanges":[{"opening":"09:00","closing":"21:00"}]},{"weekDay":3,"timeRanges":[{"opening":"09:00","closing":"21:00"}]},{"weekDay":4,"timeRanges":[{"opening":"09:00","closing":"21:00"}]},{"weekDay":5,"timeRanges":[{"opening":"09:00","closing":"21:00"}]},{"weekDay":6,"timeRanges":[{"opening":"09:00","closing":"21:00"}]}],"coronaStationAvailable":false},{"storeNumber":"83","address":{"name":"dm-drogerie markt","street":"Ru\u0111era Bo\u0161kovi\u0107a bb","zip":"88390","city":"Neum"},"location":{"lat":42.928157806396484,"lon":17.610063552856445},"openingHours":[{"weekDay":1,"timeRanges":[{"opening":"09:00","closing":"20:00"}]},{"weekDay":2,"timeRanges":[{"opening":"09:00","closing":"20:00"}]},{"weekDay":3,"timeRanges":[{"opening":"09:00","closing":"20:00"}]},{"weekDay":4,"timeRanges":[{"opening":"09:00","closing":"20:00"}]},{"weekDay":5,"timeRanges":[{"opening":"09:00","closing":"20:00"}]},{"weekDay":6,"timeRanges":[{"opening":"09:00","closing":"20:00"}]}],"coronaStationAvailable":false},{"storeNumber":"84","address":{"name":"dm-drogerie markt","street":"Slavka Jelice \u0160vabe bb","zip":"70101","city":"Jajce"},"location":{"lat":44.339454650878906,"lon":17.26479721069336},"openingHours":[{"weekDay":1,"timeRanges":[{"opening":"09:00","closing":"20:00"}]},{"weekDay":2,"timeRanges":[{"opening":"09:00","closing":"20:00"}]},{"weekDay":3,"timeRanges":[{"opening":"09:00","closing":"20:00"}]},{"weekDay":4,"timeRanges":[{"opening":"09:00","closing":"20:00"}]},{"weekDay":5,"timeRanges":[{"opening":"09:00","closing":"20:00"}]},{"weekDay":6,"timeRanges":[{"opening":"09:00","closing":"20:00"}]}],"coronaStationAvailable":false},{"storeNumber":"85","address":{"name":"dm-drogerie markt","street":"Zmaja od Bosne 2","zip":"72000","city":"Zenica"},"location":{"lat":44.20549774169922,"lon":17.90291976928711},"openingHours":[{"weekDay":1,"timeRanges":[{"opening":"08:00","closing":"20:00"}]},{"weekDay":2,"timeRanges":[{"opening":"08:00","closing":"20:00"}]},{"weekDay":3,"timeRanges":[{"opening":"08:00","closing":"20:00"}]},{"weekDay":4,"timeRanges":[{"opening":"08:00","closing":"20:00"}]},{"weekDay":5,"timeRanges":[{"opening":"08:00","closing":"20:00"}]},{"weekDay":6,"timeRanges":[{"opening":"08:00","closing":"20:00"}]}],"coronaStationAvailable":false},{"storeNumber":"86","address":{"name":"dm-drogerie markt","street":"Mostar Bi\u0161\u0107e bb","zip":"88000","city":"Mostar"},"location":{"lat":43.307228088378906,"lon":17.830251693725586},"openingHours":[{"weekDay":1,"timeRanges":[{"opening":"09:00","closing":"20:00"}]},{"weekDay":2,"timeRanges":[{"opening":"09:00","closing":"20:00"}]},{"weekDay":3,"timeRanges":[{"opening":"09:00","closing":"20:00"}]},{"weekDay":4,"timeRanges":[{"opening":"09:00","closing":"20:00"}]},{"weekDay":5,"timeRanges":[{"opening":"09:00","closing":"20:00"}]},{"weekDay":6,"timeRanges":[{"opening":"09:00","closing":"20:00"}]},{"weekDay":7,"timeRanges":[{"opening":"09:00","closing":"20:00"}]}],"coronaStationAvailable":false},{"storeNumber":"87","address":{"name":"dm-drogerie markt","street":"Lukava\u010dkih brigada bb","zip":"75300","city":"Lukavac"},"location":{"lat":44.531158447265625,"lon":18.5325984954834},"openingHours":[{"weekDay":1,"timeRanges":[{"opening":"09:00","closing":"20:00"}]},{"weekDay":2,"timeRanges":[{"opening":"09:00","closing":"20:00"}]},{"weekDay":3,"timeRanges":[{"opening":"09:00","closing":"20:00"}]},{"weekDay":4,"timeRanges":[{"opening":"09:00","closing":"20:00"}]},{"weekDay":5,"timeRanges":[{"opening":"09:00","closing":"20:00"}]},{"weekDay":6,"timeRanges":[{"opening":"09:00","closing":"20:00"}]}],"coronaStationAvailable":false},{"storeNumber":"88","address":{"name":"dm-drogerie markt","street":"Bosanska bb","zip":"72270","city":"Travnik"},"location":{"lat":44.226722717285156,"lon":17.661256790161133},"openingHours":[{"weekDay":1,"timeRanges":[{"opening":"08:00","closing":"20:00"}]},{"weekDay":2,"timeRanges":[{"opening":"08:00","closing":"20:00"}]},{"weekDay":3,"timeRanges":[{"opening":"08:00","closing":"20:00"}]},{"weekDay":4,"timeRanges":[{"opening":"08:00","closing":"20:00"}]},{"weekDay":5,"timeRanges":[{"opening":"08:00","closing":"20:00"}]},{"weekDay":6,"timeRanges":[{"opening":"08:00","closing":"20:00"}]},{"weekDay":7,"timeRanges":[{"opening":"10:00","closing":"18:00"}]}],"coronaStationAvailable":false},{"storeNumber":"9","address":{"name":"dm drogerie markt","street":"Bra\u0107e Feji\u0107a bb","streetAdditional":"MO-Bra\u0107e Feji\u0107a","zip":"88000","city":"Mostar"},"location":{"lat":43.342620849609375,"lon":17.813270568847656},"openingHours":[{"weekDay":1,"timeRanges":[{"opening":"08:00","closing":"20:00"}]},{"weekDay":2,"timeRanges":[{"opening":"08:00","closing":"20:00"}]},{"weekDay":3,"timeRanges":[{"opening":"08:00","closing":"20:00"}]},{"weekDay":4,"timeRanges":[{"opening":"08:00","closing":"20:00"}]},{"weekDay":5,"timeRanges":[{"opening":"08:00","closing":"20:00"}]},{"weekDay":6,"timeRanges":[{"opening":"08:00","closing":"20:00"}]}],"coronaStationAvailable":false},{"storeNumber":"90","address":{"name":"dm-drogerie markt","street":"Marije Dimi\u0107a 7\/A","zip":"78000","city":"Banja Luka"},"location":{"lat":44.79015350341797,"lon":17.19782066345215},"openingHours":[{"weekDay":1,"timeRanges":[{"opening":"09:00","closing":"21:00"}]},{"weekDay":2,"timeRanges":[{"opening":"09:00","closing":"21:00"}]},{"weekDay":3,"timeRanges":[{"opening":"09:00","closing":"21:00"}]},{"weekDay":4,"timeRanges":[{"opening":"09:00","closing":"21:00"}]},{"weekDay":5,"timeRanges":[{"opening":"09:00","closing":"21:00"}]},{"weekDay":6,"timeRanges":[{"opening":"09:00","closing":"21:00"}]},{"weekDay":7,"timeRanges":[{"opening":"09:00","closing":"16:00"}]}],"coronaStationAvailable":false}]