[{"storeNumber":"100","address":{"name":"dm-drogerie markt","street":"Palas 7D","streetAdditional":"Palas Mall","zip":"700124","city":"Ia\u015fi"},"location":{"lat":47.155174,"lon":27.58803},"openingHours":[{"weekDay":1,"timeRanges":[{"opening":"10:00","closing":"22:00"}]},{"weekDay":2,"timeRanges":[{"opening":"10:00","closing":"22:00"}]},{"weekDay":3,"timeRanges":[{"opening":"10:00","closing":"22:00"}]},{"weekDay":4,"timeRanges":[{"opening":"10:00","closing":"22:00"}]},{"weekDay":5,"timeRanges":[{"opening":"10:00","closing":"22:00"}]},{"weekDay":6,"timeRanges":[{"opening":"10:00","closing":"22:00"}]},{"weekDay":7,"timeRanges":[{"opening":"10:00","closing":"22:00"}]}]},{"storeNumber":"101","address":{"name":"dm-drogerie markt","street":"Blvd.Tudor Vladimirescu FN","zip":"700291","city":"Ia\u015fi"},"location":{"lat":47.155134,"lon":27.605706},"openingHours":[{"weekDay":1,"timeRanges":[{"opening":"10:00","closing":"22:00"}]},{"weekDay":2,"timeRanges":[{"opening":"10:00","closing":"22:00"}]},{"weekDay":3,"timeRanges":[{"opening":"10:00","closing":"22:00"}]},{"weekDay":4,"timeRanges":[{"opening":"10:00","closing":"22:00"}]},{"weekDay":5,"timeRanges":[{"opening":"10:00","closing":"22:00"}]},{"weekDay":6,"timeRanges":[{"opening":"10:00","closing":"22:00"}]},{"weekDay":7,"timeRanges":[{"opening":"10:00","closing":"22:00"}]}]},{"storeNumber":"102","address":{"name":"dm-drogerie markt","street":"Calea Unirii 22","streetAdditional":"Iulius Mall","zip":"720018","city":"Suceava"},"location":{"lat":47.659369,"lon":26.271191},"openingHours":[{"weekDay":1,"timeRanges":[{"opening":"10:00","closing":"22:00"}]},{"weekDay":2,"timeRanges":[{"opening":"10:00","closing":"22:00"}]},{"weekDay":3,"timeRanges":[{"opening":"10:00","closing":"22:00"}]},{"weekDay":4,"timeRanges":[{"opening":"10:00","closing":"22:00"}]},{"weekDay":5,"timeRanges":[{"opening":"10:00","closing":"22:00"}]},{"weekDay":6,"timeRanges":[{"opening":"10:00","closing":"22:00"}]},{"weekDay":7,"timeRanges":[{"opening":"10:00","closing":"22:00"}]}]},{"storeNumber":"103","address":{"name":"dm-drogerie markt","street":"Bazaltului 2","streetAdditional":"Eliana Mall","zip":"500053","city":"Bra\u015fov"},"location":{"lat":45.657322,"lon":25.561289},"openingHours":[{"weekDay":1,"timeRanges":[{"opening":"09:00","closing":"20:00"}]},{"weekDay":2,"timeRanges":[{"opening":"09:00","closing":"20:00"}]},{"weekDay":3,"timeRanges":[{"opening":"09:00","closing":"20:00"}]},{"weekDay":4,"timeRanges":[{"opening":"09:00","closing":"20:00"}]},{"weekDay":5,"timeRanges":[{"opening":"09:00","closing":"20:00"}]},{"weekDay":6,"timeRanges":[{"opening":"09:00","closing":"20:00"}]},{"weekDay":7,"timeRanges":[{"opening":"10:00","closing":"20:00"}]}]},{"storeNumber":"104","address":{"name":"dm-drogerie markt","street":"\u015eoseaua \u015etefan cel Mare 1-3","streetAdditional":"Perla","zip":"011736","city":"Bucure\u015fti","district":"sector 1"},"location":{"lat":44.453897,"lon":26.098323},"openingHours":[{"weekDay":1,"timeRanges":[{"opening":"08:00","closing":"20:00"}]},{"weekDay":2,"timeRanges":[{"opening":"08:00","closing":"20:00"}]},{"weekDay":3,"timeRanges":[{"opening":"08:00","closing":"20:00"}]},{"weekDay":4,"timeRanges":[{"opening":"08:00","closing":"20:00"}]},{"weekDay":5,"timeRanges":[{"opening":"08:00","closing":"20:00"}]},{"weekDay":6,"timeRanges":[{"opening":"09:00","closing":"19:00"}]}]},{"storeNumber":"105","address":{"name":"dm-drogerie markt","street":"Blvd.Alexandru Lapusneanu 116 C","streetAdditional":"City Park Mall Nepi","zip":"900419","city":"Constan\u0163a"},"location":{"lat":44.203328,"lon":28.631656},"openingHours":[{"weekDay":1,"timeRanges":[{"opening":"10:00","closing":"22:00"}]},{"weekDay":2,"timeRanges":[{"opening":"10:00","closing":"22:00"}]},{"weekDay":3,"timeRanges":[{"opening":"10:00","closing":"22:00"}]},{"weekDay":4,"timeRanges":[{"opening":"10:00","closing":"22:00"}]},{"weekDay":5,"timeRanges":[{"opening":"10:00","closing":"22:00"}]},{"weekDay":6,"timeRanges":[{"opening":"10:00","closing":"22:00"}]},{"weekDay":7,"timeRanges":[{"opening":"10:00","closing":"22:00"}]}]},{"storeNumber":"106","address":{"name":"dm-drogerie markt","street":"Calea \u015eagului 100","streetAdditional":"Shopping City Nepi","zip":"300516","city":"Timi\u015foara"},"location":{"lat":45.723697,"lon":21.199662},"openingHours":[{"weekDay":1,"timeRanges":[{"opening":"10:00","closing":"22:00"}]},{"weekDay":2,"timeRanges":[{"opening":"10:00","closing":"22:00"}]},{"weekDay":3,"timeRanges":[{"opening":"10:00","closing":"22:00"}]},{"weekDay":4,"timeRanges":[{"opening":"10:00","closing":"22:00"}]},{"weekDay":5,"timeRanges":[{"opening":"10:00","closing":"18:00"}]},{"weekDay":6,"timeRanges":[{"opening":"10:00","closing":"18:00"}]},{"weekDay":7,"timeRanges":[{"opening":"10:00","closing":"18:00"}]}]},{"storeNumber":"107","address":{"name":"dm-drogerie markt","street":"Fabricii 7","zip":"400620","city":"Cluj-Napoca"},"location":{"lat":46.782425,"lon":23.612815},"openingHours":[{"weekDay":1,"timeRanges":[{"opening":"09:00","closing":"20:00"}]},{"weekDay":2,"timeRanges":[{"opening":"09:00","closing":"20:00"}]},{"weekDay":3,"timeRanges":[{"opening":"09:00","closing":"20:00"}]},{"weekDay":4,"timeRanges":[{"opening":"09:00","closing":"20:00"}]},{"weekDay":5,"timeRanges":[{"opening":"09:00","closing":"20:00"}]},{"weekDay":6,"timeRanges":[{"opening":"09:00","closing":"17:00"}]}]},{"storeNumber":"108","address":{"name":"dm-drogerie markt","street":"Aristide Demetriade 1","streetAdditional":"Iulius Mall","zip":"300088","city":"Timi\u015foara"},"location":{"lat":45.76619,"lon":21.230186},"openingHours":[{"weekDay":1,"timeRanges":[{"opening":"10:00","closing":"22:00"}]},{"weekDay":2,"timeRanges":[{"opening":"10:00","closing":"22:00"}]},{"weekDay":3,"timeRanges":[{"opening":"10:00","closing":"22:00"}]},{"weekDay":4,"timeRanges":[{"opening":"10:00","closing":"22:00"}]},{"weekDay":5,"timeRanges":[{"opening":"10:00","closing":"22:00"}]},{"weekDay":6,"timeRanges":[{"opening":"10:00","closing":"22:00"}]},{"weekDay":7,"timeRanges":[{"opening":"10:00","closing":"22:00"}]}]},{"storeNumber":"109","address":{"name":"dm-drogerie markt","street":"Ziduri Mo\u015fi 23","streetAdditional":"Veranda Mall","zip":"021203","city":"Bucure\u015fti","district":"sector 2"},"location":{"lat":44.452408,"lon":26.129821},"openingHours":[{"weekDay":1,"timeRanges":[{"opening":"10:00","closing":"22:00"}]},{"weekDay":2,"timeRanges":[{"opening":"10:00","closing":"22:00"}]},{"weekDay":3,"timeRanges":[{"opening":"10:00","closing":"22:00"}]},{"weekDay":4,"timeRanges":[{"opening":"10:00","closing":"22:00"}]},{"weekDay":5,"timeRanges":[{"opening":"10:00","closing":"22:00"}]},{"weekDay":6,"timeRanges":[{"opening":"10:00","closing":"22:00"}]},{"weekDay":7,"timeRanges":[{"opening":"10:00","closing":"22:00"}]}]},{"storeNumber":"110","address":{"name":"dm-drogerie markt","street":"Barajului","zip":"820222","city":"Tulcea"},"location":{"lat":45.165905,"lon":28.785444},"openingHours":[{"weekDay":1,"timeRanges":[{"opening":"09:00","closing":"21:00"}]},{"weekDay":2,"timeRanges":[{"opening":"09:00","closing":"21:00"}]},{"weekDay":3,"timeRanges":[{"opening":"09:00","closing":"21:00"}]},{"weekDay":4,"timeRanges":[{"opening":"09:00","closing":"21:00"}]},{"weekDay":5,"timeRanges":[{"opening":"09:00","closing":"21:00"}]},{"weekDay":6,"timeRanges":[{"opening":"09:00","closing":"21:00"}]},{"weekDay":7,"timeRanges":[{"opening":"09:00","closing":"19:00"}]}]},{"storeNumber":"111","address":{"name":"dm-drogerie markt","street":"Blvd. Nicolae Balcescu 46","streetAdditional":"Kaufland","zip":"105600","city":"C\u00e2mpina"},"location":{"lat":45.115612,"lon":25.745243},"openingHours":[{"weekDay":1,"timeRanges":[{"opening":"09:00","closing":"21:00"}]},{"weekDay":2,"timeRanges":[{"opening":"09:00","closing":"21:00"}]},{"weekDay":3,"timeRanges":[{"opening":"09:00","closing":"21:00"}]},{"weekDay":4,"timeRanges":[{"opening":"09:00","closing":"21:00"}]},{"weekDay":5,"timeRanges":[{"opening":"09:00","closing":"21:00"}]},{"weekDay":6,"timeRanges":[{"opening":"10:00","closing":"20:00"}]},{"weekDay":7,"timeRanges":[{"opening":"10:00","closing":"18:00"}]}]},{"storeNumber":"112","address":{"name":"dm-drogerie markt","street":"\u015eoseaua Sibiului FN","streetAdditional":"Kaufland","zip":"401058","city":"Media\u015f"},"location":{"lat":46.144846,"lon":24.323172},"openingHours":[{"weekDay":1,"timeRanges":[{"opening":"09:00","closing":"21:00"}]},{"weekDay":2,"timeRanges":[{"opening":"09:00","closing":"21:00"}]},{"weekDay":3,"timeRanges":[{"opening":"09:00","closing":"21:00"}]},{"weekDay":4,"timeRanges":[{"opening":"09:00","closing":"21:00"}]},{"weekDay":5,"timeRanges":[{"opening":"09:00","closing":"21:00"}]},{"weekDay":6,"timeRanges":[{"opening":"09:00","closing":"21:00"}]},{"weekDay":7,"timeRanges":[{"opening":"09:00","closing":"18:00"}]}]},{"storeNumber":"114","address":{"name":"dm-drogerie markt","street":"Blvd.Decebal 79","streetAdditional":"Shopping City","zip":"610046","city":"Neam\u0163"},"location":{"lat":46.934705,"lon":26.348626},"openingHours":[{"weekDay":1,"timeRanges":[{"opening":"10:00","closing":"22:00"}]},{"weekDay":2,"timeRanges":[{"opening":"10:00","closing":"22:00"}]},{"weekDay":3,"timeRanges":[{"opening":"10:00","closing":"22:00"}]},{"weekDay":4,"timeRanges":[{"opening":"10:00","closing":"22:00"}]},{"weekDay":5,"timeRanges":[{"opening":"10:00","closing":"22:00"}]},{"weekDay":6,"timeRanges":[{"opening":"10:00","closing":"22:00"}]},{"weekDay":7,"timeRanges":[{"opening":"10:00","closing":"22:00"}]}]},{"storeNumber":"115","address":{"name":"dm-drogerie markt","street":"Grivi\u0163a 7","streetAdditional":"Zentrum","zip":"710270","city":"Boto\u015fani"},"location":{"lat":47.748404,"lon":26.666841},"openingHours":[{"weekDay":1,"timeRanges":[{"opening":"08:00","closing":"19:00"}]},{"weekDay":2,"timeRanges":[{"opening":"08:00","closing":"19:00"}]},{"weekDay":3,"timeRanges":[{"opening":"08:00","closing":"19:00"}]},{"weekDay":4,"timeRanges":[{"opening":"08:00","closing":"19:00"}]},{"weekDay":5,"timeRanges":[{"opening":"08:00","closing":"19:00"}]},{"weekDay":6,"timeRanges":[{"opening":"09:00","closing":"18:00"}]},{"weekDay":7,"timeRanges":[{"opening":"09:00","closing":"17:00"}]}]},{"storeNumber":"116","address":{"name":"dm-drogerie markt","street":"Blvd.Timisoara 26","streetAdditional":"Plaza Romania","zip":"061331","city":"Bucure\u015fti","district":"sector 6"},"location":{"lat":44.428668,"lon":26.034718},"openingHours":[{"weekDay":1,"timeRanges":[{"opening":"10:00","closing":"22:00"}]},{"weekDay":2,"timeRanges":[{"opening":"10:00","closing":"22:00"}]},{"weekDay":3,"timeRanges":[{"opening":"10:00","closing":"22:00"}]},{"weekDay":4,"timeRanges":[{"opening":"10:00","closing":"22:00"}]},{"weekDay":5,"timeRanges":[{"opening":"10:00","closing":"22:00"}]},{"weekDay":6,"timeRanges":[{"opening":"10:00","closing":"22:00"}]},{"weekDay":7,"timeRanges":[{"opening":"10:00","closing":"22:00"}]}]},{"storeNumber":"117","address":{"name":"dm-drogerie markt","street":"Calea Vitan 55-59","streetAdditional":"Bucuresti Mall","zip":"031282","city":"Bucure\u015fti","district":"sector 3"},"location":{"lat":44.419974,"lon":26.126602},"openingHours":[{"weekDay":1,"timeRanges":[{"opening":"10:00","closing":"22:00"}]},{"weekDay":2,"timeRanges":[{"opening":"10:00","closing":"22:00"}]},{"weekDay":3,"timeRanges":[{"opening":"10:00","closing":"22:00"}]},{"weekDay":4,"timeRanges":[{"opening":"10:00","closing":"22:00"}]},{"weekDay":5,"timeRanges":[{"opening":"10:00","closing":"22:00"}]},{"weekDay":6,"timeRanges":[{"opening":"10:00","closing":"22:00"}]},{"weekDay":7,"timeRanges":[{"opening":"10:00","closing":"22:00"}]}]},{"storeNumber":"119","address":{"name":"dm-drogerie markt","street":"Ferdinand 38","streetAdditional":"Shopping City Nepi","zip":"240159","city":"R\u00e2mnicu V\u00e2lcea"},"location":{"lat":45.109708,"lon":24.380606},"openingHours":[{"weekDay":1,"timeRanges":[{"opening":"10:00","closing":"22:00"}]},{"weekDay":2,"timeRanges":[{"opening":"10:00","closing":"22:00"}]},{"weekDay":3,"timeRanges":[{"opening":"10:00","closing":"22:00"}]},{"weekDay":4,"timeRanges":[{"opening":"10:00","closing":"22:00"}]},{"weekDay":5,"timeRanges":[{"opening":"10:00","closing":"22:00"}]},{"weekDay":6,"timeRanges":[{"opening":"10:00","closing":"22:00"}]},{"weekDay":7,"timeRanges":[{"opening":"10:00","closing":"22:00"}]}]},{"storeNumber":"120","address":{"name":"dm-drogerie markt","street":"Sos.Bucure\u015fti-Ploie\u015fti km 20","zip":"077015","city":"Sat Balote\u015fti"},"location":{"lat":44.604778,"lon":26.068731},"openingHours":[{"weekDay":1,"timeRanges":[{"opening":"09:00","closing":"21:00"}]},{"weekDay":2,"timeRanges":[{"opening":"09:00","closing":"21:00"}]},{"weekDay":3,"timeRanges":[{"opening":"09:00","closing":"21:00"}]},{"weekDay":4,"timeRanges":[{"opening":"09:00","closing":"21:00"}]},{"weekDay":5,"timeRanges":[{"opening":"09:00","closing":"21:00"}]},{"weekDay":6,"timeRanges":[{"opening":"09:00","closing":"21:00"}]},{"weekDay":7,"timeRanges":[{"opening":"09:00","closing":"21:00"}]}]},{"storeNumber":"121","address":{"name":"dm-drogerie markt","street":"Bd.Timisoara 56","zip":"061333","city":"Bucure\u015fti","district":"sector 6"},"location":{"lat":44.426299,"lon":26.017982},"openingHours":[{"weekDay":1,"timeRanges":[{"opening":"09:00","closing":"21:00"}]},{"weekDay":2,"timeRanges":[{"opening":"09:00","closing":"21:00"}]},{"weekDay":3,"timeRanges":[{"opening":"09:00","closing":"21:00"}]},{"weekDay":4,"timeRanges":[{"opening":"09:00","closing":"21:00"}]},{"weekDay":5,"timeRanges":[{"opening":"09:00","closing":"21:00"}]},{"weekDay":6,"timeRanges":[{"opening":"10:00","closing":"19:00"}]},{"weekDay":7,"timeRanges":[{"opening":"10:00","closing":"18:00"}]}]},{"storeNumber":"122","address":{"name":"dm-drogerie markt","street":"Blvd.Gheorghe Magheru 43","zip":"010326","city":"Bucure\u015fti","district":"sector 1"},"location":{"lat":44.446318,"lon":26.096542},"openingHours":[{"weekDay":1,"timeRanges":[{"opening":"09:00","closing":"21:00"}]},{"weekDay":2,"timeRanges":[{"opening":"09:00","closing":"21:00"}]},{"weekDay":3,"timeRanges":[{"opening":"09:00","closing":"21:00"}]},{"weekDay":4,"timeRanges":[{"opening":"09:00","closing":"21:00"}]},{"weekDay":5,"timeRanges":[{"opening":"09:00","closing":"21:00"}]},{"weekDay":6,"timeRanges":[{"opening":"10:00","closing":"19:00"}]},{"weekDay":7,"timeRanges":[{"opening":"10:00","closing":"18:00"}]}]},{"storeNumber":"123","address":{"name":"dm-drogerie markt","street":"Crisan 2","zip":"310016","city":"Arad"},"location":{"lat":46.178882,"lon":21.319525},"openingHours":[{"weekDay":1,"timeRanges":[{"opening":"09:00","closing":"21:00"}]},{"weekDay":2,"timeRanges":[{"opening":"09:00","closing":"21:00"}]},{"weekDay":3,"timeRanges":[{"opening":"09:00","closing":"21:00"}]},{"weekDay":4,"timeRanges":[{"opening":"09:00","closing":"21:00"}]},{"weekDay":5,"timeRanges":[{"opening":"09:00","closing":"21:00"}]},{"weekDay":6,"timeRanges":[{"opening":"09:00","closing":"17:00"}]}]},{"storeNumber":"125","address":{"name":"dm-drogerie markt","street":"Stefan Octavian Iosif 7","streetAdditional":"Aurora Retail Park","zip":"410230","city":"Oradea"},"location":{"lat":47.059592,"lon":21.913308},"openingHours":[{"weekDay":1,"timeRanges":[{"opening":"09:00","closing":"21:00"}]},{"weekDay":2,"timeRanges":[{"opening":"09:00","closing":"21:00"}]},{"weekDay":3,"timeRanges":[{"opening":"09:00","closing":"21:00"}]},{"weekDay":4,"timeRanges":[{"opening":"09:00","closing":"21:00"}]},{"weekDay":5,"timeRanges":[{"opening":"09:00","closing":"21:00"}]},{"weekDay":6,"timeRanges":[{"opening":"09:00","closing":"21:00"}]},{"weekDay":7,"timeRanges":[{"opening":"09:00","closing":"21:00"}]}]},{"storeNumber":"126","address":{"name":"dm-drogerie markt","street":"Ionita Sandu Sturza 2","zip":"600269","city":"Bacau"},"location":{"lat":46.565623,"lon":26.911577},"openingHours":[{"weekDay":1,"timeRanges":[{"opening":"09:00","closing":"21:00"}]},{"weekDay":2,"timeRanges":[{"opening":"09:00","closing":"21:00"}]},{"weekDay":3,"timeRanges":[{"opening":"09:00","closing":"21:00"}]},{"weekDay":4,"timeRanges":[{"opening":"09:00","closing":"21:00"}]},{"weekDay":5,"timeRanges":[{"opening":"09:00","closing":"21:00"}]},{"weekDay":6,"timeRanges":[{"opening":"09:00","closing":"21:00"}]},{"weekDay":7,"timeRanges":[{"opening":"09:00","closing":"20:00"}]}]},{"storeNumber":"127","address":{"name":"dm-drogerie markt","street":"Com.Blejoi DN1B KM 6 915 A","streetAdditional":"Shopping City","zip":"107070","city":"Ploie\u015fti"},"location":{"lat":44.965448,"lon":25.973666},"openingHours":[{"weekDay":1,"timeRanges":[{"opening":"09:00","closing":"22:00"}]},{"weekDay":2,"timeRanges":[{"opening":"09:00","closing":"22:00"}]},{"weekDay":3,"timeRanges":[{"opening":"09:00","closing":"22:00"}]},{"weekDay":4,"timeRanges":[{"opening":"09:00","closing":"22:00"}]},{"weekDay":5,"timeRanges":[{"opening":"09:00","closing":"22:00"}]},{"weekDay":6,"timeRanges":[{"opening":"09:00","closing":"22:00"}]},{"weekDay":7,"timeRanges":[{"opening":"09:00","closing":"22:00"}]}]},{"storeNumber":"128","address":{"name":"dm-drogerie markt","street":"Blvd.Gheorghe Sincai 1-1A","zip":"040311","city":"Bucure\u015fti","district":"sector 4"},"location":{"lat":44.415504,"lon":26.106533},"openingHours":[{"weekDay":1,"timeRanges":[{"opening":"09:00","closing":"21:00"}]},{"weekDay":2,"timeRanges":[{"opening":"09:00","closing":"21:00"}]},{"weekDay":3,"timeRanges":[{"opening":"09:00","closing":"21:00"}]},{"weekDay":4,"timeRanges":[{"opening":"09:00","closing":"21:00"}]},{"weekDay":5,"timeRanges":[{"opening":"07:00","closing":"18:00"}]},{"weekDay":6,"timeRanges":[{"opening":"07:00","closing":"18:00"}]},{"weekDay":7,"timeRanges":[{"opening":"07:00","closing":"18:00"}]}]},{"storeNumber":"130","address":{"name":"dm-drogerie markt","street":"Careiului 3-5","streetAdditional":"Shopping City","zip":"440180","city":"Satu Mare"},"location":{"lat":47.78506,"lon":22.86931},"openingHours":[{"weekDay":1,"timeRanges":[{"opening":"10:00","closing":"22:00"}]},{"weekDay":2,"timeRanges":[{"opening":"10:00","closing":"22:00"}]},{"weekDay":3,"timeRanges":[{"opening":"10:00","closing":"22:00"}]},{"weekDay":4,"timeRanges":[{"opening":"10:00","closing":"22:00"}]},{"weekDay":5,"timeRanges":[{"opening":"10:00","closing":"22:00"}]},{"weekDay":6,"timeRanges":[{"opening":"10:00","closing":"22:00"}]},{"weekDay":7,"timeRanges":[{"opening":"10:00","closing":"22:00"}]}]},{"storeNumber":"131","address":{"name":"dm-drogerie markt","street":"Calea V\u0103c\u0103re\u015fti 214","zip":"040054","city":"Bucure\u015fti","district":"4"},"location":{"lat":44.413102,"lon":26.113983},"openingHours":[{"weekDay":1,"timeRanges":[{"opening":"09:00","closing":"21:00"}]},{"weekDay":2,"timeRanges":[{"opening":"09:00","closing":"21:00"}]},{"weekDay":3,"timeRanges":[{"opening":"09:00","closing":"21:00"}]},{"weekDay":4,"timeRanges":[{"opening":"09:00","closing":"21:00"}]},{"weekDay":5,"timeRanges":[{"opening":"09:00","closing":"21:00"}]},{"weekDay":6,"timeRanges":[{"opening":"09:00","closing":"20:00"}]},{"weekDay":7,"timeRanges":[{"opening":"09:00","closing":"18:00"}]}]},{"storeNumber":"132","address":{"name":"dm-drogerie markt","street":"B-dul 1 Decembrie 1918 242","zip":"540470","city":"T\u00e2rgu Mure\u015f"},"location":{"lat":46.52894,"lon":24.59519},"openingHours":[{"weekDay":1,"timeRanges":[{"opening":"10:00","closing":"22:00"}]},{"weekDay":2,"timeRanges":[{"opening":"10:00","closing":"22:00"}]},{"weekDay":3,"timeRanges":[{"opening":"10:00","closing":"22:00"}]},{"weekDay":4,"timeRanges":[{"opening":"10:00","closing":"22:00"}]},{"weekDay":5,"timeRanges":[{"opening":"10:00","closing":"22:00"}]},{"weekDay":6,"timeRanges":[{"opening":"10:00","closing":"22:00"}]},{"weekDay":7,"timeRanges":[{"opening":"10:00","closing":"22:00"}]}]},{"storeNumber":"133","address":{"name":"dm-drogerie markt","street":"Mihai Viteazu 3-5","zip":"617135","city":"Roman"},"location":{"lat":46.93775,"lon":26.921146},"openingHours":[{"weekDay":1,"timeRanges":[{"opening":"09:00","closing":"21:00"}]},{"weekDay":2,"timeRanges":[{"opening":"09:00","closing":"21:00"}]},{"weekDay":3,"timeRanges":[{"opening":"09:00","closing":"21:00"}]},{"weekDay":4,"timeRanges":[{"opening":"09:00","closing":"21:00"}]},{"weekDay":5,"timeRanges":[{"opening":"09:00","closing":"21:00"}]},{"weekDay":6,"timeRanges":[{"opening":"09:00","closing":"21:00"}]},{"weekDay":7,"timeRanges":[{"opening":"09:00","closing":"21:00"}]}]},{"storeNumber":"134","address":{"name":"dm-drogerie markt","street":"Amurgului 34","zip":"077160","city":"Pope\u015fti-Leordeni"},"location":{"lat":44.373202,"lon":26.149795},"openingHours":[{"weekDay":1,"timeRanges":[{"opening":"09:00","closing":"21:00"}]},{"weekDay":2,"timeRanges":[{"opening":"09:00","closing":"21:00"}]},{"weekDay":3,"timeRanges":[{"opening":"09:00","closing":"21:00"}]},{"weekDay":4,"timeRanges":[{"opening":"09:00","closing":"21:00"}]},{"weekDay":5,"timeRanges":[{"opening":"09:00","closing":"21:00"}]},{"weekDay":6,"timeRanges":[{"opening":"09:00","closing":"21:00"}]},{"weekDay":7,"timeRanges":[{"opening":"09:00","closing":"21:00"}]}]},{"storeNumber":"135","address":{"name":"dm-drogerie markt","street":"Calea Bor\u015fului 2C","zip":"410605","city":"Oradea"},"location":{"lat":47.074598,"lon":21.903619},"openingHours":[{"weekDay":1,"timeRanges":[{"opening":"09:00","closing":"21:00"}]},{"weekDay":2,"timeRanges":[{"opening":"09:00","closing":"21:00"}]},{"weekDay":3,"timeRanges":[{"opening":"09:00","closing":"21:00"}]},{"weekDay":4,"timeRanges":[{"opening":"09:00","closing":"21:00"}]},{"weekDay":5,"timeRanges":[{"opening":"09:00","closing":"21:00"}]},{"weekDay":6,"timeRanges":[{"opening":"10:00","closing":"20:00"}]},{"weekDay":7,"timeRanges":[{"opening":"10:00","closing":"20:00"}]}]},{"storeNumber":"136","address":{"name":"dm-drogerie markt","street":"Blvd. Dacia 169","zip":"020057","city":"Bucure\u015fti","district":"Sector 2"},"location":{"lat":44.444071,"lon":26.11826},"openingHours":[{"weekDay":1,"timeRanges":[{"opening":"09:00","closing":"20:00"}]},{"weekDay":2,"timeRanges":[{"opening":"09:00","closing":"20:00"}]},{"weekDay":3,"timeRanges":[{"opening":"09:00","closing":"20:00"}]},{"weekDay":4,"timeRanges":[{"opening":"09:00","closing":"20:00"}]},{"weekDay":5,"timeRanges":[{"opening":"09:00","closing":"20:00"}]},{"weekDay":6,"timeRanges":[{"opening":"10:00","closing":"18:00"}]},{"weekDay":7,"timeRanges":[{"opening":"10:00","closing":"18:00"}]}]},{"storeNumber":"137","address":{"name":"dm-drogerie markt","street":"Bd. Regele Carol I 51","streetAdditional":"D\u00e2mbovi\u0163a Mall","zip":"130024","city":"T\u00e2rgovi\u015fte"},"location":{"lat":44.911188,"lon":25.463813},"openingHours":[{"weekDay":1,"timeRanges":[{"opening":"10:00","closing":"22:00"}]},{"weekDay":2,"timeRanges":[{"opening":"10:00","closing":"22:00"}]},{"weekDay":3,"timeRanges":[{"opening":"10:00","closing":"22:00"}]},{"weekDay":4,"timeRanges":[{"opening":"10:00","closing":"22:00"}]},{"weekDay":5,"timeRanges":[{"opening":"10:00","closing":"22:00"}]},{"weekDay":6,"timeRanges":[{"opening":"10:00","closing":"22:00"}]},{"weekDay":7,"timeRanges":[{"opening":"10:00","closing":"22:00"}]}]},{"storeNumber":"138","address":{"name":"dm-drogerie markt","street":"Calea Victoriei 155,bl.D1 AP.12","zip":"010073","city":"Bucure\u015fti","district":"sector 1"},"location":{"lat":44.451529,"lon":26.08506},"openingHours":[{"weekDay":1,"timeRanges":[{"opening":"09:00","closing":"21:00"}]},{"weekDay":2,"timeRanges":[{"opening":"09:00","closing":"21:00"}]},{"weekDay":3,"timeRanges":[{"opening":"09:00","closing":"21:00"}]},{"weekDay":4,"timeRanges":[{"opening":"09:00","closing":"21:00"}]},{"weekDay":5,"timeRanges":[{"opening":"09:00","closing":"21:00"}]},{"weekDay":6,"timeRanges":[{"opening":"10:00","closing":"18:00"}]},{"weekDay":7,"timeRanges":[{"opening":"10:00","closing":"18:00"}]}]},{"storeNumber":"139","address":{"name":"dm-drogerie markt","street":"Calea Buzia\u015fului 11","zip":"300714","city":"Timi\u015foara"},"location":{"lat":45.732764,"lon":21.261562},"openingHours":[{"weekDay":1,"timeRanges":[{"opening":"09:00","closing":"21:00"}]},{"weekDay":2,"timeRanges":[{"opening":"09:00","closing":"21:00"}]},{"weekDay":3,"timeRanges":[{"opening":"09:00","closing":"21:00"}]},{"weekDay":4,"timeRanges":[{"opening":"09:00","closing":"21:00"}]},{"weekDay":5,"timeRanges":[{"opening":"09:00","closing":"21:00"}]},{"weekDay":6,"timeRanges":[{"opening":"09:00","closing":"21:00"}]},{"weekDay":7,"timeRanges":[{"opening":"09:00","closing":"21:00"}]}]},{"storeNumber":"140","address":{"name":"dm-drogerie markt","street":"General Gheorghe Avramescu 10","zip":"810253","city":"Braila"},"location":{"lat":45.2552073,"lon":27.9594334},"openingHours":[{"weekDay":1,"timeRanges":[{"opening":"09:00","closing":"21:00"}]},{"weekDay":2,"timeRanges":[{"opening":"09:00","closing":"21:00"}]},{"weekDay":3,"timeRanges":[{"opening":"09:00","closing":"21:00"}]},{"weekDay":4,"timeRanges":[{"opening":"09:00","closing":"21:00"}]},{"weekDay":5,"timeRanges":[{"opening":"09:00","closing":"21:00"}]},{"weekDay":6,"timeRanges":[{"opening":"09:00","closing":"20:00"}]},{"weekDay":7,"timeRanges":[{"opening":"09:00","closing":"18:00"}]}]},{"storeNumber":"141","address":{"name":"dm-drogerie markt","street":"Lector 1-3A","zip":"550245","city":"Sibiu"},"location":{"lat":45.796494,"lon":24.162725},"openingHours":[{"weekDay":1,"timeRanges":[{"opening":"10:00","closing":"22:00"}]},{"weekDay":2,"timeRanges":[{"opening":"10:00","closing":"22:00"}]},{"weekDay":3,"timeRanges":[{"opening":"10:00","closing":"22:00"}]},{"weekDay":4,"timeRanges":[{"opening":"10:00","closing":"22:00"}]},{"weekDay":5,"timeRanges":[{"opening":"10:00","closing":"22:00"}]},{"weekDay":6,"timeRanges":[{"opening":"10:00","closing":"22:00"}]},{"weekDay":7,"timeRanges":[{"opening":"10:00","closing":"22:00"}]}]},{"storeNumber":"142","address":{"name":"dm-drogerie markt","street":"Niciman 2","zip":"700521","city":"Ia\u015fi"},"location":{"lat":47.1726,"lon":27.559055},"openingHours":[{"weekDay":1,"timeRanges":[{"opening":"09:00","closing":"21:00"}]},{"weekDay":2,"timeRanges":[{"opening":"09:00","closing":"21:00"}]},{"weekDay":3,"timeRanges":[{"opening":"09:00","closing":"21:00"}]},{"weekDay":4,"timeRanges":[{"opening":"09:00","closing":"21:00"}]},{"weekDay":5,"timeRanges":[{"opening":"09:00","closing":"21:00"}]},{"weekDay":6,"timeRanges":[{"opening":"09:00","closing":"21:00"}]},{"weekDay":7,"timeRanges":[{"opening":"09:00","closing":"20:00"}]}]},{"storeNumber":"144","address":{"name":"dm-drogerie markt","street":"Nicolae Balcescu 4","zip":"550159","city":"Sibiu"},"location":{"lat":45.79556,"lon":24.15031},"openingHours":[{"weekDay":1,"timeRanges":[{"opening":"09:00","closing":"21:00"}]},{"weekDay":2,"timeRanges":[{"opening":"09:00","closing":"21:00"}]},{"weekDay":3,"timeRanges":[{"opening":"09:00","closing":"21:00"}]},{"weekDay":4,"timeRanges":[{"opening":"09:00","closing":"21:00"}]},{"weekDay":5,"timeRanges":[{"opening":"09:00","closing":"21:00"}]},{"weekDay":6,"timeRanges":[{"opening":"09:00","closing":"21:00"}]},{"weekDay":7,"timeRanges":[{"opening":"10:00","closing":"20:00"}]}]},{"storeNumber":"145","address":{"name":"dm-drogerie markt","street":"Lunca Oltului 31-35","streetAdditional":"Centru comercial Sepsi Value Centre","zip":"520027","city":"Sf\u00e2ntu Gheorghe"},"location":{"lat":45.869473,"lon":25.798813},"openingHours":[{"weekDay":1,"timeRanges":[{"opening":"09:00","closing":"21:00"}]},{"weekDay":2,"timeRanges":[{"opening":"09:00","closing":"21:00"}]},{"weekDay":3,"timeRanges":[{"opening":"09:00","closing":"21:00"}]},{"weekDay":4,"timeRanges":[{"opening":"09:00","closing":"21:00"}]},{"weekDay":5,"timeRanges":[{"opening":"09:00","closing":"21:00"}]},{"weekDay":6,"timeRanges":[{"opening":"09:00","closing":"21:00"}]},{"weekDay":7,"timeRanges":[{"opening":"09:00","closing":"21:00"}]}]},{"storeNumber":"146","address":{"name":"dm-drogerie markt","street":"Bd. Carol I 48","streetAdditional":"Complex Super Copou","zip":"700503","city":"Ia\u015fi"},"location":{"lat":47.179642,"lon":27.568574},"openingHours":[{"weekDay":1,"timeRanges":[{"opening":"09:00","closing":"21:00"}]},{"weekDay":2,"timeRanges":[{"opening":"09:00","closing":"21:00"}]},{"weekDay":3,"timeRanges":[{"opening":"09:00","closing":"21:00"}]},{"weekDay":4,"timeRanges":[{"opening":"09:00","closing":"21:00"}]},{"weekDay":5,"timeRanges":[{"opening":"09:00","closing":"21:00"}]},{"weekDay":6,"timeRanges":[{"opening":"09:00","closing":"21:00"}]},{"weekDay":7,"timeRanges":[{"opening":"09:00","closing":"21:00"}]}]},{"storeNumber":"147","address":{"name":"dm-drogerie markt","street":"Eroilor 17","zip":"407280","city":"Flore\u015fti"},"location":{"lat":46.738633,"lon":23.484126},"openingHours":[{"weekDay":1,"timeRanges":[{"opening":"09:00","closing":"21:00"}]},{"weekDay":2,"timeRanges":[{"opening":"09:00","closing":"21:00"}]},{"weekDay":3,"timeRanges":[{"opening":"09:00","closing":"21:00"}]},{"weekDay":4,"timeRanges":[{"opening":"09:00","closing":"21:00"}]},{"weekDay":5,"timeRanges":[{"opening":"09:00","closing":"21:00"}]},{"weekDay":6,"timeRanges":[{"opening":"09:00","closing":"21:00"}]},{"weekDay":7,"timeRanges":[{"opening":"09:00","closing":"20:00"}]}]},{"storeNumber":"149","address":{"name":"dm-drogerie markt","street":"Ion Ionescu de la Brad 15","zip":"300246","city":"Timi\u015foara"},"location":{"lat":45.778693,"lon":21.242266},"openingHours":[{"weekDay":1,"timeRanges":[{"opening":"09:00","closing":"21:00"}]},{"weekDay":2,"timeRanges":[{"opening":"09:00","closing":"21:00"}]},{"weekDay":3,"timeRanges":[{"opening":"09:00","closing":"21:00"}]},{"weekDay":4,"timeRanges":[{"opening":"09:00","closing":"21:00"}]},{"weekDay":5,"timeRanges":[{"opening":"09:00","closing":"21:00"}]},{"weekDay":6,"timeRanges":[{"opening":"09:00","closing":"21:00"}]},{"weekDay":7,"timeRanges":[{"opening":"09:00","closing":"21:00"}]}]},{"storeNumber":"150","address":{"name":"dm-drogerie markt","street":"Victoriei 73","streetAdditional":"spatiul nr.1","zip":"430122","city":"Baia Mare"},"location":{"lat":47.657395,"lon":23.54632},"openingHours":[{"weekDay":1,"timeRanges":[{"opening":"09:00","closing":"21:00"}]},{"weekDay":2,"timeRanges":[{"opening":"09:00","closing":"21:00"}]},{"weekDay":3,"timeRanges":[{"opening":"09:00","closing":"21:00"}]},{"weekDay":4,"timeRanges":[{"opening":"09:00","closing":"21:00"}]},{"weekDay":5,"timeRanges":[{"opening":"09:00","closing":"21:00"}]},{"weekDay":6,"timeRanges":[{"opening":"09:00","closing":"21:00"}]},{"weekDay":7,"timeRanges":[{"opening":"09:00","closing":"21:00"}]}]},{"storeNumber":"16","address":{"name":"dm drogerie markt","street":"Calea Aradului 56 A","streetAdditional":"Auchan","zip":"300642","city":"Timi\u015foara"},"location":{"lat":45.78604,"lon":21.22133},"openingHours":[{"weekDay":1,"timeRanges":[{"opening":"09:00","closing":"21:00"}]},{"weekDay":2,"timeRanges":[{"opening":"09:00","closing":"21:00"}]},{"weekDay":3,"timeRanges":[{"opening":"09:00","closing":"21:00"}]},{"weekDay":4,"timeRanges":[{"opening":"09:00","closing":"21:00"}]},{"weekDay":5,"timeRanges":[{"opening":"09:00","closing":"21:00"}]},{"weekDay":6,"timeRanges":[{"opening":"09:00","closing":"21:00"}]},{"weekDay":7,"timeRanges":[{"opening":"09:00","closing":"21:00"}]}]},{"storeNumber":"18","address":{"name":"dm drogerie markt","street":"Banu M\u0103r\u0103cine 6","streetAdditional":"Kaufland Intercora","zip":"310150","city":"Arad"},"location":{"lat":46.185535,"lon":21.313874},"openingHours":[{"weekDay":1,"timeRanges":[{"opening":"09:00","closing":"21:00"}]},{"weekDay":2,"timeRanges":[{"opening":"09:00","closing":"21:00"}]},{"weekDay":3,"timeRanges":[{"opening":"09:00","closing":"21:00"}]},{"weekDay":4,"timeRanges":[{"opening":"09:00","closing":"21:00"}]},{"weekDay":5,"timeRanges":[{"opening":"09:00","closing":"21:00"}]},{"weekDay":6,"timeRanges":[{"opening":"09:00","closing":"21:00"}]},{"weekDay":7,"timeRanges":[{"opening":"10:00","closing":"20:00"}]}]},{"storeNumber":"19","address":{"name":"dm drogerie markt","street":"Blvd.Muncii 21","streetAdditional":"Kaufland Intercora","zip":"320200","city":"Re\u015fi\u0163a"},"location":{"lat":45.330566,"lon":21.866548},"openingHours":[{"weekDay":1,"timeRanges":[{"opening":"09:00","closing":"21:00"}]},{"weekDay":2,"timeRanges":[{"opening":"09:00","closing":"21:00"}]},{"weekDay":3,"timeRanges":[{"opening":"09:00","closing":"21:00"}]},{"weekDay":4,"timeRanges":[{"opening":"09:00","closing":"21:00"}]},{"weekDay":5,"timeRanges":[{"opening":"09:00","closing":"21:00"}]},{"weekDay":6,"timeRanges":[{"opening":"09:00","closing":"21:00"}]},{"weekDay":7,"timeRanges":[{"opening":"09:00","closing":"18:00"}]}]},{"storeNumber":"20","address":{"name":"dm drogerie markt","street":"Fr\u0103sinet FN","streetAdditional":"Kaufland Intercora","zip":"120052","city":"Buz\u0103u"},"location":{"lat":45.162008,"lon":26.819644},"openingHours":[{"weekDay":1,"timeRanges":[{"opening":"10:00","closing":"21:00"}]},{"weekDay":2,"timeRanges":[{"opening":"10:00","closing":"21:00"}]},{"weekDay":3,"timeRanges":[{"opening":"10:00","closing":"21:00"}]},{"weekDay":4,"timeRanges":[{"opening":"10:00","closing":"21:00"}]},{"weekDay":5,"timeRanges":[{"opening":"10:00","closing":"21:00"}]},{"weekDay":6,"timeRanges":[{"opening":"10:00","closing":"20:00"}]},{"weekDay":7,"timeRanges":[{"opening":"10:00","closing":"20:00"}]}]},{"storeNumber":"23","address":{"name":"dm drogerie markt","street":"Mocioni 6","zip":"300199","city":"Lugoj"},"location":{"lat":45.68311,"lon":21.90268},"openingHours":[{"weekDay":2,"timeRanges":[{"opening":"09:00","closing":"21:00"}]},{"weekDay":3,"timeRanges":[{"opening":"09:00","closing":"21:00"}]},{"weekDay":4,"timeRanges":[{"opening":"09:00","closing":"21:00"}]},{"weekDay":5,"timeRanges":[{"opening":"09:00","closing":"21:00"}]},{"weekDay":6,"timeRanges":[{"opening":"09:00","closing":"19:00"}]}]},{"storeNumber":"24","address":{"name":"dm drogerie markt","street":"Bucegi 19","streetAdditional":"Winmarkt Somesul","zip":"400667","city":"Cluj"},"location":{"lat":46.75557,"lon":23.55987},"openingHours":[{"weekDay":1,"timeRanges":[{"opening":"09:00","closing":"21:00"}]},{"weekDay":2,"timeRanges":[{"opening":"09:00","closing":"21:00"}]},{"weekDay":3,"timeRanges":[{"opening":"09:00","closing":"21:00"}]},{"weekDay":4,"timeRanges":[{"opening":"09:00","closing":"21:00"}]},{"weekDay":5,"timeRanges":[{"opening":"09:00","closing":"21:00"}]},{"weekDay":6,"timeRanges":[{"opening":"09:00","closing":"18:00"}]},{"weekDay":7,"timeRanges":[{"opening":"10:00","closing":"16:00"}]}]},{"storeNumber":"25","address":{"name":"dm drogerie markt","street":"\u015eos. Alba Iulia 47A","streetAdditional":"Intercora","zip":"550018","city":"Sibiu"},"location":{"lat":45.79288,"lon":24.13088},"openingHours":[{"weekDay":1,"timeRanges":[{"opening":"09:00","closing":"21:00"}]},{"weekDay":2,"timeRanges":[{"opening":"09:00","closing":"21:00"}]},{"weekDay":3,"timeRanges":[{"opening":"09:00","closing":"21:00"}]},{"weekDay":4,"timeRanges":[{"opening":"09:00","closing":"21:00"}]},{"weekDay":5,"timeRanges":[{"opening":"09:00","closing":"21:00"}]},{"weekDay":6,"timeRanges":[{"opening":"09:00","closing":"21:00"}]},{"weekDay":7,"timeRanges":[{"opening":"09:00","closing":"20:00"}]}]},{"storeNumber":"29","address":{"name":"dm drogerie markt","street":"Goethe 2","zip":"300006","city":"Timi\u015foara"},"location":{"lat":45.752541,"lon":21.224779},"openingHours":[{"weekDay":1,"timeRanges":[{"opening":"09:00","closing":"22:00"}]},{"weekDay":2,"timeRanges":[{"opening":"09:00","closing":"22:00"}]},{"weekDay":3,"timeRanges":[{"opening":"09:00","closing":"22:00"}]},{"weekDay":4,"timeRanges":[{"opening":"09:00","closing":"22:00"}]},{"weekDay":5,"timeRanges":[{"opening":"09:00","closing":"22:00"}]},{"weekDay":6,"timeRanges":[{"opening":"09:00","closing":"22:00"}]},{"weekDay":7,"timeRanges":[{"opening":"10:00","closing":"22:00"}]}]},{"storeNumber":"30","address":{"name":"dm drogerie markt","street":"Blvd.Saturn 32","zip":"500342","city":"Bra\u015fov"},"location":{"lat":45.64379,"lon":25.63181},"openingHours":[{"weekDay":1,"timeRanges":[{"opening":"08:00","closing":"20:00"}]},{"weekDay":2,"timeRanges":[{"opening":"08:00","closing":"20:00"}]},{"weekDay":3,"timeRanges":[{"opening":"08:00","closing":"20:00"}]},{"weekDay":4,"timeRanges":[{"opening":"08:00","closing":"20:00"}]},{"weekDay":5,"timeRanges":[{"opening":"08:00","closing":"20:00"}]},{"weekDay":6,"timeRanges":[{"opening":"08:00","closing":"20:00"}]},{"weekDay":7,"timeRanges":[{"opening":"08:00","closing":"16:00"}]}]},{"storeNumber":"31","address":{"name":"dm drogerie markt","street":"Blvd.Bucuresti 156A","streetAdditional":"Kaufland","zip":"080309","city":"Giurgiu"},"location":{"lat":43.914179,"lon":25.971379},"openingHours":[{"weekDay":1,"timeRanges":[{"opening":"09:30","closing":"20:30"}]},{"weekDay":2,"timeRanges":[{"opening":"09:30","closing":"20:30"}]},{"weekDay":3,"timeRanges":[{"opening":"09:30","closing":"20:30"}]},{"weekDay":4,"timeRanges":[{"opening":"09:30","closing":"20:30"}]},{"weekDay":5,"timeRanges":[{"opening":"09:30","closing":"20:30"}]},{"weekDay":6,"timeRanges":[{"opening":"09:30","closing":"20:30"}]},{"weekDay":7,"timeRanges":[{"opening":"09:00","closing":"17:00"}]}]},{"storeNumber":"33","address":{"name":"dm drogerie markt","street":"Petofi Sandor 18","streetAdditional":"Tulipan","zip":"530210","city":"Miercurea Ciuc"},"location":{"lat":46.36033,"lon":25.80469},"openingHours":[{"weekDay":1,"timeRanges":[{"opening":"09:00","closing":"20:00"}]},{"weekDay":2,"timeRanges":[{"opening":"09:00","closing":"20:00"}]},{"weekDay":3,"timeRanges":[{"opening":"09:00","closing":"20:00"}]},{"weekDay":4,"timeRanges":[{"opening":"09:00","closing":"20:00"}]},{"weekDay":5,"timeRanges":[{"opening":"09:00","closing":"20:00"}]},{"weekDay":6,"timeRanges":[{"opening":"09:00","closing":"15:00"}]}]},{"storeNumber":"34","address":{"name":"dm drogerie markt","street":"Grof Miko Imre 6","streetAdditional":"Sugas","zip":"520003","city":"Sf. Gheorghe"},"location":{"lat":45.8644,"lon":25.79037},"openingHours":[{"weekDay":1,"timeRanges":[{"opening":"09:00","closing":"20:00"}]},{"weekDay":2,"timeRanges":[{"opening":"09:00","closing":"20:00"}]},{"weekDay":3,"timeRanges":[{"opening":"09:00","closing":"20:00"}]},{"weekDay":4,"timeRanges":[{"opening":"09:00","closing":"20:00"}]},{"weekDay":5,"timeRanges":[{"opening":"09:00","closing":"20:00"}]},{"weekDay":6,"timeRanges":[{"opening":"09:00","closing":"17:00"}]}]},{"storeNumber":"36","address":{"name":"dm drogerie markt","street":"Independen\u0163ei 1","streetAdditional":"Muntenia","zip":"130104","city":"T\u00e2rgovi\u015fte"},"location":{"lat":44.926405,"lon":25.463519},"openingHours":[{"weekDay":1,"timeRanges":[{"opening":"09:00","closing":"21:00"}]},{"weekDay":2,"timeRanges":[{"opening":"09:00","closing":"21:00"}]},{"weekDay":3,"timeRanges":[{"opening":"09:00","closing":"21:00"}]},{"weekDay":4,"timeRanges":[{"opening":"09:00","closing":"21:00"}]},{"weekDay":5,"timeRanges":[{"opening":"09:00","closing":"21:00"}]},{"weekDay":6,"timeRanges":[{"opening":"09:00","closing":"21:00"}]},{"weekDay":7,"timeRanges":[{"opening":"10:00","closing":"18:00"}]}]},{"storeNumber":"37","address":{"name":"dm drogerie markt","street":"G\u0103rii 17","streetAdditional":"Winmarkt","zip":"420185","city":"Bistri\u0163a"},"location":{"lat":47.132425,"lon":24.486884},"openingHours":[{"weekDay":1,"timeRanges":[{"opening":"09:00","closing":"21:00"}]},{"weekDay":2,"timeRanges":[{"opening":"09:00","closing":"21:00"}]},{"weekDay":3,"timeRanges":[{"opening":"09:00","closing":"21:00"}]},{"weekDay":4,"timeRanges":[{"opening":"09:00","closing":"21:00"}]},{"weekDay":5,"timeRanges":[{"opening":"09:00","closing":"18:00"}]},{"weekDay":6,"timeRanges":[{"opening":"09:00","closing":"18:00"}]},{"weekDay":7,"timeRanges":[{"opening":"10:00","closing":"18:00"}]}]},{"storeNumber":"38","address":{"name":"dm drogerie markt","street":"Republicii 33","zip":"401167","city":"Turda"},"location":{"lat":46.57243,"lon":23.78593},"openingHours":[{"weekDay":1,"timeRanges":[{"opening":"09:00","closing":"19:00"}]},{"weekDay":2,"timeRanges":[{"opening":"09:00","closing":"19:00"}]},{"weekDay":3,"timeRanges":[{"opening":"09:00","closing":"19:00"}]},{"weekDay":4,"timeRanges":[{"opening":"09:00","closing":"19:00"}]},{"weekDay":5,"timeRanges":[{"opening":"09:00","closing":"19:00"}]},{"weekDay":6,"timeRanges":[{"opening":"09:00","closing":"16:00"}]}]},{"storeNumber":"39","address":{"name":"dm drogerie markt","street":"Calea Franceza 60","streetAdditional":"Halelor","zip":"030106","city":"Bucure\u015fti","district":"sector 3"},"location":{"lat":44.42927,"lon":26.10173},"openingHours":[{"weekDay":1,"timeRanges":[{"opening":"08:00","closing":"22:00"}]},{"weekDay":2,"timeRanges":[{"opening":"08:00","closing":"22:00"}]},{"weekDay":3,"timeRanges":[{"opening":"08:00","closing":"22:00"}]},{"weekDay":4,"timeRanges":[{"opening":"08:00","closing":"22:00"}]},{"weekDay":5,"timeRanges":[{"opening":"08:00","closing":"22:00"}]},{"weekDay":6,"timeRanges":[{"opening":"10:00","closing":"22:00"}]},{"weekDay":7,"timeRanges":[{"opening":"10:00","closing":"18:00"}]}]},{"storeNumber":"4","address":{"name":"dm drogerie markt","street":"Calea Zarandului 87","streetAdditional":"Auchan","zip":"330182","city":"Deva"},"location":{"lat":45.86223,"lon":22.92828},"openingHours":[{"weekDay":1,"timeRanges":[{"opening":"10:00","closing":"22:00"}]},{"weekDay":2,"timeRanges":[{"opening":"10:00","closing":"22:00"}]},{"weekDay":3,"timeRanges":[{"opening":"10:00","closing":"22:00"}]},{"weekDay":4,"timeRanges":[{"opening":"10:00","closing":"22:00"}]},{"weekDay":5,"timeRanges":[{"opening":"10:00","closing":"22:00"}]},{"weekDay":6,"timeRanges":[{"opening":"10:00","closing":"22:00"}]},{"weekDay":7,"timeRanges":[{"opening":"10:00","closing":"22:00"}]}]},{"storeNumber":"40","address":{"name":"dm drogerie markt","street":"Calea Cr\u00e2nga\u015fi 29","streetAdditional":"Cr\u00e2nga\u015fi","zip":"060339","city":"Bucure\u015fti","district":"sector 6"},"location":{"lat":44.45336,"lon":26.04892},"openingHours":[{"weekDay":1,"timeRanges":[{"opening":"08:00","closing":"20:00"}]},{"weekDay":2,"timeRanges":[{"opening":"08:00","closing":"20:00"}]},{"weekDay":3,"timeRanges":[{"opening":"08:00","closing":"20:00"}]},{"weekDay":4,"timeRanges":[{"opening":"08:00","closing":"20:00"}]},{"weekDay":5,"timeRanges":[{"opening":"08:00","closing":"20:00"}]},{"weekDay":6,"timeRanges":[{"opening":"08:00","closing":"18:00"}]},{"weekDay":7,"timeRanges":[{"opening":"08:00","closing":"15:00"}]}]},{"storeNumber":"43","address":{"name":"dm drogerie markt","street":"Victoriei 3","zip":"110016","city":"Pite\u015fti"},"location":{"lat":44.85764,"lon":24.87186},"openingHours":[{"weekDay":1,"timeRanges":[{"opening":"09:00","closing":"21:00"}]},{"weekDay":2,"timeRanges":[{"opening":"09:00","closing":"21:00"}]},{"weekDay":3,"timeRanges":[{"opening":"09:00","closing":"21:00"}]},{"weekDay":4,"timeRanges":[{"opening":"09:00","closing":"21:00"}]},{"weekDay":5,"timeRanges":[{"opening":"09:00","closing":"21:00"}]},{"weekDay":6,"timeRanges":[{"opening":"09:00","closing":"21:00"}]},{"weekDay":7,"timeRanges":[{"opening":"09:00","closing":"19:00"}]}]},{"storeNumber":"44","address":{"name":"dm drogerie markt","street":"Blvd.Republicii 17-25","streetAdditional":"Winmarkt","zip":"100009","city":"Ploie\u015fti"},"location":{"lat":44.94161,"lon":26.02139},"openingHours":[{"weekDay":1,"timeRanges":[{"opening":"09:00","closing":"21:00"}]},{"weekDay":2,"timeRanges":[{"opening":"09:00","closing":"21:00"}]},{"weekDay":3,"timeRanges":[{"opening":"09:00","closing":"21:00"}]},{"weekDay":4,"timeRanges":[{"opening":"09:00","closing":"21:00"}]},{"weekDay":5,"timeRanges":[{"opening":"09:00","closing":"21:00"}]},{"weekDay":6,"timeRanges":[{"opening":"09:00","closing":"21:00"}]},{"weekDay":7,"timeRanges":[{"opening":"10:00","closing":"18:00"}]}]},{"storeNumber":"45","address":{"name":"dm drogerie markt","street":"Calea Mo\u0163ilor 118","streetAdditional":"Kaufland Nepi","zip":"510065","city":"Alba Iulia"},"location":{"lat":46.08066,"lon":23.56395},"openingHours":[{"weekDay":1,"timeRanges":[{"opening":"09:00","closing":"21:00"}]},{"weekDay":2,"timeRanges":[{"opening":"09:00","closing":"21:00"}]},{"weekDay":3,"timeRanges":[{"opening":"09:00","closing":"21:00"}]},{"weekDay":4,"timeRanges":[{"opening":"09:00","closing":"21:00"}]},{"weekDay":5,"timeRanges":[{"opening":"09:00","closing":"21:00"}]},{"weekDay":6,"timeRanges":[{"opening":"09:00","closing":"21:00"}]},{"weekDay":7,"timeRanges":[{"opening":"09:00","closing":"21:00"}]}]},{"storeNumber":"46","address":{"name":"dm drogerie markt","street":"DN1 KM 306","streetAdditional":"Retail Park Shopping City","zip":"557260","city":"\u015eelimb\u0103r"},"location":{"lat":45.77636,"lon":24.16941},"openingHours":[{"weekDay":1,"timeRanges":[{"opening":"10:00","closing":"20:00"}]},{"weekDay":2,"timeRanges":[{"opening":"10:00","closing":"20:00"}]},{"weekDay":3,"timeRanges":[{"opening":"10:00","closing":"20:00"}]},{"weekDay":4,"timeRanges":[{"opening":"10:00","closing":"20:00"}]},{"weekDay":5,"timeRanges":[{"opening":"10:00","closing":"20:00"}]},{"weekDay":6,"timeRanges":[{"opening":"10:00","closing":"20:00"}]},{"weekDay":7,"timeRanges":[{"opening":"10:00","closing":"20:00"}]}]},{"storeNumber":"47","address":{"name":"dm drogerie markt","street":"\u015eoseaua Mihai Bravu 319","streetAdditional":"Kaufland Intercora","zip":"030312","city":"Bucure\u015fti","district":"sector 3"},"location":{"lat":44.417015,"lon":26.135681},"openingHours":[{"weekDay":1,"timeRanges":[{"opening":"09:00","closing":"21:00"}]},{"weekDay":2,"timeRanges":[{"opening":"09:00","closing":"21:00"}]},{"weekDay":3,"timeRanges":[{"opening":"09:00","closing":"21:00"}]},{"weekDay":4,"timeRanges":[{"opening":"09:00","closing":"21:00"}]},{"weekDay":5,"timeRanges":[{"opening":"08:00","closing":"18:00"}]},{"weekDay":6,"timeRanges":[{"opening":"08:00","closing":"18:00"}]},{"weekDay":7,"timeRanges":[{"opening":"08:00","closing":"18:00"}]}]},{"storeNumber":"48","address":{"name":"dm drogerie markt","street":"Calea Circumvala\u0163iunii 8-10","zip":"300012","city":"Timi\u015foara"},"location":{"lat":45.75968,"lon":21.21843},"openingHours":[{"weekDay":1,"timeRanges":[{"opening":"09:00","closing":"21:00"}]},{"weekDay":2,"timeRanges":[{"opening":"09:00","closing":"21:00"}]},{"weekDay":3,"timeRanges":[{"opening":"09:00","closing":"21:00"}]},{"weekDay":4,"timeRanges":[{"opening":"09:00","closing":"21:00"}]},{"weekDay":5,"timeRanges":[{"opening":"09:00","closing":"21:00"}]},{"weekDay":6,"timeRanges":[{"opening":"10:00","closing":"20:00"}]},{"weekDay":7,"timeRanges":[{"opening":"10:00","closing":"18:00"}]}]},{"storeNumber":"49","address":{"name":"dm drogerie markt","street":"Mo\u0163ilor 1A","zip":"400001","city":"Cluj"},"location":{"lat":46.76886,"lon":23.58464},"openingHours":[{"weekDay":1,"timeRanges":[{"opening":"09:00","closing":"21:00"}]},{"weekDay":2,"timeRanges":[{"opening":"09:00","closing":"21:00"}]},{"weekDay":3,"timeRanges":[{"opening":"09:00","closing":"21:00"}]},{"weekDay":4,"timeRanges":[{"opening":"09:00","closing":"21:00"}]},{"weekDay":5,"timeRanges":[{"opening":"09:00","closing":"21:00"}]},{"weekDay":6,"timeRanges":[{"opening":"09:00","closing":"20:00"}]}]},{"storeNumber":"50","address":{"name":"dm-drogerie markt","street":"Bvld.Nicolae Titulescu 29","streetAdditional":"Retail Park","zip":"230019","city":"Slatina"},"location":{"lat":44.43181,"lon":24.36019},"openingHours":[{"weekDay":1,"timeRanges":[{"opening":"09:00","closing":"21:00"}]},{"weekDay":2,"timeRanges":[{"opening":"09:00","closing":"21:00"}]},{"weekDay":3,"timeRanges":[{"opening":"09:00","closing":"21:00"}]},{"weekDay":4,"timeRanges":[{"opening":"09:00","closing":"21:00"}]},{"weekDay":5,"timeRanges":[{"opening":"09:00","closing":"21:00"}]},{"weekDay":6,"timeRanges":[{"opening":"09:00","closing":"21:00"}]},{"weekDay":7,"timeRanges":[{"opening":"09:00","closing":"18:00"}]}]},{"storeNumber":"51","address":{"name":"dm drogerie markt","street":"Calea Floreasca 246 B","streetAdditional":"Floreasca City","zip":"014476","city":"Bucure\u015fti","district":"sector 1"},"location":{"lat":44.478717,"lon":26.101944},"openingHours":[{"weekDay":1,"timeRanges":[{"opening":"10:00","closing":"22:00"}]},{"weekDay":2,"timeRanges":[{"opening":"10:00","closing":"22:00"}]},{"weekDay":3,"timeRanges":[{"opening":"10:00","closing":"22:00"}]},{"weekDay":4,"timeRanges":[{"opening":"10:00","closing":"22:00"}]},{"weekDay":5,"timeRanges":[{"opening":"10:00","closing":"22:00"}]},{"weekDay":6,"timeRanges":[{"opening":"10:00","closing":"22:00"}]},{"weekDay":7,"timeRanges":[{"opening":"10:00","closing":"22:00"}]}]},{"storeNumber":"52","address":{"name":"dm drogerie markt","street":"Blvd.Aurel Vlaicu 220","streetAdditional":"Maritimo Mall","zip":"900055","city":"Constan\u0163a"},"location":{"lat":44.198663,"lon":28.609713},"openingHours":[{"weekDay":1,"timeRanges":[{"opening":"10:00","closing":"22:00"}]},{"weekDay":2,"timeRanges":[{"opening":"10:00","closing":"22:00"}]},{"weekDay":3,"timeRanges":[{"opening":"10:00","closing":"22:00"}]},{"weekDay":4,"timeRanges":[{"opening":"10:00","closing":"22:00"}]},{"weekDay":5,"timeRanges":[{"opening":"10:00","closing":"22:00"}]},{"weekDay":6,"timeRanges":[{"opening":"10:00","closing":"22:00"}]},{"weekDay":7,"timeRanges":[{"opening":"10:00","closing":"22:00"}]}]},{"storeNumber":"53","address":{"name":"dm drogerie markt","street":"Calea Bucure\u015fti 105","streetAdditional":"Strip Mall","zip":"500299","city":"Bra\u015fov"},"location":{"lat":45.63256,"lon":25.63756},"openingHours":[{"weekDay":1,"timeRanges":[{"opening":"09:00","closing":"21:00"}]},{"weekDay":2,"timeRanges":[{"opening":"09:00","closing":"21:00"}]},{"weekDay":3,"timeRanges":[{"opening":"09:00","closing":"21:00"}]},{"weekDay":4,"timeRanges":[{"opening":"09:00","closing":"21:00"}]},{"weekDay":5,"timeRanges":[{"opening":"09:00","closing":"21:00"}]},{"weekDay":6,"timeRanges":[{"opening":"09:00","closing":"21:00"}]},{"weekDay":7,"timeRanges":[{"opening":"09:00","closing":"18:00"}]}]},{"storeNumber":"54","address":{"name":"dm drogerie markt","street":"Calea lui Traian 127","streetAdditional":"Winmarkt Cozia","zip":"240165","city":"R\u00e2mnicu V\u00e2lcea"},"location":{"lat":45.1022,"lon":24.36331},"openingHours":[{"weekDay":1,"timeRanges":[{"opening":"09:00","closing":"21:00"}]},{"weekDay":2,"timeRanges":[{"opening":"09:00","closing":"21:00"}]},{"weekDay":3,"timeRanges":[{"opening":"09:00","closing":"21:00"}]},{"weekDay":4,"timeRanges":[{"opening":"09:00","closing":"21:00"}]},{"weekDay":5,"timeRanges":[{"opening":"09:00","closing":"21:00"}]},{"weekDay":6,"timeRanges":[{"opening":"09:00","closing":"20:00"}]},{"weekDay":7,"timeRanges":[{"opening":"10:00","closing":"19:00"}]}]},{"storeNumber":"55","address":{"name":"dm drogerie markt","street":"1 Decembrie 1918 7","streetAdditional":"Complex Merkur","zip":"535600","city":"Odorheiu Secuiesc"},"location":{"lat":46.30153,"lon":25.28812},"openingHours":[{"weekDay":1,"timeRanges":[{"opening":"09:00","closing":"20:00"}]},{"weekDay":2,"timeRanges":[{"opening":"09:00","closing":"20:00"}]},{"weekDay":3,"timeRanges":[{"opening":"09:00","closing":"20:00"}]},{"weekDay":4,"timeRanges":[{"opening":"09:00","closing":"20:00"}]},{"weekDay":5,"timeRanges":[{"opening":"09:00","closing":"20:00"}]},{"weekDay":6,"timeRanges":[{"opening":"09:00","closing":"17:00"}]}]},{"storeNumber":"56","address":{"name":"dm drogerie markt","street":"Theodor Aman 1","streetAdditional":"Casa Alba","zip":"200730","city":"Craiova"},"location":{"lat":44.3184059,"lon":23.7971431},"openingHours":[{"weekDay":1,"timeRanges":[{"opening":"09:00","closing":"21:00"}]},{"weekDay":2,"timeRanges":[{"opening":"09:00","closing":"21:00"}]},{"weekDay":3,"timeRanges":[{"opening":"09:00","closing":"21:00"}]},{"weekDay":4,"timeRanges":[{"opening":"09:00","closing":"21:00"}]},{"weekDay":5,"timeRanges":[{"opening":"09:00","closing":"21:00"}]},{"weekDay":6,"timeRanges":[{"opening":"09:00","closing":"21:00"}]},{"weekDay":7,"timeRanges":[{"opening":"09:00","closing":"21:00"}]}]},{"storeNumber":"57","address":{"name":"dm drogerie markt","street":"\u015eoseaua Giurgiului 127","streetAdditional":"Berceni Flanco","zip":"040664","city":"Bucure\u015fti","district":"sector 4"},"location":{"lat":44.382903,"lon":26.092721},"openingHours":[{"weekDay":1,"timeRanges":[{"opening":"09:00","closing":"21:00"}]},{"weekDay":2,"timeRanges":[{"opening":"09:00","closing":"21:00"}]},{"weekDay":3,"timeRanges":[{"opening":"09:00","closing":"21:00"}]},{"weekDay":4,"timeRanges":[{"opening":"09:00","closing":"21:00"}]},{"weekDay":5,"timeRanges":[{"opening":"09:00","closing":"18:00"}]},{"weekDay":6,"timeRanges":[{"opening":"09:00","closing":"18:00"}]},{"weekDay":7,"timeRanges":[{"opening":"09:00","closing":"17:00"}]}]},{"storeNumber":"58","address":{"name":"dm drogerie markt","street":"Blvd.Unirii 57","zip":"620077","city":"Foc\u015fani"},"location":{"lat":45.69616,"lon":27.18414},"openingHours":[{"weekDay":1,"timeRanges":[{"opening":"09:00","closing":"20:00"}]},{"weekDay":2,"timeRanges":[{"opening":"09:00","closing":"20:00"}]},{"weekDay":3,"timeRanges":[{"opening":"09:00","closing":"20:00"}]},{"weekDay":4,"timeRanges":[{"opening":"09:00","closing":"20:00"}]},{"weekDay":5,"timeRanges":[{"opening":"09:00","closing":"20:00"}]},{"weekDay":6,"timeRanges":[{"opening":"09:00","closing":"16:00"}]},{"weekDay":7,"timeRanges":[{"opening":"09:00","closing":"14:00"}]}]},{"storeNumber":"59","address":{"name":"dm drogerie markt","street":"Republicii 11","zip":"500030","city":"Bra\u015fov"},"location":{"lat":45.64252,"lon":25.59087},"openingHours":[{"weekDay":1,"timeRanges":[{"opening":"09:00","closing":"21:00"}]},{"weekDay":2,"timeRanges":[{"opening":"09:00","closing":"21:00"}]},{"weekDay":3,"timeRanges":[{"opening":"09:00","closing":"21:00"}]},{"weekDay":4,"timeRanges":[{"opening":"09:00","closing":"21:00"}]},{"weekDay":5,"timeRanges":[{"opening":"09:00","closing":"21:00"}]},{"weekDay":6,"timeRanges":[{"opening":"10:00","closing":"21:00"}]},{"weekDay":7,"timeRanges":[{"opening":"10:00","closing":"21:00"}]}]},{"storeNumber":"60","address":{"name":"dm drogerie markt","street":"Blvd.Alexandru Obregia 25","zip":"041727","city":"Bucure\u015fti","district":"sector 4"},"location":{"lat":44.38334,"lon":26.11472},"openingHours":[{"weekDay":1,"timeRanges":[{"opening":"09:00","closing":"21:00"}]},{"weekDay":2,"timeRanges":[{"opening":"09:00","closing":"21:00"}]},{"weekDay":3,"timeRanges":[{"opening":"09:00","closing":"21:00"}]},{"weekDay":4,"timeRanges":[{"opening":"09:00","closing":"21:00"}]},{"weekDay":5,"timeRanges":[{"opening":"09:00","closing":"21:00"}]},{"weekDay":6,"timeRanges":[{"opening":"09:00","closing":"21:00"}]},{"weekDay":7,"timeRanges":[{"opening":"09:00","closing":"15:00"}]}]},{"storeNumber":"61","address":{"name":"dm-drogerie markt","street":"Mihai Eminescu 90","streetAdditional":"Winmarkt","zip":"810047","city":"Br\u0103ila"},"location":{"lat":45.271772,"lon":27.967232},"openingHours":[{"weekDay":1,"timeRanges":[{"opening":"09:00","closing":"20:00"}]},{"weekDay":2,"timeRanges":[{"opening":"09:00","closing":"20:00"}]},{"weekDay":3,"timeRanges":[{"opening":"09:00","closing":"20:00"}]},{"weekDay":4,"timeRanges":[{"opening":"09:00","closing":"20:00"}]},{"weekDay":5,"timeRanges":[{"opening":"09:00","closing":"20:00"}]},{"weekDay":6,"timeRanges":[{"opening":"09:00","closing":"18:00"}]},{"weekDay":7,"timeRanges":[{"opening":"09:00","closing":"16:00"}]}]},{"storeNumber":"62","address":{"name":"dm drogerie markt","street":"Blvd.Brailei 220","streetAdditional":"Dunarea Mall","zip":"800409","city":"Gala\u0163i"},"location":{"lat":45.4169,"lon":28.01293},"openingHours":[{"weekDay":1,"timeRanges":[{"opening":"09:00","closing":"21:00"}]},{"weekDay":2,"timeRanges":[{"opening":"09:00","closing":"21:00"}]},{"weekDay":3,"timeRanges":[{"opening":"09:00","closing":"21:00"}]},{"weekDay":4,"timeRanges":[{"opening":"09:00","closing":"21:00"}]},{"weekDay":5,"timeRanges":[{"opening":"09:00","closing":"21:00"}]},{"weekDay":6,"timeRanges":[{"opening":"09:00","closing":"21:00"}]},{"weekDay":7,"timeRanges":[{"opening":"09:00","closing":"16:00"}]}]},{"storeNumber":"63","address":{"name":"dm drogerie markt","street":"\u015eoseaua Mihai Bravu 3","streetAdditional":"Obor","zip":"021302","city":"Bucure\u015fti","district":"sector 2"},"location":{"lat":44.449881,"lon":26.127505},"openingHours":[{"weekDay":1,"timeRanges":[{"opening":"09:00","closing":"20:00"}]},{"weekDay":2,"timeRanges":[{"opening":"09:00","closing":"20:00"}]},{"weekDay":3,"timeRanges":[{"opening":"09:00","closing":"20:00"}]},{"weekDay":4,"timeRanges":[{"opening":"09:00","closing":"20:00"}]},{"weekDay":5,"timeRanges":[{"opening":"09:00","closing":"20:00"}]},{"weekDay":6,"timeRanges":[{"opening":"09:00","closing":"18:00"}]},{"weekDay":7,"timeRanges":[{"opening":"09:00","closing":"16:00"}]}]},{"storeNumber":"64","address":{"name":"dm-drogerie markt","street":"Termocentralei 10","streetAdditional":"Nepi","zip":"210233","city":"T\u00e2rgu Jiu"},"location":{"lat":45.024581,"lon":23.265148},"openingHours":[{"weekDay":1,"timeRanges":[{"opening":"10:00","closing":"22:00"}]},{"weekDay":2,"timeRanges":[{"opening":"10:00","closing":"22:00"}]},{"weekDay":3,"timeRanges":[{"opening":"10:00","closing":"22:00"}]},{"weekDay":4,"timeRanges":[{"opening":"10:00","closing":"22:00"}]},{"weekDay":5,"timeRanges":[{"opening":"10:00","closing":"22:00"}]},{"weekDay":6,"timeRanges":[{"opening":"10:00","closing":"22:00"}]},{"weekDay":7,"timeRanges":[{"opening":"10:00","closing":"22:00"}]}]},{"storeNumber":"67","address":{"name":"dm drogerie markt","street":"Avram Iancu 492-500","streetAdditional":"Polus","zip":"407280","city":"Flore\u015fti"},"location":{"lat":46.750241,"lon":23.533745},"openingHours":[{"weekDay":1,"timeRanges":[{"opening":"10:00","closing":"22:00"}]},{"weekDay":2,"timeRanges":[{"opening":"10:00","closing":"22:00"}]},{"weekDay":3,"timeRanges":[{"opening":"10:00","closing":"22:00"}]},{"weekDay":4,"timeRanges":[{"opening":"10:00","closing":"22:00"}]},{"weekDay":5,"timeRanges":[{"opening":"10:00","closing":"22:00"}]},{"weekDay":6,"timeRanges":[{"opening":"10:00","closing":"22:00"}]},{"weekDay":7,"timeRanges":[{"opening":"10:00","closing":"22:00"}]}]},{"storeNumber":"68","address":{"name":"dm drogerie markt","street":"Corneliu Coposu 2","zip":"440005","city":"Satu Mare"},"location":{"lat":47.791222,"lon":22.873578},"openingHours":[{"weekDay":1,"timeRanges":[{"opening":"08:30","closing":"20:00"}]},{"weekDay":2,"timeRanges":[{"opening":"08:30","closing":"20:00"}]},{"weekDay":3,"timeRanges":[{"opening":"08:30","closing":"20:00"}]},{"weekDay":4,"timeRanges":[{"opening":"08:30","closing":"20:00"}]},{"weekDay":5,"timeRanges":[{"opening":"08:30","closing":"20:00"}]},{"weekDay":6,"timeRanges":[{"opening":"09:00","closing":"18:00"}]}]},{"storeNumber":"69","address":{"name":"dm drogerie markt","street":"Carol Telbisz 3","streetAdditional":"Bega Shopping Center","zip":"300001","city":"Timi\u015foara"},"location":{"lat":45.755757,"lon":21.230634},"openingHours":[{"weekDay":1,"timeRanges":[{"opening":"09:00","closing":"20:00"}]},{"weekDay":2,"timeRanges":[{"opening":"09:00","closing":"20:00"}]},{"weekDay":3,"timeRanges":[{"opening":"09:00","closing":"20:00"}]},{"weekDay":4,"timeRanges":[{"opening":"09:00","closing":"20:00"}]},{"weekDay":5,"timeRanges":[{"opening":"09:00","closing":"18:00"}]},{"weekDay":6,"timeRanges":[{"opening":"10:00","closing":"18:00"}]}]},{"storeNumber":"70","address":{"name":"dm drogerie markt","street":"Blvd.Iuliu Maniu 138-142","streetAdditional":"Piata Gorjului","zip":"061127","city":"Bucure\u015fti","district":"sector 6"},"location":{"lat":44.435078,"lon":26.020312},"openingHours":[{"weekDay":1,"timeRanges":[{"opening":"09:00","closing":"21:00"}]},{"weekDay":2,"timeRanges":[{"opening":"09:00","closing":"21:00"}]},{"weekDay":3,"timeRanges":[{"opening":"09:00","closing":"21:00"}]},{"weekDay":4,"timeRanges":[{"opening":"09:00","closing":"21:00"}]},{"weekDay":5,"timeRanges":[{"opening":"07:00","closing":"18:00"}]},{"weekDay":6,"timeRanges":[{"opening":"07:00","closing":"17:00"}]},{"weekDay":7,"timeRanges":[{"opening":"09:00","closing":"15:00"}]}]},{"storeNumber":"71","address":{"name":"dm drogerie markt","street":"Ro\u015fia Monatana 2","streetAdditional":"Piata Veteranilor","zip":"060954","city":"Bucure\u015fti","district":"sector 6"},"location":{"lat":44.436008,"lon":26.027399},"openingHours":[{"weekDay":1,"timeRanges":[{"opening":"09:00","closing":"21:00"}]},{"weekDay":2,"timeRanges":[{"opening":"09:00","closing":"21:00"}]},{"weekDay":3,"timeRanges":[{"opening":"09:00","closing":"21:00"}]},{"weekDay":4,"timeRanges":[{"opening":"09:00","closing":"21:00"}]},{"weekDay":5,"timeRanges":[{"opening":"09:00","closing":"21:00"}]},{"weekDay":6,"timeRanges":[{"opening":"09:00","closing":"17:00"}]},{"weekDay":7,"timeRanges":[{"opening":"09:00","closing":"15:00"}]}]},{"storeNumber":"72","address":{"name":"dm drogerie markt","street":"Bd.Mihai Viteazu","streetAdditional":"Zahania","zip":"450025","city":"Zalau"},"location":{"lat":47.183919,"lon":23.05584},"openingHours":[{"weekDay":1,"timeRanges":[{"opening":"08:00","closing":"20:00"}]},{"weekDay":2,"timeRanges":[{"opening":"08:00","closing":"20:00"}]},{"weekDay":3,"timeRanges":[{"opening":"08:00","closing":"20:00"}]},{"weekDay":4,"timeRanges":[{"opening":"08:00","closing":"20:00"}]},{"weekDay":5,"timeRanges":[{"opening":"08:00","closing":"20:00"}]},{"weekDay":6,"timeRanges":[{"opening":"09:00","closing":"17:00"}]}]},{"storeNumber":"73","address":{"name":"dm-drogerie markt","street":"Calea V\u0103c\u0103re\u015fti 391","streetAdditional":"Sun Plaza","zip":"040069","city":"Bucure\u015fti","district":"sector 4"},"location":{"lat":44.395891,"lon":26.122527},"openingHours":[{"weekDay":1,"timeRanges":[{"opening":"10:00","closing":"22:00"}]},{"weekDay":2,"timeRanges":[{"opening":"10:00","closing":"22:00"}]},{"weekDay":3,"timeRanges":[{"opening":"10:00","closing":"22:00"}]},{"weekDay":4,"timeRanges":[{"opening":"10:00","closing":"22:00"}]},{"weekDay":5,"timeRanges":[{"opening":"10:00","closing":"22:00"}]},{"weekDay":6,"timeRanges":[{"opening":"10:00","closing":"22:00"}]},{"weekDay":7,"timeRanges":[{"opening":"10:00","closing":"22:00"}]}]},{"storeNumber":"75","address":{"name":"dm-drogerie markt","street":"Mihai Viteazu FN","streetAdditional":"Kaufland Nepi","zip":"545400","city":"Sighi\u015foara"},"location":{"lat":46.226418,"lon":24.808223},"openingHours":[{"weekDay":1,"timeRanges":[{"opening":"09:00","closing":"21:00"}]},{"weekDay":2,"timeRanges":[{"opening":"09:00","closing":"21:00"}]},{"weekDay":3,"timeRanges":[{"opening":"09:00","closing":"21:00"}]},{"weekDay":4,"timeRanges":[{"opening":"09:00","closing":"21:00"}]},{"weekDay":5,"timeRanges":[{"opening":"09:00","closing":"21:00"}]},{"weekDay":6,"timeRanges":[{"opening":"09:00","closing":"21:00"}]},{"weekDay":7,"timeRanges":[{"opening":"09:00","closing":"18:00"}]}]},{"storeNumber":"76","address":{"name":"dm-drogerie markt","street":"Gheorghe Doja 64-68","streetAdditional":"K & W Retail Park","zip":"540146","city":"T\u00e2rgu Mure\u015f"},"location":{"lat":46.530829,"lon":24.546778},"openingHours":[{"weekDay":1,"timeRanges":[{"opening":"09:00","closing":"21:00"}]},{"weekDay":2,"timeRanges":[{"opening":"09:00","closing":"21:00"}]},{"weekDay":3,"timeRanges":[{"opening":"09:00","closing":"21:00"}]},{"weekDay":4,"timeRanges":[{"opening":"09:00","closing":"21:00"}]},{"weekDay":5,"timeRanges":[{"opening":"09:00","closing":"21:00"}]},{"weekDay":6,"timeRanges":[{"opening":"09:00","closing":"21:00"}]},{"weekDay":7,"timeRanges":[{"opening":"10:00","closing":"18:00"}]}]},{"storeNumber":"77","address":{"name":"dm drogerie markt","street":"Blvd.Vasile Milea 4","streetAdditional":"Afi Palace Cotroceni Mall","zip":"061344","city":"Bucure\u015fti","district":"sector 6"},"location":{"lat":44.43169,"lon":26.05231},"openingHours":[{"weekDay":1,"timeRanges":[{"opening":"10:00","closing":"22:00"}]},{"weekDay":2,"timeRanges":[{"opening":"10:00","closing":"22:00"}]},{"weekDay":3,"timeRanges":[{"opening":"10:00","closing":"22:00"}]},{"weekDay":4,"timeRanges":[{"opening":"10:00","closing":"22:00"}]},{"weekDay":5,"timeRanges":[{"opening":"10:00","closing":"23:00"}]},{"weekDay":6,"timeRanges":[{"opening":"10:00","closing":"23:00"}]},{"weekDay":7,"timeRanges":[{"opening":"10:00","closing":"22:00"}]}]},{"storeNumber":"78","address":{"name":"dm-drogerie markt","street":"Mihail Sebastian 88","streetAdditional":"Vulcan Strip Mall","zip":"050784","city":"Bucure\u015fti","district":"sector 5"},"location":{"lat":44.41844,"lon":26.072037},"openingHours":[{"weekDay":1,"timeRanges":[{"opening":"10:00","closing":"22:00"}]},{"weekDay":2,"timeRanges":[{"opening":"10:00","closing":"22:00"}]},{"weekDay":3,"timeRanges":[{"opening":"10:00","closing":"22:00"}]},{"weekDay":4,"timeRanges":[{"opening":"10:00","closing":"22:00"}]},{"weekDay":5,"timeRanges":[{"opening":"10:00","closing":"22:00"}]},{"weekDay":6,"timeRanges":[{"opening":"10:00","closing":"22:00"}]},{"weekDay":7,"timeRanges":[{"opening":"10:00","closing":"22:00"}]}]},{"storeNumber":"79","address":{"name":"dm-drogerie markt","street":"Calomfirescu 2","streetAdditional":"Afi Palace Ploiesti","zip":"100176","city":"Ploie\u015fti"},"location":{"lat":44.947093,"lon":26.030452},"openingHours":[{"weekDay":1,"timeRanges":[{"opening":"10:00","closing":"22:00"}]},{"weekDay":2,"timeRanges":[{"opening":"10:00","closing":"22:00"}]},{"weekDay":3,"timeRanges":[{"opening":"10:00","closing":"22:00"}]},{"weekDay":4,"timeRanges":[{"opening":"10:00","closing":"22:00"}]},{"weekDay":5,"timeRanges":[{"opening":"10:00","closing":"22:00"}]},{"weekDay":6,"timeRanges":[{"opening":"10:00","closing":"22:00"}]},{"weekDay":7,"timeRanges":[{"opening":"10:00","closing":"22:00"}]}]},{"storeNumber":"8","address":{"name":"dm drogerie markt","street":"Nuf\u0103rului 30","streetAdditional":"Lotus Center","zip":"410583","city":"Oradea"},"location":{"lat":47.035751,"lon":21.950083},"openingHours":[{"weekDay":1,"timeRanges":[{"opening":"10:00","closing":"22:00"}]},{"weekDay":2,"timeRanges":[{"opening":"10:00","closing":"22:00"}]},{"weekDay":3,"timeRanges":[{"opening":"10:00","closing":"22:00"}]},{"weekDay":4,"timeRanges":[{"opening":"10:00","closing":"22:00"}]},{"weekDay":5,"timeRanges":[{"opening":"10:00","closing":"22:00"}]},{"weekDay":6,"timeRanges":[{"opening":"10:00","closing":"22:00"}]},{"weekDay":7,"timeRanges":[{"opening":"10:00","closing":"22:00"}]}]},{"storeNumber":"80","address":{"name":"dm-drogerie markt","street":"Blvd.George Cosbuc 251","streetAdditional":"Nepi","zip":"800506","city":"Gala\u0163i"},"location":{"lat":45.451032,"lon":28.032045},"openingHours":[{"weekDay":1,"timeRanges":[{"opening":"10:00","closing":"22:00"}]},{"weekDay":2,"timeRanges":[{"opening":"10:00","closing":"22:00"}]},{"weekDay":3,"timeRanges":[{"opening":"10:00","closing":"22:00"}]},{"weekDay":4,"timeRanges":[{"opening":"10:00","closing":"22:00"}]},{"weekDay":5,"timeRanges":[{"opening":"10:00","closing":"22:00"}]},{"weekDay":6,"timeRanges":[{"opening":"10:00","closing":"22:00"}]},{"weekDay":7,"timeRanges":[{"opening":"10:00","closing":"22:00"}]}]},{"storeNumber":"81","address":{"name":"dm-drogerie markt","street":"Livezeni 12","zip":"332071","city":"Petro\u015fani"},"location":{"lat":45.383034,"lon":23.372555},"openingHours":[{"weekDay":1,"timeRanges":[{"opening":"09:00","closing":"21:00"}]},{"weekDay":2,"timeRanges":[{"opening":"09:00","closing":"21:00"}]},{"weekDay":3,"timeRanges":[{"opening":"09:00","closing":"21:00"}]},{"weekDay":4,"timeRanges":[{"opening":"09:00","closing":"21:00"}]},{"weekDay":5,"timeRanges":[{"opening":"09:00","closing":"21:00"}]},{"weekDay":6,"timeRanges":[{"opening":"09:00","closing":"21:00"}]},{"weekDay":7,"timeRanges":[{"opening":"09:00","closing":"18:00"}]}]},{"storeNumber":"82","address":{"name":"dm-drogerie markt","street":"Bra\u015fov 25","streetAdditional":"Auchan Drumul Taberei","zip":"061444","city":"Bucure\u015fti","district":"sector 6"},"location":{"lat":44.41718,"lon":26.035688},"openingHours":[{"weekDay":1,"timeRanges":[{"opening":"09:00","closing":"21:00"}]},{"weekDay":2,"timeRanges":[{"opening":"09:00","closing":"21:00"}]},{"weekDay":3,"timeRanges":[{"opening":"09:00","closing":"21:00"}]},{"weekDay":4,"timeRanges":[{"opening":"09:00","closing":"21:00"}]},{"weekDay":5,"timeRanges":[{"opening":"08:00","closing":"18:00"}]},{"weekDay":6,"timeRanges":[{"opening":"08:00","closing":"18:00"}]},{"weekDay":7,"timeRanges":[{"opening":"08:00","closing":"18:00"}]}]},{"storeNumber":"83","address":{"name":"dm-drogerie markt","street":"\u015eoseaua Bucure\u015fti Nord 14","zip":"014251","city":"Voluntari"},"location":{"lat":44.489085,"lon":26.127232},"openingHours":[{"weekDay":1,"timeRanges":[{"opening":"08:00","closing":"18:00"}]},{"weekDay":2,"timeRanges":[{"opening":"08:00","closing":"18:00"}]},{"weekDay":3,"timeRanges":[{"opening":"08:00","closing":"18:00"}]},{"weekDay":4,"timeRanges":[{"opening":"08:00","closing":"18:00"}]},{"weekDay":5,"timeRanges":[{"opening":"08:00","closing":"18:00"}]},{"weekDay":6,"timeRanges":[{"opening":"08:00","closing":"18:00"}]},{"weekDay":7,"timeRanges":[{"opening":"08:00","closing":"18:00"}]}]},{"storeNumber":"84","address":{"name":"dm-drogerie markt","street":"Bulevardul Pierre De Coubertin 3-5","streetAdditional":"Electroaparataj","zip":"021901","city":"Bucure\u015fti","district":"sector 2"},"location":{"lat":44.4423,"lon":26.150665},"openingHours":[{"weekDay":1,"timeRanges":[{"opening":"10:00","closing":"22:00"}]},{"weekDay":2,"timeRanges":[{"opening":"10:00","closing":"22:00"}]},{"weekDay":3,"timeRanges":[{"opening":"10:00","closing":"22:00"}]},{"weekDay":4,"timeRanges":[{"opening":"10:00","closing":"22:00"}]},{"weekDay":5,"timeRanges":[{"opening":"10:00","closing":"22:00"}]},{"weekDay":6,"timeRanges":[{"opening":"10:00","closing":"22:00"}]},{"weekDay":7,"timeRanges":[{"opening":"10:00","closing":"22:00"}]}]},{"storeNumber":"85","address":{"name":"dm-drogerie markt","street":"Mihai Viteazu 14-20","zip":"400151","city":"Cluj Napoca"},"location":{"lat":46.774421,"lon":23.591296},"openingHours":[{"weekDay":1,"timeRanges":[{"opening":"08:00","closing":"21:00"}]},{"weekDay":2,"timeRanges":[{"opening":"08:00","closing":"21:00"}]},{"weekDay":3,"timeRanges":[{"opening":"08:00","closing":"21:00"}]},{"weekDay":4,"timeRanges":[{"opening":"08:00","closing":"21:00"}]},{"weekDay":5,"timeRanges":[{"opening":"08:00","closing":"21:00"}]},{"weekDay":6,"timeRanges":[{"opening":"08:00","closing":"19:00"}]}]},{"storeNumber":"86","address":{"name":"dm-drogerie markt","street":"Zaharia Stancu 1","streetAdditional":"Coresi Mall","zip":"500173","city":"Bra\u015fov"},"location":{"lat":45.672641,"lon":25.615595},"openingHours":[{"weekDay":1,"timeRanges":[{"opening":"10:00","closing":"22:00"}]},{"weekDay":2,"timeRanges":[{"opening":"10:00","closing":"22:00"}]},{"weekDay":3,"timeRanges":[{"opening":"10:00","closing":"22:00"}]},{"weekDay":4,"timeRanges":[{"opening":"10:00","closing":"22:00"}]},{"weekDay":5,"timeRanges":[{"opening":"10:00","closing":"22:00"}]},{"weekDay":6,"timeRanges":[{"opening":"10:00","closing":"22:00"}]},{"weekDay":7,"timeRanges":[{"opening":"10:00","closing":"22:00"}]}]},{"storeNumber":"87","address":{"name":"dm-drogerie markt","street":"Madach Imre 1-5","zip":"410021","city":"Oradea"},"location":{"lat":47.057574,"lon":21.931646},"openingHours":[{"weekDay":1,"timeRanges":[{"opening":"09:00","closing":"21:00"}]},{"weekDay":2,"timeRanges":[{"opening":"09:00","closing":"21:00"}]},{"weekDay":3,"timeRanges":[{"opening":"09:00","closing":"21:00"}]},{"weekDay":4,"timeRanges":[{"opening":"09:00","closing":"21:00"}]},{"weekDay":5,"timeRanges":[{"opening":"09:00","closing":"21:00"}]},{"weekDay":6,"timeRanges":[{"opening":"09:00","closing":"17:00"}]}]},{"storeNumber":"88","address":{"name":"dm-drogerie markt","street":"Blvd.1 Decembrie 1918 33A","streetAdditional":"Iris Titan Shopping Center","zip":"032455","city":"Bucure\u015fti","district":"sector 3"},"location":{"lat":44.42049,"lon":26.179154},"openingHours":[{"weekDay":1,"timeRanges":[{"opening":"09:00","closing":"22:00"}]},{"weekDay":2,"timeRanges":[{"opening":"09:00","closing":"22:00"}]},{"weekDay":3,"timeRanges":[{"opening":"09:00","closing":"22:00"}]},{"weekDay":4,"timeRanges":[{"opening":"09:00","closing":"22:00"}]},{"weekDay":5,"timeRanges":[{"opening":"09:00","closing":"22:00"}]},{"weekDay":6,"timeRanges":[{"opening":"09:00","closing":"22:00"}]},{"weekDay":7,"timeRanges":[{"opening":"09:00","closing":"22:00"}]}]},{"storeNumber":"89","address":{"name":"dm-drogerie markt","street":"\u015etefan cel Mare 28","streetAdditional":"Arena Mall","zip":"600359","city":"Bac\u0103u"},"location":{"lat":46.580221,"lon":26.915069},"openingHours":[{"weekDay":1,"timeRanges":[{"opening":"10:00","closing":"21:00"}]},{"weekDay":2,"timeRanges":[{"opening":"10:00","closing":"21:00"}]},{"weekDay":3,"timeRanges":[{"opening":"10:00","closing":"21:00"}]},{"weekDay":4,"timeRanges":[{"opening":"10:00","closing":"21:00"}]},{"weekDay":5,"timeRanges":[{"opening":"10:00","closing":"22:00"}]},{"weekDay":6,"timeRanges":[{"opening":"10:00","closing":"22:00"}]},{"weekDay":7,"timeRanges":[{"opening":"10:00","closing":"22:00"}]}]},{"storeNumber":"90","address":{"name":"dm-drogerie markt","street":"Pia\u0163a Trandafirilor 45","streetAdditional":"Concordia","zip":"540053","city":"T\u00e2rgu Mure\u015f"},"location":{"lat":46.544185,"lon":24.561398},"openingHours":[{"weekDay":1,"timeRanges":[{"opening":"08:00","closing":"20:00"}]},{"weekDay":2,"timeRanges":[{"opening":"08:00","closing":"20:00"}]},{"weekDay":3,"timeRanges":[{"opening":"08:00","closing":"20:00"}]},{"weekDay":4,"timeRanges":[{"opening":"08:00","closing":"20:00"}]},{"weekDay":5,"timeRanges":[{"opening":"08:00","closing":"20:00"}]},{"weekDay":6,"timeRanges":[{"opening":"09:00","closing":"20:00"}]}]},{"storeNumber":"92","address":{"name":"dm-drogerie markt","street":"Libert\u0103\u0163ii 185","zip":"140017","city":"Alexandria"},"location":{"lat":43.970633,"lon":25.329877},"openingHours":[{"weekDay":1,"timeRanges":[{"opening":"09:30","closing":"20:30"}]},{"weekDay":2,"timeRanges":[{"opening":"09:30","closing":"20:30"}]},{"weekDay":3,"timeRanges":[{"opening":"09:30","closing":"20:30"}]},{"weekDay":4,"timeRanges":[{"opening":"09:30","closing":"20:30"}]},{"weekDay":5,"timeRanges":[{"opening":"09:30","closing":"20:30"}]},{"weekDay":6,"timeRanges":[{"opening":"09:00","closing":"17:00"}]},{"weekDay":7,"timeRanges":[{"opening":"09:00","closing":"15:00"}]}]},{"storeNumber":"93","address":{"name":"dm-drogerie markt","street":"\u015eoseaua Bucure\u015fti-Ploie\u015fti 44 A","streetAdditional":"Baneasa Mall","zip":"013696","city":"Bucure\u015fti","district":"sector 1"},"location":{"lat":44.50985,"lon":26.088497},"openingHours":[{"weekDay":1,"timeRanges":[{"opening":"10:00","closing":"22:00"}]},{"weekDay":2,"timeRanges":[{"opening":"10:00","closing":"22:00"}]},{"weekDay":3,"timeRanges":[{"opening":"10:00","closing":"22:00"}]},{"weekDay":4,"timeRanges":[{"opening":"10:00","closing":"22:00"}]},{"weekDay":5,"timeRanges":[{"opening":"10:00","closing":"22:00"}]},{"weekDay":6,"timeRanges":[{"opening":"10:00","closing":"22:00"}]},{"weekDay":7,"timeRanges":[{"opening":"10:00","closing":"22:00"}]}]},{"storeNumber":"94","address":{"name":"dm-drogerie markt","street":"Blvd. \u015etefan cel Mare \u015fi Sf\u00e2nt 5","zip":"700064","city":"Ia\u015fi"},"location":{"lat":47.163168,"lon":27.582328},"openingHours":[{"weekDay":1,"timeRanges":[{"opening":"09:00","closing":"21:00"}]},{"weekDay":2,"timeRanges":[{"opening":"09:00","closing":"21:00"}]},{"weekDay":3,"timeRanges":[{"opening":"09:00","closing":"21:00"}]},{"weekDay":4,"timeRanges":[{"opening":"09:00","closing":"21:00"}]},{"weekDay":5,"timeRanges":[{"opening":"09:00","closing":"21:00"}]},{"weekDay":6,"timeRanges":[{"opening":"09:00","closing":"21:00"}]},{"weekDay":7,"timeRanges":[{"opening":"09:00","closing":"20:00"}]}]},{"storeNumber":"95","address":{"name":"dm-drogerie markt","street":"Calea Moldovei 40A","streetAdditional":"B1 Retail Park","zip":"420093","city":"Bistri\u021ba"},"location":{"lat":47.146399,"lon":24.514164},"openingHours":[{"weekDay":1,"timeRanges":[{"opening":"09:00","closing":"21:00"}]},{"weekDay":2,"timeRanges":[{"opening":"09:00","closing":"21:00"}]},{"weekDay":3,"timeRanges":[{"opening":"09:00","closing":"21:00"}]},{"weekDay":4,"timeRanges":[{"opening":"09:00","closing":"21:00"}]},{"weekDay":5,"timeRanges":[{"opening":"09:00","closing":"18:00"}]},{"weekDay":6,"timeRanges":[{"opening":"09:00","closing":"18:00"}]},{"weekDay":7,"timeRanges":[{"opening":"09:00","closing":"18:00"}]}]},{"storeNumber":"96","address":{"name":"dm-drogerie markt","street":"Bucium 36","streetAdditional":"Felicia Mall","zip":"700265","city":"Ia\u015fi"},"location":{"lat":47.145021,"lon":27.610648},"openingHours":[{"weekDay":1,"timeRanges":[{"opening":"09:00","closing":"21:00"}]},{"weekDay":2,"timeRanges":[{"opening":"09:00","closing":"21:00"}]},{"weekDay":3,"timeRanges":[{"opening":"09:00","closing":"21:00"}]},{"weekDay":4,"timeRanges":[{"opening":"09:00","closing":"21:00"}]},{"weekDay":5,"timeRanges":[{"opening":"09:00","closing":"21:00"}]},{"weekDay":6,"timeRanges":[{"opening":"09:00","closing":"21:00"}]},{"weekDay":7,"timeRanges":[{"opening":"09:00","closing":"20:00"}]}]},{"storeNumber":"97","address":{"name":"dm-drogerie markt","street":"Dr.Nicolae Cre\u021bulescu 1","streetAdditional":"Cartier Banat -centru comercial, parter","zip":"110430","city":"Pite\u015fti"},"location":{"lat":44.848094,"lon":24.873194},"openingHours":[{"weekDay":1,"timeRanges":[{"opening":"09:00","closing":"20:00"}]},{"weekDay":2,"timeRanges":[{"opening":"09:00","closing":"20:00"}]},{"weekDay":3,"timeRanges":[{"opening":"09:00","closing":"20:00"}]},{"weekDay":4,"timeRanges":[{"opening":"09:00","closing":"20:00"}]},{"weekDay":5,"timeRanges":[{"opening":"09:00","closing":"20:00"}]},{"weekDay":6,"timeRanges":[{"opening":"09:00","closing":"17:00"}]},{"weekDay":7,"timeRanges":[{"opening":"09:00","closing":"15:00"}]}]},{"storeNumber":"98","address":{"name":"dm-drogerie markt","street":"Calea Aurel Vlaicu 9","zip":"310141","city":"Arad"},"location":{"lat":46.197865,"lon":21.296592},"openingHours":[{"weekDay":1,"timeRanges":[{"opening":"09:00","closing":"20:00"}]},{"weekDay":2,"timeRanges":[{"opening":"09:00","closing":"20:00"}]},{"weekDay":3,"timeRanges":[{"opening":"09:00","closing":"20:00"}]},{"weekDay":4,"timeRanges":[{"opening":"09:00","closing":"20:00"}]},{"weekDay":5,"timeRanges":[{"opening":"09:00","closing":"20:00"}]},{"weekDay":6,"timeRanges":[{"opening":"10:00","closing":"20:00"}]}]},{"storeNumber":"99","address":{"name":"dm-drogerie markt","street":"Calea Severinului 5A","streetAdditional":"Auchan Craiovitei","zip":"200233","city":"Craiova"},"location":{"lat":44.32832,"lon":23.774763},"openingHours":[{"weekDay":1,"timeRanges":[{"opening":"09:00","closing":"21:00"}]},{"weekDay":2,"timeRanges":[{"opening":"09:00","closing":"21:00"}]},{"weekDay":3,"timeRanges":[{"opening":"09:00","closing":"21:00"}]},{"weekDay":4,"timeRanges":[{"opening":"09:00","closing":"21:00"}]},{"weekDay":5,"timeRanges":[{"opening":"09:00","closing":"21:00"}]},{"weekDay":6,"timeRanges":[{"opening":"09:00","closing":"21:00"}]},{"weekDay":7,"timeRanges":[{"opening":"09:00","closing":"21:00"}]}]}]