[{"storeNumber":"1","address":{"name":"dm drogerie markt d.o.o.","street":"Moskovska ulica 4","zip":"1000","city":"Ljubljana"},"location":{"lat":46.06759,"lon":14.54725},"openingHours":[{"weekDay":1,"timeRanges":[{"opening":"08:00","closing":"21:00"}]},{"weekDay":2,"timeRanges":[{"opening":"08:00","closing":"21:00"}]},{"weekDay":3,"timeRanges":[{"opening":"08:00","closing":"21:00"}]},{"weekDay":4,"timeRanges":[{"opening":"08:00","closing":"21:00"}]},{"weekDay":5,"timeRanges":[{"opening":"08:00","closing":"21:00"}]},{"weekDay":6,"timeRanges":[{"opening":"08:00","closing":"21:00"}]}]},{"storeNumber":"100","address":{"name":"dm drogerie markt d.o.o.","street":"Mestni trg 26","zip":"1000","city":"Ljubljana"},"location":{"lat":46.050139,"lon":14.5068676},"openingHours":[{"weekDay":1,"timeRanges":[{"opening":"08:00","closing":"21:00"}]},{"weekDay":2,"timeRanges":[{"opening":"08:00","closing":"21:00"}]},{"weekDay":3,"timeRanges":[{"opening":"08:00","closing":"21:00"}]},{"weekDay":4,"timeRanges":[{"opening":"08:00","closing":"21:00"}]},{"weekDay":5,"timeRanges":[{"opening":"08:00","closing":"21:00"}]},{"weekDay":6,"timeRanges":[{"opening":"08:00","closing":"21:00"}]}]},{"storeNumber":"101","address":{"name":"dm drogerie markt d.o.o.","street":"Bevkov trg 1","zip":"5000","city":"Nova Gorica"},"location":{"lat":45.95721,"lon":13.64704},"openingHours":[{"weekDay":1,"timeRanges":[{"opening":"07:30","closing":"19:30"}]},{"weekDay":2,"timeRanges":[{"opening":"07:30","closing":"19:30"}]},{"weekDay":3,"timeRanges":[{"opening":"07:30","closing":"19:30"}]},{"weekDay":4,"timeRanges":[{"opening":"07:30","closing":"19:30"}]},{"weekDay":5,"timeRanges":[{"opening":"07:30","closing":"19:30"}]},{"weekDay":6,"timeRanges":[{"opening":"07:30","closing":"14:00"}]}]},{"storeNumber":"102","address":{"name":"dm drogerie markt d.o.o.","street":"Vodnikov trg 7","zip":"2000","city":"Maribor"},"location":{"lat":46.55734,"lon":15.64119},"openingHours":[{"weekDay":1,"timeRanges":[{"opening":"08:00","closing":"21:00"}]},{"weekDay":2,"timeRanges":[{"opening":"08:00","closing":"21:00"}]},{"weekDay":3,"timeRanges":[{"opening":"08:00","closing":"21:00"}]},{"weekDay":4,"timeRanges":[{"opening":"08:00","closing":"21:00"}]},{"weekDay":5,"timeRanges":[{"opening":"08:00","closing":"21:00"}]},{"weekDay":6,"timeRanges":[{"opening":"08:00","closing":"21:00"}]}]},{"storeNumber":"103","address":{"name":"dm drogerie markt d.o.o.","street":"Dolinska cesta 1a","zip":"6000","city":"Koper"},"location":{"lat":45.53066,"lon":13.73354},"openingHours":[{"weekDay":1,"timeRanges":[{"opening":"08:00","closing":"21:00"}]},{"weekDay":2,"timeRanges":[{"opening":"08:00","closing":"21:00"}]},{"weekDay":3,"timeRanges":[{"opening":"08:00","closing":"21:00"}]},{"weekDay":4,"timeRanges":[{"opening":"08:00","closing":"21:00"}]},{"weekDay":5,"timeRanges":[{"opening":"08:00","closing":"21:00"}]},{"weekDay":6,"timeRanges":[{"opening":"08:00","closing":"21:00"}]}]},{"storeNumber":"106","address":{"name":"dm drogerie markt d.o.o.","street":"Puhova ulica 1","zip":"2000","city":"Maribor"},"location":{"lat":46.54763,"lon":15.67676},"openingHours":[{"weekDay":1,"timeRanges":[{"opening":"08:00","closing":"21:00"}]},{"weekDay":2,"timeRanges":[{"opening":"08:00","closing":"21:00"}]},{"weekDay":3,"timeRanges":[{"opening":"08:00","closing":"21:00"}]},{"weekDay":4,"timeRanges":[{"opening":"08:00","closing":"21:00"}]},{"weekDay":5,"timeRanges":[{"opening":"08:00","closing":"21:00"}]},{"weekDay":6,"timeRanges":[{"opening":"08:00","closing":"21:00"}]}]},{"storeNumber":"107","address":{"name":"dm drogerie markt d.o.o.","street":"Adami\u010deva cesta 4B","zip":"1290","city":"Grosuplje"},"location":{"lat":45.9593222,"lon":14.6480455},"openingHours":[{"weekDay":1,"timeRanges":[{"opening":"08:00","closing":"21:00"}]},{"weekDay":2,"timeRanges":[{"opening":"08:00","closing":"21:00"}]},{"weekDay":3,"timeRanges":[{"opening":"08:00","closing":"21:00"}]},{"weekDay":4,"timeRanges":[{"opening":"08:00","closing":"21:00"}]},{"weekDay":5,"timeRanges":[{"opening":"08:00","closing":"21:00"}]},{"weekDay":6,"timeRanges":[{"opening":"08:00","closing":"21:00"}]}]},{"storeNumber":"108","address":{"name":"dm drogerie markt d.o.o.","street":"Vilharjeva 58","zip":"6250","city":"Ilirska Bistrica"},"location":{"lat":45.5763058,"lon":14.2291024},"openingHours":[{"weekDay":1,"timeRanges":[{"opening":"08:00","closing":"20:00"}]},{"weekDay":2,"timeRanges":[{"opening":"08:00","closing":"20:00"}]},{"weekDay":3,"timeRanges":[{"opening":"08:00","closing":"20:00"}]},{"weekDay":4,"timeRanges":[{"opening":"08:00","closing":"20:00"}]},{"weekDay":5,"timeRanges":[{"opening":"08:00","closing":"20:00"}]},{"weekDay":6,"timeRanges":[{"opening":"08:00","closing":"20:00"}]}]},{"storeNumber":"110","address":{"name":"dm drogerie markt d.o.o.","street":"Gotoveljska cesta 17","zip":"3310","city":"\u017dalec"},"location":{"lat":46.2551064,"lon":15.1507869},"openingHours":[{"weekDay":1,"timeRanges":[{"opening":"08:00","closing":"21:00"}]},{"weekDay":2,"timeRanges":[{"opening":"08:00","closing":"21:00"}]},{"weekDay":3,"timeRanges":[{"opening":"08:00","closing":"21:00"}]},{"weekDay":4,"timeRanges":[{"opening":"08:00","closing":"21:00"}]},{"weekDay":5,"timeRanges":[{"opening":"08:00","closing":"21:00"}]},{"weekDay":6,"timeRanges":[{"opening":"08:00","closing":"21:00"}]}]},{"storeNumber":"111","address":{"name":"dm-drogerie markt d.o.o.","street":"Nove Fu\u017eine 41","zip":"1000","city":"Ljubljana"},"location":{"lat":46.0550248,"lon":14.5634735},"openingHours":[{"weekDay":1,"timeRanges":[{"opening":"08:00","closing":"20:00"}]},{"weekDay":2,"timeRanges":[{"opening":"08:00","closing":"20:00"}]},{"weekDay":3,"timeRanges":[{"opening":"08:00","closing":"20:00"}]},{"weekDay":4,"timeRanges":[{"opening":"08:00","closing":"20:00"}]},{"weekDay":5,"timeRanges":[{"opening":"08:00","closing":"20:00"}]},{"weekDay":6,"timeRanges":[{"opening":"08:00","closing":"17:00"}]}]},{"storeNumber":"112","address":{"name":"dm-drogerie markt d.o.o.","street":"Cesta talcev 12","zip":"1370","city":"Logatec"},"location":{"lat":45.9136534,"lon":14.2240765},"openingHours":[{"weekDay":1,"timeRanges":[{"opening":"08:00","closing":"20:00"}]},{"weekDay":2,"timeRanges":[{"opening":"08:00","closing":"20:00"}]},{"weekDay":3,"timeRanges":[{"opening":"08:00","closing":"20:00"}]},{"weekDay":4,"timeRanges":[{"opening":"08:00","closing":"20:00"}]},{"weekDay":5,"timeRanges":[{"opening":"08:00","closing":"20:00"}]},{"weekDay":6,"timeRanges":[{"opening":"08:00","closing":"20:00"}]}]},{"storeNumber":"113","address":{"name":"dm-drogerie markt","street":"Cesta Proletarskih brigad 101","zip":"2000","city":"Maribor"},"location":{"lat":46.545448,"lon":15.6178708},"openingHours":[{"weekDay":1,"timeRanges":[{"opening":"08:00","closing":"21:00"}]},{"weekDay":2,"timeRanges":[{"opening":"08:00","closing":"21:00"}]},{"weekDay":3,"timeRanges":[{"opening":"08:00","closing":"21:00"}]},{"weekDay":4,"timeRanges":[{"opening":"08:00","closing":"21:00"}]},{"weekDay":5,"timeRanges":[{"opening":"08:00","closing":"21:00"}]},{"weekDay":6,"timeRanges":[{"opening":"08:00","closing":"21:00"}]}]},{"storeNumber":"114","address":{"name":"dm drogerie markt d.o.o.","street":"Ulica 21. Oktobra 15B","zip":"8340","city":"\u010crnomelj"},"location":{"lat":45.5775831,"lon":15.1871648},"openingHours":[{"weekDay":1,"timeRanges":[{"opening":"08:00","closing":"20:00"}]},{"weekDay":2,"timeRanges":[{"opening":"08:00","closing":"20:00"}]},{"weekDay":3,"timeRanges":[{"opening":"08:00","closing":"20:00"}]},{"weekDay":4,"timeRanges":[{"opening":"08:00","closing":"20:00"}]},{"weekDay":5,"timeRanges":[{"opening":"08:00","closing":"20:00"}]},{"weekDay":6,"timeRanges":[{"opening":"08:00","closing":"19:00"}]}]},{"storeNumber":"115","address":{"name":"dm-drogerie markt d.o.o.","street":"Cesta na Brdo 103","zip":"1000","city":"Ljubljana"},"location":{"lat":46.0468942,"lon":14.4629957},"openingHours":[{"weekDay":1,"timeRanges":[{"opening":"07:30","closing":"21:00"}]},{"weekDay":2,"timeRanges":[{"opening":"07:30","closing":"21:00"}]},{"weekDay":3,"timeRanges":[{"opening":"07:30","closing":"21:00"}]},{"weekDay":4,"timeRanges":[{"opening":"07:30","closing":"21:00"}]},{"weekDay":5,"timeRanges":[{"opening":"07:30","closing":"21:00"}]},{"weekDay":6,"timeRanges":[{"opening":"07:30","closing":"21:00"}]}]},{"storeNumber":"116","address":{"name":"dm drogerie markt d.o.o.","street":"Kolodvorska ulica 41","zip":"9220","city":"Lendava"},"location":{"lat":46.5559602,"lon":16.4481071},"openingHours":[{"weekDay":1,"timeRanges":[{"opening":"08:00","closing":"20:00"}]},{"weekDay":2,"timeRanges":[{"opening":"08:00","closing":"20:00"}]},{"weekDay":3,"timeRanges":[{"opening":"08:00","closing":"20:00"}]},{"weekDay":4,"timeRanges":[{"opening":"08:00","closing":"20:00"}]},{"weekDay":5,"timeRanges":[{"opening":"08:00","closing":"20:00"}]},{"weekDay":6,"timeRanges":[{"opening":"08:00","closing":"20:00"}]}]},{"storeNumber":"117","address":{"name":"dm drogerie markt d.o.o.","street":"Spodnji plav\u017e 3D","zip":"4270","city":"Jesenice"},"location":{"lat":46.4413684,"lon":14.0350548},"openingHours":[{"weekDay":1,"timeRanges":[{"opening":"08:00","closing":"20:00"}]},{"weekDay":2,"timeRanges":[{"opening":"08:00","closing":"20:00"}]},{"weekDay":3,"timeRanges":[{"opening":"08:00","closing":"20:00"}]},{"weekDay":4,"timeRanges":[{"opening":"08:00","closing":"20:00"}]},{"weekDay":5,"timeRanges":[{"opening":"08:00","closing":"20:00"}]},{"weekDay":6,"timeRanges":[{"opening":"08:00","closing":"20:00"}]}]},{"storeNumber":"118","address":{"name":"dm drogerie markt d.o.o.","street":"Ljutomerska c. 38d","zip":"2270","city":"Ormo\u017e"},"location":{"lat":46.4117474,"lon":16.1635747},"openingHours":[{"weekDay":1,"timeRanges":[{"opening":"08:00","closing":"20:00"}]},{"weekDay":2,"timeRanges":[{"opening":"08:00","closing":"20:00"}]},{"weekDay":3,"timeRanges":[{"opening":"08:00","closing":"20:00"}]},{"weekDay":4,"timeRanges":[{"opening":"08:00","closing":"20:00"}]},{"weekDay":5,"timeRanges":[{"opening":"08:00","closing":"20:00"}]},{"weekDay":6,"timeRanges":[{"opening":"08:00","closing":"20:00"}]}]},{"storeNumber":"119","address":{"name":"dm drogerie markt d.o.o.","street":"Sloven\u010deva ulica 89","zip":"1000","city":"Ljubljana"},"location":{"lat":46.0848115,"lon":14.5075308},"openingHours":[{"weekDay":1,"timeRanges":[{"opening":"08:00","closing":"21:00"}]},{"weekDay":2,"timeRanges":[{"opening":"08:00","closing":"21:00"}]},{"weekDay":3,"timeRanges":[{"opening":"08:00","closing":"21:00"}]},{"weekDay":4,"timeRanges":[{"opening":"08:00","closing":"21:00"}]},{"weekDay":5,"timeRanges":[{"opening":"08:00","closing":"21:00"}]},{"weekDay":6,"timeRanges":[{"opening":"08:00","closing":"21:00"}]}]},{"storeNumber":"12","address":{"name":"dm drogerie markt d.o.o.","street":"Jur\u010di\u010deva ulica 4","zip":"2000","city":"Maribor"},"location":{"lat":46.5590375,"lon":15.6472914},"openingHours":[{"weekDay":1,"timeRanges":[{"opening":"07:30","closing":"19:00"}]},{"weekDay":2,"timeRanges":[{"opening":"07:30","closing":"19:00"}]},{"weekDay":3,"timeRanges":[{"opening":"07:30","closing":"19:00"}]},{"weekDay":4,"timeRanges":[{"opening":"07:30","closing":"19:00"}]},{"weekDay":5,"timeRanges":[{"opening":"07:30","closing":"19:00"}]},{"weekDay":6,"timeRanges":[{"opening":"07:30","closing":"14:00"}]}]},{"storeNumber":"120","address":{"name":"dm drogerie markt d.o.o.","street":"Mirce 8","zip":"5270","city":"Ajdov\u0161\u010dina"},"location":{"lat":45.88108,"lon":13.9028271},"openingHours":[{"weekDay":1,"timeRanges":[{"opening":"08:00","closing":"20:00"}]},{"weekDay":2,"timeRanges":[{"opening":"08:00","closing":"20:00"}]},{"weekDay":3,"timeRanges":[{"opening":"08:00","closing":"20:00"}]},{"weekDay":4,"timeRanges":[{"opening":"08:00","closing":"20:00"}]},{"weekDay":5,"timeRanges":[{"opening":"08:00","closing":"20:00"}]},{"weekDay":6,"timeRanges":[{"opening":"08:00","closing":"20:00"}]}]},{"storeNumber":"121","address":{"name":"dm-drogerie markt d.o.o.","street":"Cesta na lepo njivo 6","zip":"3330","city":"Mozirje"},"location":{"lat":46.3405918,"lon":14.9697415},"openingHours":[{"weekDay":1,"timeRanges":[{"opening":"08:00","closing":"20:00"}]},{"weekDay":2,"timeRanges":[{"opening":"08:00","closing":"20:00"}]},{"weekDay":3,"timeRanges":[{"opening":"08:00","closing":"20:00"}]},{"weekDay":4,"timeRanges":[{"opening":"08:00","closing":"20:00"}]},{"weekDay":5,"timeRanges":[{"opening":"08:00","closing":"20:00"}]},{"weekDay":6,"timeRanges":[{"opening":"08:00","closing":"20:00"}]}]},{"storeNumber":"122","address":{"name":"dm drogerie markt d.o.o.","street":"Kro\u0161ka ulica 58","zip":"9000","city":"Murska Sobota"},"location":{"lat":46.6491951,"lon":16.1497989},"openingHours":[{"weekDay":1,"timeRanges":[{"opening":"08:00","closing":"20:00"}]},{"weekDay":2,"timeRanges":[{"opening":"08:00","closing":"20:00"}]},{"weekDay":3,"timeRanges":[{"opening":"08:00","closing":"20:00"}]},{"weekDay":4,"timeRanges":[{"opening":"08:00","closing":"20:00"}]},{"weekDay":5,"timeRanges":[{"opening":"08:00","closing":"20:00"}]},{"weekDay":6,"timeRanges":[{"opening":"08:00","closing":"20:00"}]}]},{"storeNumber":"123","address":{"name":"dm drogerie markt d.o.o.","street":"Kajuhova cesta 1","zip":"4260","city":"Bled"},"location":{"lat":46.3691041,"lon":14.1182347},"openingHours":[{"weekDay":1,"timeRanges":[{"opening":"07:30","closing":"20:00"}]},{"weekDay":2,"timeRanges":[{"opening":"07:30","closing":"20:00"}]},{"weekDay":3,"timeRanges":[{"opening":"07:30","closing":"20:00"}]},{"weekDay":4,"timeRanges":[{"opening":"07:30","closing":"20:00"}]},{"weekDay":5,"timeRanges":[{"opening":"07:30","closing":"20:00"}]},{"weekDay":6,"timeRanges":[{"opening":"07:30","closing":"20:00"}]}]},{"storeNumber":"124","address":{"name":"dm drogerie markt d.o.o.","street":"Mariborska cesta 88","zip":"3000","city":"Celje"},"location":{"lat":46.2404285,"lon":15.2753843},"openingHours":[{"weekDay":1,"timeRanges":[{"opening":"08:00","closing":"20:00"}]},{"weekDay":2,"timeRanges":[{"opening":"08:00","closing":"20:00"}]},{"weekDay":3,"timeRanges":[{"opening":"08:00","closing":"20:00"}]},{"weekDay":4,"timeRanges":[{"opening":"08:00","closing":"20:00"}]},{"weekDay":5,"timeRanges":[{"opening":"08:00","closing":"20:00"}]},{"weekDay":6,"timeRanges":[{"opening":"08:00","closing":"20:00"}]}]},{"storeNumber":"125","address":{"name":"dm-drogerie markt d.o.o.","street":"Hermanova cesta 29","zip":"8290","city":"Sevnica"},"location":{"lat":46.0140958,"lon":15.2935872},"openingHours":[{"weekDay":1,"timeRanges":[{"opening":"08:00","closing":"20:00"}]},{"weekDay":2,"timeRanges":[{"opening":"08:00","closing":"20:00"}]},{"weekDay":3,"timeRanges":[{"opening":"08:00","closing":"20:00"}]},{"weekDay":4,"timeRanges":[{"opening":"08:00","closing":"20:00"}]},{"weekDay":5,"timeRanges":[{"opening":"08:00","closing":"20:00"}]},{"weekDay":6,"timeRanges":[{"opening":"08:00","closing":"20:00"}]}]},{"storeNumber":"126","address":{"name":"dm-drogerie markt d.o.o.","street":"Drofenikova ulica 9","zip":"3230","city":"\u0160entjur"},"location":{"lat":46.2140867,"lon":15.3885359},"openingHours":[{"weekDay":1,"timeRanges":[{"opening":"08:00","closing":"20:00"}]},{"weekDay":2,"timeRanges":[{"opening":"08:00","closing":"20:00"}]},{"weekDay":3,"timeRanges":[{"opening":"08:00","closing":"20:00"}]},{"weekDay":4,"timeRanges":[{"opening":"08:00","closing":"20:00"}]},{"weekDay":5,"timeRanges":[{"opening":"08:00","closing":"20:00"}]},{"weekDay":6,"timeRanges":[{"opening":"08:00","closing":"20:00"}]}]},{"storeNumber":"127","address":{"name":"dm-drogerie markt d.o.o.","street":"\u017dnidar\u010di\u010deva ulica 21c","zip":"5290","city":"\u0160empeter pri Gorici"},"location":{"lat":45.9262679,"lon":13.6322106},"openingHours":[{"weekDay":1,"timeRanges":[{"opening":"08:00","closing":"20:30"}]},{"weekDay":2,"timeRanges":[{"opening":"08:00","closing":"20:30"}]},{"weekDay":3,"timeRanges":[{"opening":"08:00","closing":"20:30"}]},{"weekDay":4,"timeRanges":[{"opening":"08:00","closing":"20:30"}]},{"weekDay":5,"timeRanges":[{"opening":"08:00","closing":"20:30"}]},{"weekDay":6,"timeRanges":[{"opening":"08:00","closing":"20:30"}]}]},{"storeNumber":"128","address":{"name":"dm drogerie markt d.o.o.","street":"Ptujska cesta 194A","zip":"2000","city":"Maribor"},"location":{"lat":46.5261013,"lon":15.6732962},"openingHours":[{"weekDay":1,"timeRanges":[{"opening":"08:00","closing":"21:00"}]},{"weekDay":2,"timeRanges":[{"opening":"08:00","closing":"21:00"}]},{"weekDay":3,"timeRanges":[{"opening":"08:00","closing":"21:00"}]},{"weekDay":4,"timeRanges":[{"opening":"08:00","closing":"21:00"}]},{"weekDay":5,"timeRanges":[{"opening":"08:00","closing":"21:00"}]},{"weekDay":6,"timeRanges":[{"opening":"08:00","closing":"21:00"}]}]},{"storeNumber":"129","address":{"name":"dm drogerie markt d.o.o.","street":"Ulica Jo\u017eeta Jame 9","zip":"1000","city":"Ljubljana"},"location":{"lat":46.0892481,"lon":14.4750975},"openingHours":[{"weekDay":1,"timeRanges":[{"opening":"08:00","closing":"21:00"}]},{"weekDay":2,"timeRanges":[{"opening":"08:00","closing":"21:00"}]},{"weekDay":3,"timeRanges":[{"opening":"08:00","closing":"21:00"}]},{"weekDay":4,"timeRanges":[{"opening":"08:00","closing":"21:00"}]},{"weekDay":5,"timeRanges":[{"opening":"08:00","closing":"21:00"}]},{"weekDay":6,"timeRanges":[{"opening":"08:00","closing":"21:00"}]}]},{"storeNumber":"13","address":{"name":"dm drogerie markt d.o.o.","street":"Breznikova ulica 15","zip":"1230","city":"Dom\u017eale"},"location":{"lat":46.14617,"lon":14.59786},"openingHours":[{"weekDay":1,"timeRanges":[{"opening":"08:00","closing":"20:00"}]},{"weekDay":2,"timeRanges":[{"opening":"08:00","closing":"20:00"}]},{"weekDay":3,"timeRanges":[{"opening":"08:00","closing":"20:00"}]},{"weekDay":4,"timeRanges":[{"opening":"08:00","closing":"20:00"}]},{"weekDay":5,"timeRanges":[{"opening":"08:00","closing":"20:00"}]},{"weekDay":6,"timeRanges":[{"opening":"08:00","closing":"17:00"}]}]},{"storeNumber":"130","address":{"name":"dm drogerie markt d.o.o.","street":"Kranj\u010deva 27","zip":"1000","city":"Ljubljana"},"location":{"lat":46.0711153,"lon":14.5238276},"openingHours":[{"weekDay":1,"timeRanges":[{"opening":"07:30","closing":"21:00"}]},{"weekDay":2,"timeRanges":[{"opening":"07:30","closing":"21:00"}]},{"weekDay":3,"timeRanges":[{"opening":"07:30","closing":"21:00"}]},{"weekDay":4,"timeRanges":[{"opening":"07:30","closing":"21:00"}]},{"weekDay":5,"timeRanges":[{"opening":"07:30","closing":"21:00"}]},{"weekDay":6,"timeRanges":[{"opening":"07:30","closing":"21:00"}]}]},{"storeNumber":"131","address":{"name":"dm drogerie markt d.o.o.","street":"Tr\u017ea\u0161ka cesta 427","zip":"1000","city":"Ljubljana"},"location":{"lat":46.0270473,"lon":14.4352872},"openingHours":[{"weekDay":1,"timeRanges":[{"opening":"08:00","closing":"21:00"}]},{"weekDay":2,"timeRanges":[{"opening":"08:00","closing":"21:00"}]},{"weekDay":3,"timeRanges":[{"opening":"08:00","closing":"21:00"}]},{"weekDay":4,"timeRanges":[{"opening":"08:00","closing":"21:00"}]},{"weekDay":5,"timeRanges":[{"opening":"08:00","closing":"21:00"}]},{"weekDay":6,"timeRanges":[{"opening":"08:00","closing":"21:00"}]}]},{"storeNumber":"132","address":{"name":"dm drogerie markt d.o.o.","street":"Ugar 2","zip":"1310","city":"Ribnica"},"location":{"lat":45.7364075,"lon":14.7297009},"openingHours":[{"weekDay":1,"timeRanges":[{"opening":"08:00","closing":"20:00"}]},{"weekDay":2,"timeRanges":[{"opening":"08:00","closing":"20:00"}]},{"weekDay":3,"timeRanges":[{"opening":"08:00","closing":"20:00"}]},{"weekDay":4,"timeRanges":[{"opening":"08:00","closing":"20:00"}]},{"weekDay":5,"timeRanges":[{"opening":"08:00","closing":"20:00"}]},{"weekDay":6,"timeRanges":[{"opening":"08:00","closing":"20:00"}]}]},{"storeNumber":"133","address":{"name":"dm drogerie markt d.o.o.","street":"Cesta Staneta \u017dagarja 69","zip":"4000","city":"Kranj"},"location":{"lat":46.2423132,"lon":14.378189},"openingHours":[{"weekDay":1,"timeRanges":[{"opening":"08:00","closing":"21:00"}]},{"weekDay":2,"timeRanges":[{"opening":"08:00","closing":"21:00"}]},{"weekDay":3,"timeRanges":[{"opening":"08:00","closing":"21:00"}]},{"weekDay":4,"timeRanges":[{"opening":"08:00","closing":"21:00"}]},{"weekDay":5,"timeRanges":[{"opening":"08:00","closing":"21:00"}]},{"weekDay":6,"timeRanges":[{"opening":"08:00","closing":"21:00"}]}]},{"storeNumber":"134","address":{"name":"dm drogerie markt d.o.o.","street":"Koro\u0161ka cesta 69b","zip":"2360","city":"Radlje ob Dravi"},"location":{"lat":46.6150895,"lon":15.2081401},"openingHours":[{"weekDay":1,"timeRanges":[{"opening":"08:00","closing":"20:00"}]},{"weekDay":2,"timeRanges":[{"opening":"08:00","closing":"20:00"}]},{"weekDay":3,"timeRanges":[{"opening":"08:00","closing":"20:00"}]},{"weekDay":4,"timeRanges":[{"opening":"08:00","closing":"20:00"}]},{"weekDay":5,"timeRanges":[{"opening":"08:00","closing":"20:00"}]},{"weekDay":6,"timeRanges":[{"opening":"08:00","closing":"20:00"}]}]},{"storeNumber":"135","address":{"name":"dm drogerie markt d.o.o.","street":"Bleiweisova 4","zip":"4000","city":"Kranj"},"location":{"lat":46.2458575,"lon":14.3549998},"openingHours":[{"weekDay":1,"timeRanges":[{"opening":"07:00","closing":"20:00"}]},{"weekDay":2,"timeRanges":[{"opening":"07:00","closing":"20:00"}]},{"weekDay":3,"timeRanges":[{"opening":"07:00","closing":"20:00"}]},{"weekDay":4,"timeRanges":[{"opening":"07:00","closing":"20:00"}]},{"weekDay":5,"timeRanges":[{"opening":"07:00","closing":"20:00"}]},{"weekDay":6,"timeRanges":[{"opening":"07:00","closing":"20:00"}]}]},{"storeNumber":"136","address":{"name":"dm drogerie markt d.o.o.","street":"Gradnikova cesta 1c","zip":"4240","city":"Radovljica"},"location":{"lat":46.3477926,"lon":14.1786109},"openingHours":[{"weekDay":1,"timeRanges":[{"opening":"08:00","closing":"20:00"}]},{"weekDay":2,"timeRanges":[{"opening":"08:00","closing":"20:00"}]},{"weekDay":3,"timeRanges":[{"opening":"08:00","closing":"20:00"}]},{"weekDay":4,"timeRanges":[{"opening":"08:00","closing":"20:00"}]},{"weekDay":5,"timeRanges":[{"opening":"08:00","closing":"20:00"}]},{"weekDay":6,"timeRanges":[{"opening":"08:00","closing":"20:00"}]}]},{"storeNumber":"137","address":{"name":"dm drogerie markt d.o.o.","street":"Toplarni\u0161ka ulica 6","zip":"1000","city":"Ljubljana"},"location":{"lat":46.0567386,"lon":14.5423172},"openingHours":[{"weekDay":1,"timeRanges":[{"opening":"08:00","closing":"21:00"}]},{"weekDay":2,"timeRanges":[{"opening":"08:00","closing":"21:00"}]},{"weekDay":3,"timeRanges":[{"opening":"08:00","closing":"21:00"}]},{"weekDay":4,"timeRanges":[{"opening":"08:00","closing":"21:00"}]},{"weekDay":5,"timeRanges":[{"opening":"08:00","closing":"21:00"}]},{"weekDay":6,"timeRanges":[{"opening":"08:00","closing":"21:00"}]}]},{"storeNumber":"138","address":{"name":"dm drogerie markt d.o.o.","street":"\u0160entiljska cesta 116B","zip":"2000","city":"Maribor"},"location":{"lat":46.5865314,"lon":15.6666129},"openingHours":[{"weekDay":1,"timeRanges":[{"opening":"08:00","closing":"21:00"}]},{"weekDay":2,"timeRanges":[{"opening":"08:00","closing":"21:00"}]},{"weekDay":3,"timeRanges":[{"opening":"08:00","closing":"21:00"}]},{"weekDay":4,"timeRanges":[{"opening":"08:00","closing":"21:00"}]},{"weekDay":5,"timeRanges":[{"opening":"08:00","closing":"21:00"}]},{"weekDay":6,"timeRanges":[{"opening":"08:00","closing":"21:00"}]}]},{"storeNumber":"139","address":{"name":"dm drogerie markt d.o.o.","street":"Zadr\u017ee 3","zip":"3240","city":"\u0160marje pri Jel\u0161ah"},"location":{"lat":46.2294932,"lon":15.5009487},"openingHours":[{"weekDay":1,"timeRanges":[{"opening":"08:00","closing":"20:00"}]},{"weekDay":2,"timeRanges":[{"opening":"08:00","closing":"20:00"}]},{"weekDay":3,"timeRanges":[{"opening":"08:00","closing":"20:00"}]},{"weekDay":4,"timeRanges":[{"opening":"08:00","closing":"20:00"}]},{"weekDay":5,"timeRanges":[{"opening":"08:00","closing":"20:00"}]},{"weekDay":6,"timeRanges":[{"opening":"08:00","closing":"20:00"}]}]},{"storeNumber":"14","address":{"name":"dm drogerie markt d.o.o.","street":"Ulica 1. junija 1a","zip":"1420","city":"Trbovlje"},"location":{"lat":46.1483829,"lon":15.0419934},"openingHours":[{"weekDay":1,"timeRanges":[{"opening":"07:30","closing":"20:00"}]},{"weekDay":2,"timeRanges":[{"opening":"07:30","closing":"20:00"}]},{"weekDay":3,"timeRanges":[{"opening":"07:30","closing":"20:00"}]},{"weekDay":4,"timeRanges":[{"opening":"07:30","closing":"20:00"}]},{"weekDay":5,"timeRanges":[{"opening":"07:30","closing":"20:00"}]},{"weekDay":6,"timeRanges":[{"opening":"07:30","closing":"15:00"}]}]},{"storeNumber":"140","address":{"name":"dm-drogeriemarkt d.o.o.","street":"Mariborska cesta 36a","zip":"2342","city":"Ru\u0161e"},"location":{"lat":46.5411314,"lon":15.520794},"openingHours":[{"weekDay":1,"timeRanges":[{"opening":"08:00","closing":"20:00"}]},{"weekDay":2,"timeRanges":[{"opening":"08:00","closing":"20:00"}]},{"weekDay":3,"timeRanges":[{"opening":"08:00","closing":"20:00"}]},{"weekDay":4,"timeRanges":[{"opening":"08:00","closing":"20:00"}]},{"weekDay":5,"timeRanges":[{"opening":"08:00","closing":"20:00"}]},{"weekDay":6,"timeRanges":[{"opening":"08:00","closing":"20:00"}]}]},{"storeNumber":"141","address":{"name":"dm-drogeriemarkt d.o.o.","street":"Poslovna cona B 24","zip":"4208","city":"\u0160en\u010dur"},"location":{"lat":46.2368803,"lon":14.4135355},"openingHours":[{"weekDay":1,"timeRanges":[{"opening":"08:00","closing":"20:00"}]},{"weekDay":2,"timeRanges":[{"opening":"08:00","closing":"20:00"}]},{"weekDay":3,"timeRanges":[{"opening":"08:00","closing":"20:00"}]},{"weekDay":4,"timeRanges":[{"opening":"08:00","closing":"20:00"}]},{"weekDay":5,"timeRanges":[{"opening":"08:00","closing":"20:00"}]},{"weekDay":6,"timeRanges":[{"opening":"08:00","closing":"20:00"}]}]},{"storeNumber":"142","address":{"name":"dm-drogerie markt d.o.o.","street":"Teharje 1c","zip":"3000","city":"Celje"},"location":{"lat":46.2338801,"lon":15.2969302},"openingHours":[{"weekDay":1,"timeRanges":[{"opening":"08:00","closing":"20:00"}]},{"weekDay":2,"timeRanges":[{"opening":"08:00","closing":"20:00"}]},{"weekDay":3,"timeRanges":[{"opening":"08:00","closing":"20:00"}]},{"weekDay":4,"timeRanges":[{"opening":"08:00","closing":"20:00"}]},{"weekDay":5,"timeRanges":[{"opening":"08:00","closing":"20:00"}]},{"weekDay":6,"timeRanges":[{"opening":"08:00","closing":"20:00"}]}]},{"storeNumber":"144","address":{"name":"dm-drogerie markt d.o.o.","street":"Log 10","zip":"1430","city":"Hrastnik"},"location":{"lat":46.1449221,"lon":15.0832789},"openingHours":[{"weekDay":1,"timeRanges":[{"opening":"08:00","closing":"20:00"}]},{"weekDay":2,"timeRanges":[{"opening":"08:00","closing":"20:00"}]},{"weekDay":3,"timeRanges":[{"opening":"08:00","closing":"20:00"}]},{"weekDay":4,"timeRanges":[{"opening":"08:00","closing":"20:00"}]},{"weekDay":5,"timeRanges":[{"opening":"08:00","closing":"20:00"}]},{"weekDay":6,"timeRanges":[{"opening":"08:00","closing":"13:00"}]}]},{"storeNumber":"146","address":{"name":"dm drogerie markt d.o.o.","street":"Ljubljanska cesta 82","zip":"1230","city":"Dom\u017eale"},"location":{"lat":46.1396601,"lon":14.5940189},"openingHours":[{"weekDay":1,"timeRanges":[{"opening":"08:00","closing":"21:00"}]},{"weekDay":2,"timeRanges":[{"opening":"08:00","closing":"21:00"}]},{"weekDay":3,"timeRanges":[{"opening":"08:00","closing":"21:00"}]},{"weekDay":4,"timeRanges":[{"opening":"08:00","closing":"21:00"}]},{"weekDay":5,"timeRanges":[{"opening":"08:00","closing":"21:00"}]},{"weekDay":6,"timeRanges":[{"opening":"08:00","closing":"21:00"}]}]},{"storeNumber":"149","address":{"name":"dm drogerie markt d.o.o.","street":"Ljubljanska cesta 35","zip":"1360","city":"Vrhnika"},"location":{"lat":45.9758597,"lon":14.3074451},"openingHours":[{"weekDay":1,"timeRanges":[{"opening":"08:00","closing":"21:00"}]},{"weekDay":2,"timeRanges":[{"opening":"08:00","closing":"21:00"}]},{"weekDay":3,"timeRanges":[{"opening":"08:00","closing":"21:00"}]},{"weekDay":4,"timeRanges":[{"opening":"08:00","closing":"21:00"}]},{"weekDay":5,"timeRanges":[{"opening":"08:00","closing":"21:00"}]},{"weekDay":6,"timeRanges":[{"opening":"08:00","closing":"21:00"}]}]},{"storeNumber":"17","address":{"name":"dm drogerie markt d.o.o.","street":"Jamova cesta 105","zip":"1000","city":"Ljubljana"},"location":{"lat":46.0391763,"lon":14.4763485},"openingHours":[{"weekDay":1,"timeRanges":[{"opening":"08:00","closing":"21:00"}]},{"weekDay":2,"timeRanges":[{"opening":"08:00","closing":"21:00"}]},{"weekDay":3,"timeRanges":[{"opening":"08:00","closing":"21:00"}]},{"weekDay":4,"timeRanges":[{"opening":"08:00","closing":"21:00"}]},{"weekDay":5,"timeRanges":[{"opening":"08:00","closing":"21:00"}]},{"weekDay":6,"timeRanges":[{"opening":"08:00","closing":"21:00"}]}]},{"storeNumber":"24","address":{"name":"dm drogerie markt d.o.o.","street":"Celov\u0161ka cesta 150","zip":"1000","city":"Ljubljana"},"location":{"lat":46.07329,"lon":14.48643},"openingHours":[{"weekDay":1,"timeRanges":[{"opening":"07:30","closing":"20:00"}]},{"weekDay":2,"timeRanges":[{"opening":"07:30","closing":"20:00"}]},{"weekDay":3,"timeRanges":[{"opening":"07:30","closing":"20:00"}]},{"weekDay":4,"timeRanges":[{"opening":"07:30","closing":"20:00"}]},{"weekDay":5,"timeRanges":[{"opening":"07:30","closing":"20:00"}]},{"weekDay":6,"timeRanges":[{"opening":"07:30","closing":"20:00"}]}]},{"storeNumber":"35","address":{"name":"dm drogerie markt d.o.o.","street":"Cesta Kr\u0161kih \u017ertev 141","zip":"8270","city":"Kr\u0161ko"},"location":{"lat":45.9386938,"lon":15.4860087},"openingHours":[{"weekDay":1,"timeRanges":[{"opening":"07:30","closing":"21:00"}]},{"weekDay":2,"timeRanges":[{"opening":"07:30","closing":"21:00"}]},{"weekDay":3,"timeRanges":[{"opening":"07:30","closing":"21:00"}]},{"weekDay":4,"timeRanges":[{"opening":"07:30","closing":"21:00"}]},{"weekDay":5,"timeRanges":[{"opening":"07:30","closing":"21:00"}]},{"weekDay":6,"timeRanges":[{"opening":"07:30","closing":"20:00"}]}]},{"storeNumber":"36","address":{"name":"dm drogerie markt d.o.o.","street":"Polje 10","zip":"2391","city":"Prevalje"},"location":{"lat":46.5470933,"lon":14.9214252},"openingHours":[{"weekDay":1,"timeRanges":[{"opening":"08:00","closing":"20:00"}]},{"weekDay":2,"timeRanges":[{"opening":"08:00","closing":"20:00"}]},{"weekDay":3,"timeRanges":[{"opening":"08:00","closing":"20:00"}]},{"weekDay":4,"timeRanges":[{"opening":"08:00","closing":"20:00"}]},{"weekDay":5,"timeRanges":[{"opening":"08:00","closing":"20:00"}]},{"weekDay":6,"timeRanges":[{"opening":"08:00","closing":"20:00"}]}]},{"storeNumber":"38","address":{"name":"dm drogerie markt d.o.o.","street":"Pobre\u0161ka cesta 18","zip":"2000","city":"Maribor"},"location":{"lat":46.5548,"lon":15.65285},"openingHours":[{"weekDay":1,"timeRanges":[{"opening":"08:00","closing":"21:00"}]},{"weekDay":2,"timeRanges":[{"opening":"08:00","closing":"21:00"}]},{"weekDay":3,"timeRanges":[{"opening":"08:00","closing":"21:00"}]},{"weekDay":4,"timeRanges":[{"opening":"08:00","closing":"21:00"}]},{"weekDay":5,"timeRanges":[{"opening":"08:00","closing":"21:00"}]},{"weekDay":6,"timeRanges":[{"opening":"08:00","closing":"21:00"}]}]},{"storeNumber":"39","address":{"name":"dm drogerie markt d.o.o.","street":"Rimska cesta 14\/16","zip":"1000","city":"Ljubljana"},"location":{"lat":46.04751,"lon":14.49998},"openingHours":[{"weekDay":1,"timeRanges":[{"opening":"08:00","closing":"19:00"}]},{"weekDay":2,"timeRanges":[{"opening":"08:00","closing":"19:00"}]},{"weekDay":3,"timeRanges":[{"opening":"08:00","closing":"19:00"}]},{"weekDay":4,"timeRanges":[{"opening":"08:00","closing":"19:00"}]},{"weekDay":5,"timeRanges":[{"opening":"08:00","closing":"19:00"}]},{"weekDay":6,"timeRanges":[{"opening":"08:00","closing":"13:00"}]}]},{"storeNumber":"48","address":{"name":"dm drogerie markt d.o.o.","street":"Trdinova ulica 9","zip":"1000","city":"Ljubljana"},"location":{"lat":46.05552,"lon":14.50706},"openingHours":[{"weekDay":1,"timeRanges":[{"opening":"07:30","closing":"19:00"}]},{"weekDay":2,"timeRanges":[{"opening":"07:30","closing":"19:00"}]},{"weekDay":3,"timeRanges":[{"opening":"07:30","closing":"19:00"}]},{"weekDay":4,"timeRanges":[{"opening":"07:30","closing":"19:00"}]},{"weekDay":5,"timeRanges":[{"opening":"07:30","closing":"19:00"}]},{"weekDay":6,"timeRanges":[{"opening":"08:00","closing":"13:00"}]}]},{"storeNumber":"49","address":{"name":"dm drogerie markt d.o.o.","street":"Jur\u010dkova cesta 224","zip":"1000","city":"Ljubljana"},"location":{"lat":46.0192032,"lon":14.5349504},"openingHours":[{"weekDay":1,"timeRanges":[{"opening":"08:00","closing":"20:00"}]},{"weekDay":2,"timeRanges":[{"opening":"08:00","closing":"20:00"}]},{"weekDay":3,"timeRanges":[{"opening":"08:00","closing":"20:00"}]},{"weekDay":4,"timeRanges":[{"opening":"08:00","closing":"20:00"}]},{"weekDay":5,"timeRanges":[{"opening":"08:00","closing":"20:00"}]},{"weekDay":6,"timeRanges":[{"opening":"08:00","closing":"20:00"}]}]},{"storeNumber":"50","address":{"name":"dm drogerie markt d.o.o.","street":"Pre\u0161ernova cesta 51","zip":"6310","city":"Izola"},"location":{"lat":45.53052,"lon":13.65243},"openingHours":[{"weekDay":1,"timeRanges":[{"opening":"08:00","closing":"20:00"}]},{"weekDay":2,"timeRanges":[{"opening":"08:00","closing":"20:00"}]},{"weekDay":3,"timeRanges":[{"opening":"08:00","closing":"20:00"}]},{"weekDay":4,"timeRanges":[{"opening":"08:00","closing":"20:00"}]},{"weekDay":5,"timeRanges":[{"opening":"08:00","closing":"20:00"}]},{"weekDay":6,"timeRanges":[{"opening":"08:00","closing":"20:00"}]}]},{"storeNumber":"51","address":{"name":"dm drogerie markt d.o.o.","street":"Obala 26","zip":"6320","city":"Portoro\u017e"},"location":{"lat":45.5085656,"lon":13.5963599},"openingHours":[{"weekDay":1,"timeRanges":[{"opening":"07:30","closing":"23:00"}]},{"weekDay":2,"timeRanges":[{"opening":"07:30","closing":"23:00"}]},{"weekDay":3,"timeRanges":[{"opening":"07:30","closing":"23:00"}]},{"weekDay":4,"timeRanges":[{"opening":"07:30","closing":"23:00"}]},{"weekDay":5,"timeRanges":[{"opening":"07:30","closing":"23:00"}]},{"weekDay":6,"timeRanges":[{"opening":"07:30","closing":"23:00"}]}]},{"storeNumber":"55","address":{"name":"dm drogerie markt d.o.o.","street":"Belokranjska cesta 5","zip":"8000","city":"Novo mesto"},"location":{"lat":45.7964772,"lon":15.1814182},"openingHours":[{"weekDay":1,"timeRanges":[{"opening":"08:00","closing":"20:00"}]},{"weekDay":2,"timeRanges":[{"opening":"08:00","closing":"20:00"}]},{"weekDay":3,"timeRanges":[{"opening":"08:00","closing":"20:00"}]},{"weekDay":4,"timeRanges":[{"opening":"08:00","closing":"20:00"}]},{"weekDay":5,"timeRanges":[{"opening":"08:00","closing":"20:00"}]},{"weekDay":6,"timeRanges":[{"opening":"08:00","closing":"17:00"}]}]},{"storeNumber":"56","address":{"name":"dm drogerie markt d.o.o.","street":"Prvomajska ulica 28","zip":"2000","city":"Maribor"},"location":{"lat":46.5322824,"lon":15.6683643},"openingHours":[{"weekDay":1,"timeRanges":[{"opening":"08:00","closing":"20:00"}]},{"weekDay":2,"timeRanges":[{"opening":"08:00","closing":"20:00"}]},{"weekDay":3,"timeRanges":[{"opening":"08:00","closing":"20:00"}]},{"weekDay":4,"timeRanges":[{"opening":"08:00","closing":"20:00"}]},{"weekDay":5,"timeRanges":[{"opening":"08:00","closing":"20:00"}]},{"weekDay":6,"timeRanges":[{"opening":"08:00","closing":"20:00"}]}]},{"storeNumber":"58","address":{"name":"dm drogerie markt d.o.o.","street":"Fu\u017einska cesta 8","zip":"4270","city":"Jesenice"},"location":{"lat":46.432443,"lon":14.0588487},"openingHours":[{"weekDay":1,"timeRanges":[{"opening":"08:00","closing":"20:00"}]},{"weekDay":2,"timeRanges":[{"opening":"08:00","closing":"20:00"}]},{"weekDay":3,"timeRanges":[{"opening":"08:00","closing":"20:00"}]},{"weekDay":4,"timeRanges":[{"opening":"08:00","closing":"20:00"}]},{"weekDay":5,"timeRanges":[{"opening":"08:00","closing":"20:00"}]},{"weekDay":6,"timeRanges":[{"opening":"08:00","closing":"20:00"}]}]},{"storeNumber":"59","address":{"name":"dm drogerie markt d.o.o.","street":"Tovarni\u0161ka cesta 10","zip":"8250","city":"Bre\u017eice"},"location":{"lat":45.9180907,"lon":15.5959042},"openingHours":[{"weekDay":1,"timeRanges":[{"opening":"08:00","closing":"20:00"}]},{"weekDay":2,"timeRanges":[{"opening":"08:00","closing":"20:00"}]},{"weekDay":3,"timeRanges":[{"opening":"08:00","closing":"20:00"}]},{"weekDay":4,"timeRanges":[{"opening":"08:00","closing":"20:00"}]},{"weekDay":5,"timeRanges":[{"opening":"08:00","closing":"20:00"}]},{"weekDay":6,"timeRanges":[{"opening":"08:00","closing":"20:00"}]}]},{"storeNumber":"60","address":{"name":"dm drogerie markt d.o.o.","street":"Celjska cesta 38a","zip":"3250","city":"Roga\u0161ka Slatina"},"location":{"lat":46.2409255,"lon":15.6248983},"openingHours":[{"weekDay":1,"timeRanges":[{"opening":"07:30","closing":"19:00"}]},{"weekDay":2,"timeRanges":[{"opening":"07:30","closing":"19:00"}]},{"weekDay":3,"timeRanges":[{"opening":"07:30","closing":"19:00"}]},{"weekDay":4,"timeRanges":[{"opening":"07:30","closing":"19:00"}]},{"weekDay":5,"timeRanges":[{"opening":"07:30","closing":"19:00"}]},{"weekDay":6,"timeRanges":[{"opening":"07:30","closing":"13:00"}]}]},{"storeNumber":"61","address":{"name":"dm drogerie markt d.o.o.","street":"Mestni trg 14","zip":"3210","city":"Slovenske Konjice"},"location":{"lat":46.3398198,"lon":15.4267877},"openingHours":[{"weekDay":1,"timeRanges":[{"opening":"08:00","closing":"19:00"}]},{"weekDay":2,"timeRanges":[{"opening":"08:00","closing":"19:00"}]},{"weekDay":3,"timeRanges":[{"opening":"08:00","closing":"19:00"}]},{"weekDay":4,"timeRanges":[{"opening":"08:00","closing":"19:00"}]},{"weekDay":5,"timeRanges":[{"opening":"08:00","closing":"19:00"}]},{"weekDay":6,"timeRanges":[{"opening":"08:00","closing":"13:00"}]}]},{"storeNumber":"62","address":{"name":"dm drogerie markt d.o.o.","street":"Cesta na Lenivec 5","zip":"6210","city":"Se\u017eana"},"location":{"lat":45.7070938,"lon":13.8623307},"openingHours":[{"weekDay":1,"timeRanges":[{"opening":"08:00","closing":"20:00"}]},{"weekDay":2,"timeRanges":[{"opening":"08:00","closing":"20:00"}]},{"weekDay":3,"timeRanges":[{"opening":"08:00","closing":"20:00"}]},{"weekDay":4,"timeRanges":[{"opening":"08:00","closing":"20:00"}]},{"weekDay":5,"timeRanges":[{"opening":"08:00","closing":"20:00"}]},{"weekDay":6,"timeRanges":[{"opening":"08:00","closing":"20:00"}]}]},{"storeNumber":"66","address":{"name":"dm drogerie markt d.o.o.","street":"\u017dolgarjeva 14","zip":"2310","city":"Slovenska Bistrica"},"location":{"lat":46.385049,"lon":15.5730734},"openingHours":[{"weekDay":1,"timeRanges":[{"opening":"08:00","closing":"20:00"}]},{"weekDay":2,"timeRanges":[{"opening":"08:00","closing":"20:00"}]},{"weekDay":3,"timeRanges":[{"opening":"08:00","closing":"20:00"}]},{"weekDay":4,"timeRanges":[{"opening":"08:00","closing":"20:00"}]},{"weekDay":5,"timeRanges":[{"opening":"08:00","closing":"20:00"}]},{"weekDay":6,"timeRanges":[{"opening":"08:00","closing":"20:00"}]}]},{"storeNumber":"67","address":{"name":"dm drogerie markt d.o.o.","street":"Cesta 25. junija 1a","zip":"5000","city":"Nova Gorica"},"location":{"lat":45.9546442,"lon":13.6554974},"openingHours":[{"weekDay":1,"timeRanges":[{"opening":"08:00","closing":"21:00"}]},{"weekDay":2,"timeRanges":[{"opening":"08:00","closing":"21:00"}]},{"weekDay":3,"timeRanges":[{"opening":"08:00","closing":"21:00"}]},{"weekDay":4,"timeRanges":[{"opening":"08:00","closing":"21:00"}]},{"weekDay":5,"timeRanges":[{"opening":"08:00","closing":"21:00"}]},{"weekDay":6,"timeRanges":[{"opening":"08:00","closing":"21:00"}]}]},{"storeNumber":"68","address":{"name":"dm drogerie markt d.o.o.","street":"\u017delezna cesta 8","zip":"1000","city":"Ljubljana"},"location":{"lat":46.0608472,"lon":14.5133625},"openingHours":[{"weekDay":1,"timeRanges":[{"opening":"08:00","closing":"19:30"}]},{"weekDay":2,"timeRanges":[{"opening":"08:00","closing":"19:30"}]},{"weekDay":3,"timeRanges":[{"opening":"08:00","closing":"19:30"}]},{"weekDay":4,"timeRanges":[{"opening":"08:00","closing":"19:30"}]},{"weekDay":5,"timeRanges":[{"opening":"08:00","closing":"19:30"}]},{"weekDay":6,"timeRanges":[{"opening":"08:00","closing":"17:00"}]}]},{"storeNumber":"70","address":{"name":"dm drogerie markt d.o.o.","street":"Zalo\u0161ka 1","zip":"1000","city":"Ljubljana"},"location":{"lat":46.0524145,"lon":14.5198881},"openingHours":[{"weekDay":1,"timeRanges":[{"opening":"07:30","closing":"20:00"}]},{"weekDay":2,"timeRanges":[{"opening":"07:30","closing":"20:00"}]},{"weekDay":3,"timeRanges":[{"opening":"07:30","closing":"20:00"}]},{"weekDay":4,"timeRanges":[{"opening":"07:30","closing":"20:00"}]},{"weekDay":5,"timeRanges":[{"opening":"07:30","closing":"20:00"}]},{"weekDay":6,"timeRanges":[{"opening":"07:30","closing":"17:00"}]}]},{"storeNumber":"71","address":{"name":"dm drogerie markt d.o.o.","street":"Ormo\u0161ka cesta 15","zip":"2250","city":"Ptuj"},"location":{"lat":46.4188461,"lon":15.8788201},"openingHours":[{"weekDay":1,"timeRanges":[{"opening":"08:00","closing":"20:30"}]},{"weekDay":2,"timeRanges":[{"opening":"08:00","closing":"20:30"}]},{"weekDay":3,"timeRanges":[{"opening":"08:00","closing":"20:30"}]},{"weekDay":4,"timeRanges":[{"opening":"08:00","closing":"20:30"}]},{"weekDay":5,"timeRanges":[{"opening":"08:00","closing":"20:30"}]},{"weekDay":6,"timeRanges":[{"opening":"08:00","closing":"20:30"}]}]},{"storeNumber":"72","address":{"name":"dm drogerie markt d.o.o.","street":"Cesta Proletarskih brigad 100","zip":"2000","city":"Maribor"},"location":{"lat":46.5464628,"lon":15.6188808},"openingHours":[{"weekDay":1,"timeRanges":[{"opening":"08:00","closing":"21:00"}]},{"weekDay":2,"timeRanges":[{"opening":"08:00","closing":"21:00"}]},{"weekDay":3,"timeRanges":[{"opening":"08:00","closing":"21:00"}]},{"weekDay":4,"timeRanges":[{"opening":"08:00","closing":"21:00"}]},{"weekDay":5,"timeRanges":[{"opening":"08:00","closing":"21:00"}]},{"weekDay":6,"timeRanges":[{"opening":"08:00","closing":"21:00"}]}]},{"storeNumber":"73","address":{"name":"dm drogerie markt d.o.o.","street":"Dom\u017ealska cesta 3","zip":"1241","city":"Kamnik"},"location":{"lat":46.1991031,"lon":14.5962658},"openingHours":[{"weekDay":1,"timeRanges":[{"opening":"08:00","closing":"21:00"}]},{"weekDay":2,"timeRanges":[{"opening":"08:00","closing":"21:00"}]},{"weekDay":3,"timeRanges":[{"opening":"08:00","closing":"21:00"}]},{"weekDay":4,"timeRanges":[{"opening":"08:00","closing":"21:00"}]},{"weekDay":5,"timeRanges":[{"opening":"08:00","closing":"21:00"}]},{"weekDay":6,"timeRanges":[{"opening":"08:00","closing":"21:00"}]}]},{"storeNumber":"74","address":{"name":"dm drogerie markt d.o.o.","street":"Oto\u0161ka cesta 5","zip":"8000","city":"Novo mesto"},"location":{"lat":45.8275616,"lon":15.1838338},"openingHours":[{"weekDay":1,"timeRanges":[{"opening":"08:00","closing":"21:00"}]},{"weekDay":2,"timeRanges":[{"opening":"08:00","closing":"21:00"}]},{"weekDay":3,"timeRanges":[{"opening":"08:00","closing":"21:00"}]},{"weekDay":4,"timeRanges":[{"opening":"08:00","closing":"21:00"}]},{"weekDay":5,"timeRanges":[{"opening":"08:00","closing":"21:00"}]},{"weekDay":6,"timeRanges":[{"opening":"08:00","closing":"21:00"}]}]},{"storeNumber":"75","address":{"name":"dm drogerie markt d.o.o.","street":"Grenc 56","zip":"4220","city":"\u0160kofja Loka"},"location":{"lat":46.1752396,"lon":14.319439},"openingHours":[{"weekDay":1,"timeRanges":[{"opening":"08:00","closing":"20:00"}]},{"weekDay":2,"timeRanges":[{"opening":"08:00","closing":"20:00"}]},{"weekDay":3,"timeRanges":[{"opening":"08:00","closing":"20:00"}]},{"weekDay":4,"timeRanges":[{"opening":"08:00","closing":"20:00"}]},{"weekDay":5,"timeRanges":[{"opening":"08:00","closing":"20:00"}]},{"weekDay":6,"timeRanges":[{"opening":"08:00","closing":"20:00"}]}]},{"storeNumber":"77","address":{"name":"dm drogerie markt d.o.o.","street":"Cesta 1. maja 77","zip":"4000","city":"Kranj"},"location":{"lat":46.2316979,"lon":14.367195},"openingHours":[{"weekDay":1,"timeRanges":[{"opening":"08:00","closing":"21:00"}]},{"weekDay":2,"timeRanges":[{"opening":"08:00","closing":"21:00"}]},{"weekDay":3,"timeRanges":[{"opening":"08:00","closing":"21:00"}]},{"weekDay":4,"timeRanges":[{"opening":"08:00","closing":"21:00"}]},{"weekDay":5,"timeRanges":[{"opening":"08:00","closing":"21:00"}]},{"weekDay":6,"timeRanges":[{"opening":"08:00","closing":"21:00"}]}]},{"storeNumber":"78","address":{"name":"dm drogerie markt d.o.o.","street":"Re\u0161ka cesta 6","zip":"6230","city":"Postojna"},"location":{"lat":45.770456,"lon":14.1974468},"openingHours":[{"weekDay":1,"timeRanges":[{"opening":"08:00","closing":"20:00"}]},{"weekDay":2,"timeRanges":[{"opening":"08:00","closing":"20:00"}]},{"weekDay":3,"timeRanges":[{"opening":"08:00","closing":"20:00"}]},{"weekDay":4,"timeRanges":[{"opening":"08:00","closing":"20:00"}]},{"weekDay":5,"timeRanges":[{"opening":"08:00","closing":"20:00"}]},{"weekDay":6,"timeRanges":[{"opening":"08:00","closing":"20:00"}]}]},{"storeNumber":"79","address":{"name":"dm drogerie markt d.o.o.","street":"Trg komandanta Staneta 8","zip":"1000","city":"Ljubljana"},"location":{"lat":46.0759656,"lon":14.4814317},"openingHours":[{"weekDay":1,"timeRanges":[{"opening":"07:30","closing":"20:00"}]},{"weekDay":2,"timeRanges":[{"opening":"07:30","closing":"20:00"}]},{"weekDay":3,"timeRanges":[{"opening":"07:30","closing":"20:00"}]},{"weekDay":4,"timeRanges":[{"opening":"07:30","closing":"20:00"}]},{"weekDay":5,"timeRanges":[{"opening":"07:30","closing":"20:00"}]},{"weekDay":6,"timeRanges":[{"opening":"07:30","closing":"20:00"}]}]},{"storeNumber":"8","address":{"name":"dm drogerie markt d.o.o.","street":"Mariborska cesta 100","zip":"3000","city":"Celje"},"location":{"lat":46.2414254,"lon":15.2774315},"openingHours":[{"weekDay":1,"timeRanges":[{"opening":"08:00","closing":"21:00"}]},{"weekDay":2,"timeRanges":[{"opening":"08:00","closing":"21:00"}]},{"weekDay":3,"timeRanges":[{"opening":"08:00","closing":"21:00"}]},{"weekDay":4,"timeRanges":[{"opening":"08:00","closing":"21:00"}]},{"weekDay":5,"timeRanges":[{"opening":"08:00","closing":"21:00"}]},{"weekDay":6,"timeRanges":[{"opening":"08:00","closing":"21:00"}]}]},{"storeNumber":"80","address":{"name":"dm drogerie markt d.o.o.","street":"Ameri\u0161ka ulica 13","zip":"1000","city":"Ljubljana"},"location":{"lat":46.0656288,"lon":14.5430828},"openingHours":[{"weekDay":1,"timeRanges":[{"opening":"09:00","closing":"20:00"}]},{"weekDay":2,"timeRanges":[{"opening":"09:00","closing":"20:00"}]},{"weekDay":3,"timeRanges":[{"opening":"09:00","closing":"20:00"}]},{"weekDay":4,"timeRanges":[{"opening":"09:00","closing":"20:00"}]},{"weekDay":5,"timeRanges":[{"opening":"09:00","closing":"20:00"}]},{"weekDay":6,"timeRanges":[{"opening":"09:00","closing":"20:00"}]}]},{"storeNumber":"81","address":{"name":"dm drogerie markt d.o.o.","street":"Kopali\u0161ka 14","zip":"1410","city":"Zagorje"},"location":{"lat":46.1378491,"lon":14.9905921},"openingHours":[{"weekDay":1,"timeRanges":[{"opening":"07:30","closing":"20:00"}]},{"weekDay":2,"timeRanges":[{"opening":"07:30","closing":"20:00"}]},{"weekDay":3,"timeRanges":[{"opening":"07:30","closing":"20:00"}]},{"weekDay":4,"timeRanges":[{"opening":"07:30","closing":"20:00"}]},{"weekDay":5,"timeRanges":[{"opening":"07:30","closing":"20:00"}]},{"weekDay":6,"timeRanges":[{"opening":"07:30","closing":"18:00"}]}]},{"storeNumber":"83","address":{"name":"dm drogerie markt d.o.o.","street":"Slovenska ulica 38","zip":"9000","city":"Murska Sobota"},"location":{"lat":46.66032,"lon":16.1655},"openingHours":[{"weekDay":1,"timeRanges":[{"opening":"08:00","closing":"19:00"}]},{"weekDay":2,"timeRanges":[{"opening":"08:00","closing":"19:00"}]},{"weekDay":3,"timeRanges":[{"opening":"08:00","closing":"19:00"}]},{"weekDay":4,"timeRanges":[{"opening":"08:00","closing":"19:00"}]},{"weekDay":5,"timeRanges":[{"opening":"08:00","closing":"19:00"}]},{"weekDay":6,"timeRanges":[{"opening":"08:00","closing":"13:00"}]}]},{"storeNumber":"84","address":{"name":"dm drogerie markt d.o.o.","street":"Kardeljeva cesta 59","zip":"2000","city":"Maribor"},"location":{"lat":46.54249,"lon":15.63357},"openingHours":[{"weekDay":1,"timeRanges":[{"opening":"08:00","closing":"19:00"}]},{"weekDay":2,"timeRanges":[{"opening":"08:00","closing":"19:00"}]},{"weekDay":3,"timeRanges":[{"opening":"08:00","closing":"19:00"}]},{"weekDay":4,"timeRanges":[{"opening":"08:00","closing":"19:00"}]},{"weekDay":5,"timeRanges":[{"opening":"08:00","closing":"19:00"}]},{"weekDay":6,"timeRanges":[{"opening":"08:00","closing":"13:00"}]}]},{"storeNumber":"85","address":{"name":"dm drogerie markt d.o.o.","street":"Francetova ulica 16","zip":"2380","city":"Slovenj Gradec"},"location":{"lat":46.5133807,"lon":15.0827226},"openingHours":[{"weekDay":1,"timeRanges":[{"opening":"08:00","closing":"20:00"}]},{"weekDay":2,"timeRanges":[{"opening":"08:00","closing":"20:00"}]},{"weekDay":3,"timeRanges":[{"opening":"08:00","closing":"20:00"}]},{"weekDay":4,"timeRanges":[{"opening":"08:00","closing":"20:00"}]},{"weekDay":5,"timeRanges":[{"opening":"08:00","closing":"20:00"}]},{"weekDay":6,"timeRanges":[{"opening":"08:00","closing":"20:00"}]}]},{"storeNumber":"88","address":{"name":"dm drogerie markt d.o.o.","street":"Celjska cesta 40","zip":"3320","city":"Velenje"},"location":{"lat":46.3523977,"lon":15.1273997},"openingHours":[{"weekDay":1,"timeRanges":[{"opening":"09:00","closing":"20:00"}]},{"weekDay":2,"timeRanges":[{"opening":"09:00","closing":"20:00"}]},{"weekDay":3,"timeRanges":[{"opening":"09:00","closing":"20:00"}]},{"weekDay":4,"timeRanges":[{"opening":"09:00","closing":"20:00"}]},{"weekDay":5,"timeRanges":[{"opening":"09:00","closing":"20:00"}]},{"weekDay":6,"timeRanges":[{"opening":"08:00","closing":"20:00"}]}]},{"storeNumber":"89","address":{"name":"dm drogerie markt d.o.o.","street":"Ulica 15. maja 24","zip":"6000","city":"Koper"},"location":{"lat":45.53806,"lon":13.72872},"openingHours":[{"weekDay":1,"timeRanges":[{"opening":"08:00","closing":"20:00"}]},{"weekDay":2,"timeRanges":[{"opening":"08:00","closing":"20:00"}]},{"weekDay":3,"timeRanges":[{"opening":"08:00","closing":"20:00"}]},{"weekDay":4,"timeRanges":[{"opening":"08:00","closing":"20:00"}]},{"weekDay":5,"timeRanges":[{"opening":"08:00","closing":"20:00"}]},{"weekDay":6,"timeRanges":[{"opening":"08:00","closing":"17:00"}]}]},{"storeNumber":"9","address":{"name":"dm drogerie markt d.o.o.","street":"Dunajska cesta 48","zip":"1000","city":"Ljubljana"},"location":{"lat":46.0640491,"lon":14.5092228},"openingHours":[{"weekDay":1,"timeRanges":[{"opening":"08:00","closing":"19:00"}]},{"weekDay":2,"timeRanges":[{"opening":"08:00","closing":"19:00"}]},{"weekDay":3,"timeRanges":[{"opening":"08:00","closing":"19:00"}]},{"weekDay":4,"timeRanges":[{"opening":"08:00","closing":"19:00"}]},{"weekDay":5,"timeRanges":[{"opening":"08:00","closing":"19:00"}]},{"weekDay":6,"timeRanges":[{"opening":"08:00","closing":"13:30"}]}]},{"storeNumber":"90","address":{"name":"dm drogerie markt d.o.o.","street":"Ankaranska cesta 4","zip":"6000","city":"Koper"},"location":{"lat":45.5414506,"lon":13.736741},"openingHours":[{"weekDay":1,"timeRanges":[{"opening":"09:00","closing":"21:00"}]},{"weekDay":2,"timeRanges":[{"opening":"09:00","closing":"21:00"}]},{"weekDay":3,"timeRanges":[{"opening":"09:00","closing":"21:00"}]},{"weekDay":4,"timeRanges":[{"opening":"09:00","closing":"21:00"}]},{"weekDay":5,"timeRanges":[{"opening":"09:00","closing":"21:00"}]},{"weekDay":6,"timeRanges":[{"opening":"09:00","closing":"21:00"}]}]},{"storeNumber":"91","address":{"name":"dm drogerie markt d.o.o.","street":"Pre\u0161ernova ulica 7","zip":"3000","city":"Celje"},"location":{"lat":46.22857,"lon":15.26468},"openingHours":[{"weekDay":1,"timeRanges":[{"opening":"08:00","closing":"19:00"}]},{"weekDay":2,"timeRanges":[{"opening":"08:00","closing":"19:00"}]},{"weekDay":3,"timeRanges":[{"opening":"08:00","closing":"19:00"}]},{"weekDay":4,"timeRanges":[{"opening":"08:00","closing":"19:00"}]},{"weekDay":5,"timeRanges":[{"opening":"08:00","closing":"19:00"}]},{"weekDay":6,"timeRanges":[{"opening":"08:00","closing":"13:00"}]}]},{"storeNumber":"93","address":{"name":"dm drogerie markt d.o.o.","street":"Je\u017ea 2c","zip":"1270","city":"Litija"},"location":{"lat":46.0593228,"lon":14.8390752},"openingHours":[{"weekDay":1,"timeRanges":[{"opening":"08:00","closing":"20:00"}]},{"weekDay":2,"timeRanges":[{"opening":"08:00","closing":"20:00"}]},{"weekDay":3,"timeRanges":[{"opening":"08:00","closing":"20:00"}]},{"weekDay":4,"timeRanges":[{"opening":"08:00","closing":"20:00"}]},{"weekDay":5,"timeRanges":[{"opening":"08:00","closing":"20:00"}]},{"weekDay":6,"timeRanges":[{"opening":"08:00","closing":"17:00"}]}]},{"storeNumber":"94","address":{"name":"dm drogerie markt d.o.o.","street":"Ulica Eve Lov\u0161e 1","zip":"2000","city":"Maribor"},"location":{"lat":46.5393206,"lon":15.6406552},"openingHours":[{"weekDay":1,"timeRanges":[{"opening":"08:00","closing":"21:00"}]},{"weekDay":2,"timeRanges":[{"opening":"08:00","closing":"21:00"}]},{"weekDay":3,"timeRanges":[{"opening":"08:00","closing":"21:00"}]},{"weekDay":4,"timeRanges":[{"opening":"08:00","closing":"21:00"}]},{"weekDay":5,"timeRanges":[{"opening":"08:00","closing":"21:00"}]},{"weekDay":6,"timeRanges":[{"opening":"08:00","closing":"21:00"}]}]},{"storeNumber":"95","address":{"name":"dm drogerie markt d.o.o.","street":"Prvomajska c. 35","zip":"5000","city":"Nova Gorica"},"location":{"lat":45.9612776,"lon":13.6392195},"openingHours":[{"weekDay":1,"timeRanges":[{"opening":"09:00","closing":"21:00"}]},{"weekDay":2,"timeRanges":[{"opening":"09:00","closing":"21:00"}]},{"weekDay":3,"timeRanges":[{"opening":"09:00","closing":"21:00"}]},{"weekDay":4,"timeRanges":[{"opening":"09:00","closing":"21:00"}]},{"weekDay":5,"timeRanges":[{"opening":"09:00","closing":"21:00"}]},{"weekDay":6,"timeRanges":[{"opening":"08:00","closing":"21:00"}]}]},{"storeNumber":"96","address":{"name":"dm drogerie markt d.o.o.","street":"\u0160ale\u0161ka 21","zip":"3320","city":"Velenje"},"location":{"lat":46.3596419,"lon":15.1179316},"openingHours":[{"weekDay":1,"timeRanges":[{"opening":"07:30","closing":"20:00"}]},{"weekDay":2,"timeRanges":[{"opening":"07:30","closing":"20:00"}]},{"weekDay":3,"timeRanges":[{"opening":"07:30","closing":"20:00"}]},{"weekDay":4,"timeRanges":[{"opening":"07:30","closing":"20:00"}]},{"weekDay":5,"timeRanges":[{"opening":"07:30","closing":"20:00"}]},{"weekDay":6,"timeRanges":[{"opening":"07:30","closing":"13:00"}]}]},{"storeNumber":"97","address":{"name":"dm drogerie markt d.o.o.","street":"Ljubljanska cesta 47","zip":"8000","city":"Novo mesto"},"location":{"lat":45.82137,"lon":15.1553},"openingHours":[{"weekDay":1,"timeRanges":[{"opening":"08:00","closing":"21:00"}]},{"weekDay":2,"timeRanges":[{"opening":"08:00","closing":"21:00"}]},{"weekDay":3,"timeRanges":[{"opening":"08:00","closing":"21:00"}]},{"weekDay":4,"timeRanges":[{"opening":"08:00","closing":"21:00"}]},{"weekDay":5,"timeRanges":[{"opening":"08:00","closing":"21:00"}]},{"weekDay":6,"timeRanges":[{"opening":"08:00","closing":"21:00"}]}]},{"storeNumber":"98","address":{"name":"dm drogerie markt d.o.o.","street":"Obrtni\u0161ka 14","zip":"8210","city":"Trebnje"},"location":{"lat":45.90788,"lon":15.0246},"openingHours":[{"weekDay":1,"timeRanges":[{"opening":"08:00","closing":"20:00"}]},{"weekDay":2,"timeRanges":[{"opening":"08:00","closing":"20:00"}]},{"weekDay":3,"timeRanges":[{"opening":"08:00","closing":"20:00"}]},{"weekDay":4,"timeRanges":[{"opening":"08:00","closing":"20:00"}]},{"weekDay":5,"timeRanges":[{"opening":"08:00","closing":"20:00"}]},{"weekDay":6,"timeRanges":[{"opening":"08:00","closing":"20:00"}]}]},{"storeNumber":"99","address":{"name":"dm drogerie markt d.o.o.","street":"Lendavska 66","zip":"9000","city":"Murska Sobota"},"location":{"lat":46.66826,"lon":16.17928},"openingHours":[{"weekDay":1,"timeRanges":[{"opening":"08:00","closing":"20:00"}]},{"weekDay":2,"timeRanges":[{"opening":"08:00","closing":"20:00"}]},{"weekDay":3,"timeRanges":[{"opening":"08:00","closing":"20:00"}]},{"weekDay":4,"timeRanges":[{"opening":"08:00","closing":"20:00"}]},{"weekDay":5,"timeRanges":[{"opening":"08:00","closing":"20:00"}]},{"weekDay":6,"timeRanges":[{"opening":"08:00","closing":"20:00"}]}]}]