[{"storeNumber":"10","address":{"name":"dm drogerie markt doo","street":"Bulevar Oslobo\u0111enja 30","zip":"21000","city":"Novi Sad"},"location":{"lat":45.260525,"lon":19.832575},"openingHours":[{"weekDay":1,"timeRanges":[{"opening":"08:00","closing":"21:00"}]},{"weekDay":2,"timeRanges":[{"opening":"08:00","closing":"21:00"}]},{"weekDay":3,"timeRanges":[{"opening":"08:00","closing":"21:00"}]},{"weekDay":4,"timeRanges":[{"opening":"08:00","closing":"21:00"}]},{"weekDay":5,"timeRanges":[{"opening":"08:00","closing":"21:00"}]},{"weekDay":6,"timeRanges":[{"opening":"09:00","closing":"18:00"}]}]},{"storeNumber":"100","address":{"name":"dm drogerie markt doo","street":"\u0110ure \u0110akovi\u0107a bb","zip":"12000","city":"Po\u017earevac"},"location":{"lat":44.610454,"lon":21.175181},"openingHours":[{"weekDay":1,"timeRanges":[{"opening":"09:00","closing":"22:00"}]},{"weekDay":2,"timeRanges":[{"opening":"09:00","closing":"22:00"}]},{"weekDay":3,"timeRanges":[{"opening":"09:00","closing":"22:00"}]},{"weekDay":4,"timeRanges":[{"opening":"09:00","closing":"22:00"}]},{"weekDay":5,"timeRanges":[{"opening":"09:00","closing":"22:00"}]},{"weekDay":6,"timeRanges":[{"opening":"09:00","closing":"22:00"}]},{"weekDay":7,"timeRanges":[{"opening":"09:00","closing":"22:00"}]}]},{"storeNumber":"101","address":{"name":"dm drogerie markt doo","street":"Ustani\u010dka 170","zip":"11050","city":"Beograd"},"location":{"lat":44.783153,"lon":20.501001},"openingHours":[{"weekDay":1,"timeRanges":[{"opening":"08:00","closing":"21:00"}]},{"weekDay":2,"timeRanges":[{"opening":"08:00","closing":"21:00"}]},{"weekDay":3,"timeRanges":[{"opening":"08:00","closing":"21:00"}]},{"weekDay":4,"timeRanges":[{"opening":"08:00","closing":"21:00"}]},{"weekDay":5,"timeRanges":[{"opening":"08:00","closing":"21:00"}]},{"weekDay":6,"timeRanges":[{"opening":"08:00","closing":"21:00"}]},{"weekDay":7,"timeRanges":[{"opening":"09:00","closing":"19:00"}]}]},{"storeNumber":"102","address":{"name":"dm drogerie markt doo","street":"Svetosavska 13-15","zip":"22300","city":"Stara Pazova"},"location":{"lat":44.985141,"lon":20.162243},"openingHours":[{"weekDay":1,"timeRanges":[{"opening":"08:00","closing":"21:00"}]},{"weekDay":2,"timeRanges":[{"opening":"08:00","closing":"21:00"}]},{"weekDay":3,"timeRanges":[{"opening":"08:00","closing":"21:00"}]},{"weekDay":4,"timeRanges":[{"opening":"08:00","closing":"21:00"}]},{"weekDay":5,"timeRanges":[{"opening":"08:00","closing":"21:00"}]},{"weekDay":6,"timeRanges":[{"opening":"09:00","closing":"18:00"}]}]},{"storeNumber":"103","address":{"name":"dm drogerie markt doo","street":"Milo\u0161a Obili\u0107a bb","zip":"26300","city":"Vr\u0161ac"},"location":{"lat":45.131683,"lon":21.285774},"openingHours":[{"weekDay":1,"timeRanges":[{"opening":"09:00","closing":"22:00"}]},{"weekDay":2,"timeRanges":[{"opening":"09:00","closing":"22:00"}]},{"weekDay":3,"timeRanges":[{"opening":"09:00","closing":"22:00"}]},{"weekDay":4,"timeRanges":[{"opening":"09:00","closing":"22:00"}]},{"weekDay":5,"timeRanges":[{"opening":"09:00","closing":"22:00"}]},{"weekDay":6,"timeRanges":[{"opening":"09:00","closing":"22:00"}]},{"weekDay":7,"timeRanges":[{"opening":"09:00","closing":"22:00"}]}]},{"storeNumber":"104","address":{"name":"dm drogerie markt doo","street":"Jurija Gagarina 30g","zip":"11070","city":"Beograd"},"location":{"lat":44.803787,"lon":20.387141},"openingHours":[{"weekDay":1,"timeRanges":[{"opening":"08:00","closing":"21:00"}]},{"weekDay":2,"timeRanges":[{"opening":"08:00","closing":"21:00"}]},{"weekDay":3,"timeRanges":[{"opening":"08:00","closing":"21:00"}]},{"weekDay":4,"timeRanges":[{"opening":"08:00","closing":"21:00"}]},{"weekDay":5,"timeRanges":[{"opening":"08:00","closing":"21:00"}]},{"weekDay":6,"timeRanges":[{"opening":"08:00","closing":"21:00"}]},{"weekDay":7,"timeRanges":[{"opening":"08:00","closing":"21:00"}]}]},{"storeNumber":"105","address":{"name":"dm drogerie markt doo","street":"Zaplanjska 32","zip":"11010","city":"Beograd"},"location":{"lat":44.774883,"lon":20.490372},"openingHours":[{"weekDay":1,"timeRanges":[{"opening":"10:00","closing":"22:00"}]},{"weekDay":2,"timeRanges":[{"opening":"10:00","closing":"22:00"}]},{"weekDay":3,"timeRanges":[{"opening":"10:00","closing":"22:00"}]},{"weekDay":4,"timeRanges":[{"opening":"10:00","closing":"22:00"}]},{"weekDay":5,"timeRanges":[{"opening":"10:00","closing":"22:00"}]},{"weekDay":6,"timeRanges":[{"opening":"10:00","closing":"22:00"}]},{"weekDay":7,"timeRanges":[{"opening":"10:00","closing":"22:00"}]}]},{"storeNumber":"106","address":{"name":"dm drogerie markt doo","street":"Du\u0161ana Popovi\u0107a 39a","zip":"36000","city":"Kraljevo"},"location":{"lat":43.71566,"lon":20.693048},"openingHours":[{"weekDay":1,"timeRanges":[{"opening":"09:00","closing":"22:00"}]},{"weekDay":2,"timeRanges":[{"opening":"09:00","closing":"22:00"}]},{"weekDay":3,"timeRanges":[{"opening":"09:00","closing":"22:00"}]},{"weekDay":4,"timeRanges":[{"opening":"09:00","closing":"22:00"}]},{"weekDay":5,"timeRanges":[{"opening":"09:00","closing":"22:00"}]},{"weekDay":6,"timeRanges":[{"opening":"09:00","closing":"22:00"}]},{"weekDay":7,"timeRanges":[{"opening":"09:00","closing":"22:00"}]}]},{"storeNumber":"107","address":{"name":"dm drogerie markt doo","street":"Bulevar Konstantina Velikog","zip":"22000","city":"Sremska Mitrovica"},"location":{"lat":44.977078,"lon":19.591824},"openingHours":[{"weekDay":1,"timeRanges":[{"opening":"09:00","closing":"22:00"}]},{"weekDay":2,"timeRanges":[{"opening":"09:00","closing":"22:00"}]},{"weekDay":3,"timeRanges":[{"opening":"09:00","closing":"22:00"}]},{"weekDay":4,"timeRanges":[{"opening":"09:00","closing":"22:00"}]},{"weekDay":5,"timeRanges":[{"opening":"09:00","closing":"22:00"}]},{"weekDay":6,"timeRanges":[{"opening":"09:00","closing":"22:00"}]},{"weekDay":7,"timeRanges":[{"opening":"09:00","closing":"22:00"}]}]},{"storeNumber":"108","address":{"name":"dm drogerie markt doo","street":"Radni\u010dka 9","zip":"11000","city":"Beograd"},"location":{"lat":44.787537,"lon":20.418228},"openingHours":[{"weekDay":1,"timeRanges":[{"opening":"10:00","closing":"22:00"}]},{"weekDay":2,"timeRanges":[{"opening":"10:00","closing":"22:00"}]},{"weekDay":3,"timeRanges":[{"opening":"10:00","closing":"22:00"}]},{"weekDay":4,"timeRanges":[{"opening":"10:00","closing":"22:00"}]},{"weekDay":5,"timeRanges":[{"opening":"10:00","closing":"22:00"}]},{"weekDay":6,"timeRanges":[{"opening":"10:00","closing":"22:00"}]},{"weekDay":7,"timeRanges":[{"opening":"10:00","closing":"22:00"}]}]},{"storeNumber":"109","address":{"name":"dm drogerie markt doo","street":"Drage Spasi\u0107 32a","zip":"11000","city":"Beograd"},"location":{"lat":44.75804,"lon":20.41631},"openingHours":[{"weekDay":1,"timeRanges":[{"opening":"08:00","closing":"21:00"}]},{"weekDay":2,"timeRanges":[{"opening":"08:00","closing":"21:00"}]},{"weekDay":3,"timeRanges":[{"opening":"08:00","closing":"21:00"}]},{"weekDay":4,"timeRanges":[{"opening":"08:00","closing":"21:00"}]},{"weekDay":5,"timeRanges":[{"opening":"08:00","closing":"21:00"}]},{"weekDay":6,"timeRanges":[{"opening":"08:00","closing":"21:00"}]},{"weekDay":7,"timeRanges":[{"opening":"09:00","closing":"15:00"}]}]},{"storeNumber":"110","address":{"name":"dm drogerie markt doo","street":"Kralja Milana 35","zip":"11000","city":"Beograd"},"location":{"lat":44.80429,"lon":20.46593},"openingHours":[{"weekDay":1,"timeRanges":[{"opening":"08:00","closing":"21:00"}]},{"weekDay":2,"timeRanges":[{"opening":"08:00","closing":"21:00"}]},{"weekDay":3,"timeRanges":[{"opening":"08:00","closing":"21:00"}]},{"weekDay":4,"timeRanges":[{"opening":"08:00","closing":"21:00"}]},{"weekDay":5,"timeRanges":[{"opening":"08:00","closing":"21:00"}]},{"weekDay":6,"timeRanges":[{"opening":"08:00","closing":"21:00"}]},{"weekDay":7,"timeRanges":[{"opening":"09:00","closing":"21:00"}]}]},{"storeNumber":"111","address":{"name":"dm drogerie markt doo","street":"Vi\u0161nji\u0107eva 8","zip":"11000","city":"Beograd"},"location":{"lat":44.821415,"lon":20.459851},"openingHours":[{"weekDay":1,"timeRanges":[{"opening":"08:00","closing":"21:00"}]},{"weekDay":2,"timeRanges":[{"opening":"08:00","closing":"21:00"}]},{"weekDay":3,"timeRanges":[{"opening":"08:00","closing":"21:00"}]},{"weekDay":4,"timeRanges":[{"opening":"08:00","closing":"21:00"}]},{"weekDay":5,"timeRanges":[{"opening":"08:00","closing":"21:00"}]},{"weekDay":6,"timeRanges":[{"opening":"08:00","closing":"21:00"}]},{"weekDay":7,"timeRanges":[{"opening":"09:00","closing":"21:00"}]}]},{"storeNumber":"112","address":{"name":"dm drogerie markt doo","street":"Save Kova\u010devi\u0107a bb","zip":"36300","city":"Novi Pazar"},"location":{"lat":43.14114,"lon":20.52263},"openingHours":[{"weekDay":1,"timeRanges":[{"opening":"09:00","closing":"21:00"}]},{"weekDay":2,"timeRanges":[{"opening":"09:00","closing":"21:00"}]},{"weekDay":3,"timeRanges":[{"opening":"09:00","closing":"21:00"}]},{"weekDay":4,"timeRanges":[{"opening":"09:00","closing":"21:00"}]},{"weekDay":5,"timeRanges":[{"opening":"09:00","closing":"21:00"}]},{"weekDay":6,"timeRanges":[{"opening":"09:00","closing":"21:00"}]},{"weekDay":7,"timeRanges":[{"opening":"09:00","closing":"17:00"}]}]},{"storeNumber":"113","address":{"name":"dm drogerie markt doo","street":"Kneginje Milice 10","zip":"35000","city":"Jagodina"},"location":{"lat":43.979251,"lon":21.259887},"openingHours":[{"weekDay":1,"timeRanges":[{"opening":"08:00","closing":"21:00"}]},{"weekDay":2,"timeRanges":[{"opening":"08:00","closing":"21:00"}]},{"weekDay":3,"timeRanges":[{"opening":"08:00","closing":"21:00"}]},{"weekDay":4,"timeRanges":[{"opening":"08:00","closing":"21:00"}]},{"weekDay":5,"timeRanges":[{"opening":"08:00","closing":"21:00"}]},{"weekDay":6,"timeRanges":[{"opening":"08:00","closing":"19:00"}]},{"weekDay":7,"timeRanges":[{"opening":"09:00","closing":"16:00"}]}]},{"storeNumber":"114","address":{"name":"dm drogerie markt doo","street":"\u010cika Ljubina 9","zip":"11000","city":"Beograd"},"location":{"lat":44.817103,"lon":20.458708},"openingHours":[{"weekDay":1,"timeRanges":[{"opening":"08:00","closing":"22:00"}]},{"weekDay":2,"timeRanges":[{"opening":"08:00","closing":"22:00"}]},{"weekDay":3,"timeRanges":[{"opening":"08:00","closing":"22:00"}]},{"weekDay":4,"timeRanges":[{"opening":"08:00","closing":"22:00"}]},{"weekDay":5,"timeRanges":[{"opening":"08:00","closing":"22:00"}]},{"weekDay":6,"timeRanges":[{"opening":"08:00","closing":"22:00"}]},{"weekDay":7,"timeRanges":[{"opening":"09:00","closing":"22:00"}]}]},{"storeNumber":"115","address":{"name":"dm drogerie markt doo","street":"Bulevar Oslobo\u0111enja 119","zip":"21000","city":"Novi Sad"},"location":{"lat":45.244732,"lon":19.841787},"openingHours":[{"weekDay":1,"timeRanges":[{"opening":"09:00","closing":"22:00"}]},{"weekDay":2,"timeRanges":[{"opening":"09:00","closing":"22:00"}]},{"weekDay":3,"timeRanges":[{"opening":"09:00","closing":"22:00"}]},{"weekDay":4,"timeRanges":[{"opening":"09:00","closing":"22:00"}]},{"weekDay":5,"timeRanges":[{"opening":"09:00","closing":"22:00"}]},{"weekDay":6,"timeRanges":[{"opening":"09:00","closing":"22:00"}]},{"weekDay":7,"timeRanges":[{"opening":"09:00","closing":"22:00"}]}]},{"storeNumber":"116","address":{"name":"dm drogerie markt doo","street":"Bulevar Kraljice Marije 56","zip":"34000","city":"Kragujevac"},"location":{"lat":44.008983,"lon":20.897216},"openingHours":[{"weekDay":1,"timeRanges":[{"opening":"10:00","closing":"22:00"}]},{"weekDay":2,"timeRanges":[{"opening":"10:00","closing":"22:00"}]},{"weekDay":3,"timeRanges":[{"opening":"10:00","closing":"22:00"}]},{"weekDay":4,"timeRanges":[{"opening":"10:00","closing":"22:00"}]},{"weekDay":5,"timeRanges":[{"opening":"10:00","closing":"22:00"}]},{"weekDay":6,"timeRanges":[{"opening":"10:00","closing":"22:00"}]},{"weekDay":7,"timeRanges":[{"opening":"10:00","closing":"22:00"}]}]},{"storeNumber":"117","address":{"name":"dm drogerie markt doo","street":"Krfska 5","zip":"37000","city":"Kru\u0161evac"},"location":{"lat":43.5692161,"lon":21.3401113},"openingHours":[{"weekDay":1,"timeRanges":[{"opening":"09:00","closing":"22:00"}]},{"weekDay":2,"timeRanges":[{"opening":"09:00","closing":"22:00"}]},{"weekDay":3,"timeRanges":[{"opening":"09:00","closing":"22:00"}]},{"weekDay":4,"timeRanges":[{"opening":"09:00","closing":"22:00"}]},{"weekDay":5,"timeRanges":[{"opening":"09:00","closing":"22:00"}]},{"weekDay":6,"timeRanges":[{"opening":"09:00","closing":"22:00"}]},{"weekDay":7,"timeRanges":[{"opening":"09:00","closing":"22:00"}]}]},{"storeNumber":"119","address":{"name":"dm drogerie markt doo","street":"\u010cupi\u0107eva 2","zip":"19000","city":"Zaje\u010dar"},"location":{"lat":43.902923,"lon":22.269034},"openingHours":[{"weekDay":1,"timeRanges":[{"opening":"09:00","closing":"22:00"}]},{"weekDay":2,"timeRanges":[{"opening":"09:00","closing":"22:00"}]},{"weekDay":3,"timeRanges":[{"opening":"09:00","closing":"22:00"}]},{"weekDay":4,"timeRanges":[{"opening":"09:00","closing":"22:00"}]},{"weekDay":5,"timeRanges":[{"opening":"09:00","closing":"22:00"}]},{"weekDay":6,"timeRanges":[{"opening":"09:00","closing":"22:00"}]},{"weekDay":7,"timeRanges":[{"opening":"09:00","closing":"22:00"}]}]},{"storeNumber":"12","address":{"name":"dm drogerie markt doo","street":"Bulevar Mihajla Pupina 181","zip":"11000","city":"Beograd"},"location":{"lat":44.831498,"lon":20.410092},"openingHours":[{"weekDay":1,"timeRanges":[{"opening":"08:00","closing":"21:00"}]},{"weekDay":2,"timeRanges":[{"opening":"08:00","closing":"21:00"}]},{"weekDay":3,"timeRanges":[{"opening":"08:00","closing":"21:00"}]},{"weekDay":4,"timeRanges":[{"opening":"08:00","closing":"21:00"}]},{"weekDay":5,"timeRanges":[{"opening":"08:00","closing":"21:00"}]},{"weekDay":6,"timeRanges":[{"opening":"08:00","closing":"21:00"}]},{"weekDay":7,"timeRanges":[{"opening":"09:00","closing":"17:00"}]}]},{"storeNumber":"120","address":{"name":"dm drogerie markt doo","street":"Bulevar Evrope 26","zip":"21000","city":"Novi Sad"},"location":{"lat":45.244541,"lon":19.81976},"openingHours":[{"weekDay":1,"timeRanges":[{"opening":"08:00","closing":"21:00"}]},{"weekDay":2,"timeRanges":[{"opening":"08:00","closing":"21:00"}]},{"weekDay":3,"timeRanges":[{"opening":"08:00","closing":"21:00"}]},{"weekDay":4,"timeRanges":[{"opening":"08:00","closing":"21:00"}]},{"weekDay":5,"timeRanges":[{"opening":"08:00","closing":"21:00"}]},{"weekDay":6,"timeRanges":[{"opening":"09:00","closing":"21:00"}]},{"weekDay":7,"timeRanges":[{"opening":"09:00","closing":"15:00"}]}]},{"storeNumber":"121","address":{"name":"dm drogerie markt doo","street":"Vojislava Ili\u0107a 141","zip":"11050","city":"Beograd"},"location":{"lat":44.786808,"lon":20.501837},"openingHours":[{"weekDay":1,"timeRanges":[{"opening":"10:00","closing":"22:00"}]},{"weekDay":2,"timeRanges":[{"opening":"10:00","closing":"22:00"}]},{"weekDay":3,"timeRanges":[{"opening":"10:00","closing":"22:00"}]},{"weekDay":4,"timeRanges":[{"opening":"10:00","closing":"22:00"}]},{"weekDay":5,"timeRanges":[{"opening":"10:00","closing":"22:00"}]},{"weekDay":6,"timeRanges":[{"opening":"10:00","closing":"22:00"}]},{"weekDay":7,"timeRanges":[{"opening":"10:00","closing":"22:00"}]}]},{"storeNumber":"122","address":{"name":"dm drogerie markt doo","street":"Uralska 3","zip":"11000","city":"Beograd"},"location":{"lat":44.816896,"lon":20.511653},"openingHours":[{"weekDay":1,"timeRanges":[{"opening":"09:30","closing":"22:00"}]},{"weekDay":2,"timeRanges":[{"opening":"09:30","closing":"22:00"}]},{"weekDay":3,"timeRanges":[{"opening":"09:30","closing":"22:00"}]},{"weekDay":4,"timeRanges":[{"opening":"09:30","closing":"22:00"}]},{"weekDay":5,"timeRanges":[{"opening":"09:30","closing":"22:00"}]},{"weekDay":6,"timeRanges":[{"opening":"09:30","closing":"22:00"}]},{"weekDay":7,"timeRanges":[{"opening":"09:30","closing":"22:00"}]}]},{"storeNumber":"123","address":{"name":"dm drogerie markt doo","street":"Ju\u017eni Bulevar 98","zip":"11000","city":"Beograd"},"location":{"lat":44.793524,"lon":20.481285},"openingHours":[{"weekDay":1,"timeRanges":[{"opening":"08:00","closing":"21:00"}]},{"weekDay":2,"timeRanges":[{"opening":"08:00","closing":"21:00"}]},{"weekDay":3,"timeRanges":[{"opening":"08:00","closing":"21:00"}]},{"weekDay":4,"timeRanges":[{"opening":"08:00","closing":"21:00"}]},{"weekDay":5,"timeRanges":[{"opening":"08:00","closing":"21:00"}]},{"weekDay":6,"timeRanges":[{"opening":"08:00","closing":"21:00"}]},{"weekDay":7,"timeRanges":[{"opening":"09:00","closing":"18:00"}]}]},{"storeNumber":"124","address":{"name":"dm drogerie markt doo","street":"Rudni\u010dka 14","zip":"11000","city":"Beograd"},"location":{"lat":44.792368,"lon":20.468695},"openingHours":[{"weekDay":1,"timeRanges":[{"opening":"08:00","closing":"21:00"}]},{"weekDay":2,"timeRanges":[{"opening":"08:00","closing":"21:00"}]},{"weekDay":3,"timeRanges":[{"opening":"08:00","closing":"21:00"}]},{"weekDay":4,"timeRanges":[{"opening":"08:00","closing":"21:00"}]},{"weekDay":5,"timeRanges":[{"opening":"08:00","closing":"21:00"}]},{"weekDay":6,"timeRanges":[{"opening":"08:00","closing":"21:00"}]},{"weekDay":7,"timeRanges":[{"opening":"09:00","closing":"18:00"}]}]},{"storeNumber":"125","address":{"name":"dm drogerie markt doo","street":"Bulevar oslobo\u0111enja bb","zip":"16000","city":"Leskovac"},"location":{"lat":42.996126,"lon":21.944776},"openingHours":[{"weekDay":1,"timeRanges":[{"opening":"08:00","closing":"22:00"}]},{"weekDay":2,"timeRanges":[{"opening":"08:00","closing":"22:00"}]},{"weekDay":3,"timeRanges":[{"opening":"08:00","closing":"22:00"}]},{"weekDay":4,"timeRanges":[{"opening":"08:00","closing":"22:00"}]},{"weekDay":5,"timeRanges":[{"opening":"08:00","closing":"22:00"}]},{"weekDay":6,"timeRanges":[{"opening":"08:00","closing":"22:00"}]},{"weekDay":7,"timeRanges":[{"opening":"09:00","closing":"15:00"}]}]},{"storeNumber":"126","address":{"name":"dm drogerie markt doo","street":"Bra\u0107e Radi\u0107 120","zip":"24000","city":"Subotica"},"location":{"lat":46.089779,"lon":19.673722},"openingHours":[{"weekDay":1,"timeRanges":[{"opening":"08:00","closing":"21:00"}]},{"weekDay":2,"timeRanges":[{"opening":"08:00","closing":"21:00"}]},{"weekDay":3,"timeRanges":[{"opening":"08:00","closing":"21:00"}]},{"weekDay":4,"timeRanges":[{"opening":"08:00","closing":"21:00"}]},{"weekDay":5,"timeRanges":[{"opening":"08:00","closing":"21:00"}]},{"weekDay":6,"timeRanges":[{"opening":"08:00","closing":"21:00"}]},{"weekDay":7,"timeRanges":[{"opening":"09:00","closing":"15:00"}]}]},{"storeNumber":"127","address":{"name":"dm drogerie markt doo","street":"Rumena\u010dka 134-140","zip":"21000","city":"Novi Sad"},"location":{"lat":45.262419,"lon":19.819435},"openingHours":[{"weekDay":1,"timeRanges":[{"opening":"08:00","closing":"21:00"}]},{"weekDay":2,"timeRanges":[{"opening":"08:00","closing":"21:00"}]},{"weekDay":3,"timeRanges":[{"opening":"08:00","closing":"21:00"}]},{"weekDay":4,"timeRanges":[{"opening":"08:00","closing":"21:00"}]},{"weekDay":5,"timeRanges":[{"opening":"08:00","closing":"21:00"}]},{"weekDay":6,"timeRanges":[{"opening":"08:00","closing":"18:00"}]},{"weekDay":7,"timeRanges":[{"opening":"09:00","closing":"15:00"}]}]},{"storeNumber":"128","address":{"name":"dm drogerie markt doo","street":"Milo\u0161a Velikog 5g","zip":"32300","city":"Gornji Milanovac"},"location":{"lat":44.020874,"lon":20.460352},"openingHours":[{"weekDay":1,"timeRanges":[{"opening":"08:00","closing":"21:00"}]},{"weekDay":2,"timeRanges":[{"opening":"08:00","closing":"21:00"}]},{"weekDay":3,"timeRanges":[{"opening":"08:00","closing":"21:00"}]},{"weekDay":4,"timeRanges":[{"opening":"08:00","closing":"21:00"}]},{"weekDay":5,"timeRanges":[{"opening":"08:00","closing":"21:00"}]},{"weekDay":6,"timeRanges":[{"opening":"08:00","closing":"21:00"}]},{"weekDay":7,"timeRanges":[{"opening":"09:00","closing":"15:00"}]}]},{"storeNumber":"129","address":{"name":"dm drogerie markt doo","street":"Jurija Gagarina 20e","zip":"11070","city":"Beograd"},"location":{"lat":44.804976,"lon":20.401156},"openingHours":[{"weekDay":1,"timeRanges":[{"opening":"08:00","closing":"21:00"}]},{"weekDay":2,"timeRanges":[{"opening":"08:00","closing":"21:00"}]},{"weekDay":3,"timeRanges":[{"opening":"08:00","closing":"21:00"}]},{"weekDay":4,"timeRanges":[{"opening":"08:00","closing":"21:00"}]},{"weekDay":5,"timeRanges":[{"opening":"08:00","closing":"21:00"}]},{"weekDay":6,"timeRanges":[{"opening":"08:00","closing":"21:00"}]},{"weekDay":7,"timeRanges":[{"opening":"09:00","closing":"18:00"}]}]},{"storeNumber":"131","address":{"name":"dm drogerie markt doo","street":"Bulevar Vudroa Vilsona 12","zip":"11000","city":"Beograd"},"location":{"lat":44.803013,"lon":20.44493},"openingHours":[{"weekDay":1,"timeRanges":[{"opening":"09:00","closing":"22:00"}]},{"weekDay":2,"timeRanges":[{"opening":"09:00","closing":"22:00"}]},{"weekDay":3,"timeRanges":[{"opening":"09:00","closing":"22:00"}]},{"weekDay":4,"timeRanges":[{"opening":"09:00","closing":"22:00"}]},{"weekDay":5,"timeRanges":[{"opening":"09:00","closing":"22:00"}]},{"weekDay":6,"timeRanges":[{"opening":"09:00","closing":"22:00"}]},{"weekDay":7,"timeRanges":[{"opening":"09:00","closing":"22:00"}]}]},{"storeNumber":"132","address":{"name":"dm drogerie markt doo","street":"Bulevar JNA 2G","zip":"11010","city":"Beograd"},"location":{"lat":44.750719,"lon":20.48056},"openingHours":[{"weekDay":1,"timeRanges":[{"opening":"08:00","closing":"21:00"}]},{"weekDay":2,"timeRanges":[{"opening":"08:00","closing":"21:00"}]},{"weekDay":3,"timeRanges":[{"opening":"08:00","closing":"21:00"}]},{"weekDay":4,"timeRanges":[{"opening":"08:00","closing":"21:00"}]},{"weekDay":5,"timeRanges":[{"opening":"08:00","closing":"21:00"}]},{"weekDay":6,"timeRanges":[{"opening":"08:00","closing":"21:00"}]},{"weekDay":7,"timeRanges":[{"opening":"08:00","closing":"18:00"}]}]},{"storeNumber":"133","address":{"name":"dm drogerie markt doo","street":"Bra\u0107e Jerkovi\u0107 137a","zip":"11040","city":"Beograd"},"location":{"lat":44.764033,"lon":20.494144},"openingHours":[{"weekDay":1,"timeRanges":[{"opening":"08:00","closing":"21:00"}]},{"weekDay":2,"timeRanges":[{"opening":"08:00","closing":"21:00"}]},{"weekDay":3,"timeRanges":[{"opening":"08:00","closing":"21:00"}]},{"weekDay":4,"timeRanges":[{"opening":"08:00","closing":"21:00"}]},{"weekDay":5,"timeRanges":[{"opening":"08:00","closing":"21:00"}]},{"weekDay":6,"timeRanges":[{"opening":"08:00","closing":"21:00"}]},{"weekDay":7,"timeRanges":[{"opening":"08:00","closing":"18:00"}]}]},{"storeNumber":"137","address":{"name":"dm drogerie markt doo","street":"An\u0111e Rankovi\u0107 7","zip":"21000","city":"Novi Sad"},"location":{"lat":45.248109,"lon":19.799672},"openingHours":[{"weekDay":1,"timeRanges":[{"opening":"08:00","closing":"21:00"}]},{"weekDay":2,"timeRanges":[{"opening":"08:00","closing":"21:00"}]},{"weekDay":3,"timeRanges":[{"opening":"08:00","closing":"21:00"}]},{"weekDay":4,"timeRanges":[{"opening":"08:00","closing":"21:00"}]},{"weekDay":5,"timeRanges":[{"opening":"08:00","closing":"21:00"}]},{"weekDay":6,"timeRanges":[{"opening":"08:00","closing":"18:00"}]},{"weekDay":7,"timeRanges":[{"opening":"09:00","closing":"15:00"}]}]},{"storeNumber":"139","address":{"name":"dm drogerie markt doo","street":"Cara Uro\u0161a 57","zip":"11000","city":"Beograd"},"location":{"lat":44.826543,"lon":20.459963},"openingHours":[{"weekDay":1,"timeRanges":[{"opening":"08:00","closing":"21:00"}]},{"weekDay":2,"timeRanges":[{"opening":"08:00","closing":"21:00"}]},{"weekDay":3,"timeRanges":[{"opening":"08:00","closing":"21:00"}]},{"weekDay":4,"timeRanges":[{"opening":"08:00","closing":"21:00"}]},{"weekDay":5,"timeRanges":[{"opening":"08:00","closing":"21:00"}]},{"weekDay":6,"timeRanges":[{"opening":"08:00","closing":"21:00"}]},{"weekDay":7,"timeRanges":[{"opening":"09:00","closing":"18:00"}]}]},{"storeNumber":"14","address":{"name":"dm drogerie markt doo","street":"Rifata Burd\u017eevi\u0107a bb","zip":"36300","city":"Novi Pazar"},"location":{"lat":43.141098,"lon":20.514817},"openingHours":[{"weekDay":1,"timeRanges":[{"opening":"08:00","closing":"21:00"}]},{"weekDay":2,"timeRanges":[{"opening":"08:00","closing":"21:00"}]},{"weekDay":3,"timeRanges":[{"opening":"08:00","closing":"21:00"}]},{"weekDay":4,"timeRanges":[{"opening":"08:00","closing":"21:00"}]},{"weekDay":5,"timeRanges":[{"opening":"08:00","closing":"21:00"}]},{"weekDay":6,"timeRanges":[{"opening":"08:00","closing":"21:00"}]},{"weekDay":7,"timeRanges":[{"opening":"10:00","closing":"17:00"}]}]},{"storeNumber":"15","address":{"name":"dm drogerie markt doo","street":"Trg srpskih dobrovoljaca 45","zip":"23000","city":"Kikinda"},"location":{"lat":45.831466,"lon":20.467362},"openingHours":[{"weekDay":1,"timeRanges":[{"opening":"08:00","closing":"20:00"}]},{"weekDay":2,"timeRanges":[{"opening":"08:00","closing":"20:00"}]},{"weekDay":3,"timeRanges":[{"opening":"08:00","closing":"20:00"}]},{"weekDay":4,"timeRanges":[{"opening":"08:00","closing":"20:00"}]},{"weekDay":5,"timeRanges":[{"opening":"08:00","closing":"20:00"}]},{"weekDay":6,"timeRanges":[{"opening":"09:00","closing":"16:00"}]}]},{"storeNumber":"16","address":{"name":"dm drogerie markt doo","street":"Dimitrija Tucovi\u0107a 149","zip":"31000","city":"U\u017eice"},"location":{"lat":43.8562,"lon":19.839104},"openingHours":[{"weekDay":1,"timeRanges":[{"opening":"08:00","closing":"21:00"}]},{"weekDay":2,"timeRanges":[{"opening":"08:00","closing":"21:00"}]},{"weekDay":3,"timeRanges":[{"opening":"08:00","closing":"21:00"}]},{"weekDay":4,"timeRanges":[{"opening":"08:00","closing":"21:00"}]},{"weekDay":5,"timeRanges":[{"opening":"08:00","closing":"21:00"}]},{"weekDay":6,"timeRanges":[{"opening":"08:00","closing":"19:00"}]},{"weekDay":7,"timeRanges":[{"opening":"09:00","closing":"16:00"}]}]},{"storeNumber":"18","address":{"name":"dm drogerie markt doo","street":"Dr.Ivana Ribara 131","zip":"11070","city":"Beograd"},"location":{"lat":44.79382,"lon":20.375041},"openingHours":[{"weekDay":1,"timeRanges":[{"opening":"08:00","closing":"21:00"}]},{"weekDay":2,"timeRanges":[{"opening":"08:00","closing":"21:00"}]},{"weekDay":3,"timeRanges":[{"opening":"08:00","closing":"21:00"}]},{"weekDay":4,"timeRanges":[{"opening":"08:00","closing":"21:00"}]},{"weekDay":5,"timeRanges":[{"opening":"08:00","closing":"21:00"}]},{"weekDay":6,"timeRanges":[{"opening":"09:00","closing":"19:00"}]},{"weekDay":7,"timeRanges":[{"opening":"09:00","closing":"15:00"}]}]},{"storeNumber":"19","address":{"name":"dm drogerie markt doo","street":"Milutina Milankovi\u0107a 34","zip":"11070","city":"Beograd"},"location":{"lat":44.806949,"lon":20.424877},"openingHours":[{"weekDay":1,"timeRanges":[{"opening":"08:00","closing":"21:00"}]},{"weekDay":2,"timeRanges":[{"opening":"08:00","closing":"21:00"}]},{"weekDay":3,"timeRanges":[{"opening":"08:00","closing":"21:00"}]},{"weekDay":4,"timeRanges":[{"opening":"08:00","closing":"21:00"}]},{"weekDay":5,"timeRanges":[{"opening":"08:00","closing":"21:00"}]},{"weekDay":6,"timeRanges":[{"opening":"08:00","closing":"16:00"}]}]},{"storeNumber":"22","address":{"name":"dm drogerie markt doo","street":"Kralja Petra I 15","zip":"25000","city":"Sombor"},"location":{"lat":45.771837,"lon":19.11671},"openingHours":[{"weekDay":1,"timeRanges":[{"opening":"08:00","closing":"21:00"}]},{"weekDay":2,"timeRanges":[{"opening":"08:00","closing":"21:00"}]},{"weekDay":3,"timeRanges":[{"opening":"08:00","closing":"21:00"}]},{"weekDay":4,"timeRanges":[{"opening":"08:00","closing":"21:00"}]},{"weekDay":5,"timeRanges":[{"opening":"08:00","closing":"21:00"}]},{"weekDay":6,"timeRanges":[{"opening":"09:00","closing":"18:00"}]}]},{"storeNumber":"24","address":{"name":"dm drogerie markt doo","street":"Nevesinjska 2","zip":"11000","city":"Beograd"},"location":{"lat":44.799064,"lon":20.47288},"openingHours":[{"weekDay":1,"timeRanges":[{"opening":"08:00","closing":"21:00"}]},{"weekDay":2,"timeRanges":[{"opening":"08:00","closing":"21:00"}]},{"weekDay":3,"timeRanges":[{"opening":"08:00","closing":"21:00"}]},{"weekDay":4,"timeRanges":[{"opening":"08:00","closing":"21:00"}]},{"weekDay":5,"timeRanges":[{"opening":"08:00","closing":"21:00"}]},{"weekDay":6,"timeRanges":[{"opening":"08:00","closing":"21:00"}]},{"weekDay":7,"timeRanges":[{"opening":"09:00","closing":"20:00"}]}]},{"storeNumber":"29","address":{"name":"dm drogerie markt doo","street":"Glavna 20","zip":"11000","city":"Beograd"},"location":{"lat":44.844127,"lon":20.411879},"openingHours":[{"weekDay":1,"timeRanges":[{"opening":"08:00","closing":"21:00"}]},{"weekDay":2,"timeRanges":[{"opening":"08:00","closing":"21:00"}]},{"weekDay":3,"timeRanges":[{"opening":"08:00","closing":"21:00"}]},{"weekDay":4,"timeRanges":[{"opening":"08:00","closing":"21:00"}]},{"weekDay":5,"timeRanges":[{"opening":"08:00","closing":"21:00"}]},{"weekDay":6,"timeRanges":[{"opening":"08:00","closing":"21:00"}]},{"weekDay":7,"timeRanges":[{"opening":"09:00","closing":"15:00"}]}]},{"storeNumber":"3","address":{"name":"dm drogerie markt doo","street":"Vojvode Stepe 116","zip":"11000","city":"Beograd"},"location":{"lat":44.778456,"lon":20.47361},"openingHours":[{"weekDay":1,"timeRanges":[{"opening":"08:00","closing":"21:00"}]},{"weekDay":2,"timeRanges":[{"opening":"08:00","closing":"21:00"}]},{"weekDay":3,"timeRanges":[{"opening":"08:00","closing":"21:00"}]},{"weekDay":4,"timeRanges":[{"opening":"08:00","closing":"21:00"}]},{"weekDay":5,"timeRanges":[{"opening":"08:00","closing":"21:00"}]},{"weekDay":6,"timeRanges":[{"opening":"08:00","closing":"18:00"}]},{"weekDay":7,"timeRanges":[{"opening":"09:00","closing":"15:00"}]}]},{"storeNumber":"30","address":{"name":"dm drogerie markt doo","street":"Nehruova 68b","zip":"11070","city":"Beograd"},"location":{"lat":44.804216,"lon":20.377107},"openingHours":[{"weekDay":1,"timeRanges":[{"opening":"08:00","closing":"21:00"}]},{"weekDay":2,"timeRanges":[{"opening":"08:00","closing":"21:00"}]},{"weekDay":3,"timeRanges":[{"opening":"08:00","closing":"21:00"}]},{"weekDay":4,"timeRanges":[{"opening":"08:00","closing":"21:00"}]},{"weekDay":5,"timeRanges":[{"opening":"08:00","closing":"21:00"}]},{"weekDay":6,"timeRanges":[{"opening":"08:00","closing":"21:00"}]},{"weekDay":7,"timeRanges":[{"opening":"09:00","closing":"16:00"}]}]},{"storeNumber":"31","address":{"name":"dm drogerie markt doo","street":"Bra\u0107e Ribnikar 29","zip":"21000","city":"Novi Sad"},"location":{"lat":45.248074,"lon":19.834383},"openingHours":[{"weekDay":1,"timeRanges":[{"opening":"08:00","closing":"20:00"}]},{"weekDay":2,"timeRanges":[{"opening":"08:00","closing":"20:00"}]},{"weekDay":3,"timeRanges":[{"opening":"08:00","closing":"20:00"}]},{"weekDay":4,"timeRanges":[{"opening":"08:00","closing":"20:00"}]},{"weekDay":5,"timeRanges":[{"opening":"08:00","closing":"20:00"}]},{"weekDay":6,"timeRanges":[{"opening":"09:00","closing":"18:00"}]}]},{"storeNumber":"32","address":{"name":"dm drogerie markt doo","street":"Vojvode Stepe 11","zip":"22320","city":"In\u0111ija"},"location":{"lat":45.049575,"lon":20.083027},"openingHours":[{"weekDay":1,"timeRanges":[{"opening":"08:00","closing":"21:00"}]},{"weekDay":2,"timeRanges":[{"opening":"08:00","closing":"21:00"}]},{"weekDay":3,"timeRanges":[{"opening":"08:00","closing":"21:00"}]},{"weekDay":4,"timeRanges":[{"opening":"08:00","closing":"21:00"}]},{"weekDay":5,"timeRanges":[{"opening":"08:00","closing":"21:00"}]},{"weekDay":6,"timeRanges":[{"opening":"08:00","closing":"21:00"}]},{"weekDay":7,"timeRanges":[{"opening":"09:00","closing":"15:00"}]}]},{"storeNumber":"33","address":{"name":"dm drogerie markt doo","street":"Milentija Popovi\u0107a 32","zip":"11070","city":"Beograd"},"location":{"lat":44.810711,"lon":20.429305},"openingHours":[{"weekDay":1,"timeRanges":[{"opening":"08:00","closing":"21:00"}]},{"weekDay":2,"timeRanges":[{"opening":"08:00","closing":"21:00"}]},{"weekDay":3,"timeRanges":[{"opening":"08:00","closing":"21:00"}]},{"weekDay":4,"timeRanges":[{"opening":"08:00","closing":"21:00"}]},{"weekDay":5,"timeRanges":[{"opening":"08:00","closing":"21:00"}]},{"weekDay":6,"timeRanges":[{"opening":"08:00","closing":"16:00"}]}]},{"storeNumber":"35","address":{"name":"dm drogerie markt doo","street":"Brankova 3","zip":"11000","city":"Beograd"},"location":{"lat":44.814176,"lon":20.456511},"openingHours":[{"weekDay":1,"timeRanges":[{"opening":"08:00","closing":"21:00"}]},{"weekDay":2,"timeRanges":[{"opening":"08:00","closing":"21:00"}]},{"weekDay":3,"timeRanges":[{"opening":"08:00","closing":"21:00"}]},{"weekDay":4,"timeRanges":[{"opening":"08:00","closing":"21:00"}]},{"weekDay":5,"timeRanges":[{"opening":"08:00","closing":"21:00"}]},{"weekDay":6,"timeRanges":[{"opening":"08:00","closing":"18:00"}]},{"weekDay":7,"timeRanges":[{"opening":"09:00","closing":"15:00"}]}]},{"storeNumber":"36","address":{"name":"dm drogerie markt doo","street":"Trg majke Jevrosime 21","zip":"21000","city":"Novi Sad"},"location":{"lat":45.261408,"lon":19.81306},"openingHours":[{"weekDay":1,"timeRanges":[{"opening":"08:00","closing":"21:00"}]},{"weekDay":2,"timeRanges":[{"opening":"08:00","closing":"21:00"}]},{"weekDay":3,"timeRanges":[{"opening":"08:00","closing":"21:00"}]},{"weekDay":4,"timeRanges":[{"opening":"08:00","closing":"21:00"}]},{"weekDay":5,"timeRanges":[{"opening":"08:00","closing":"21:00"}]},{"weekDay":6,"timeRanges":[{"opening":"09:00","closing":"18:00"}]}]},{"storeNumber":"37","address":{"name":"dm drogerie markt doo","street":"Marijane Gregoran 58","zip":"11000","city":"Beograd"},"location":{"lat":44.81284,"lon":20.51354},"openingHours":[{"weekDay":1,"timeRanges":[{"opening":"08:00","closing":"21:00"}]},{"weekDay":2,"timeRanges":[{"opening":"08:00","closing":"21:00"}]},{"weekDay":3,"timeRanges":[{"opening":"08:00","closing":"21:00"}]},{"weekDay":4,"timeRanges":[{"opening":"08:00","closing":"21:00"}]},{"weekDay":5,"timeRanges":[{"opening":"08:00","closing":"21:00"}]},{"weekDay":6,"timeRanges":[{"opening":"08:00","closing":"21:00"}]},{"weekDay":7,"timeRanges":[{"opening":"09:00","closing":"15:00"}]}]},{"storeNumber":"38","address":{"name":"dm drogerie markt doo","street":"Kralja Aleksandra I Kara\u0111or\u0111evi\u0107a 32","zip":"34000","city":"Kragujevac"},"location":{"lat":44.01162,"lon":20.91355},"openingHours":[{"weekDay":1,"timeRanges":[{"opening":"08:00","closing":"21:00"}]},{"weekDay":2,"timeRanges":[{"opening":"08:00","closing":"21:00"}]},{"weekDay":3,"timeRanges":[{"opening":"08:00","closing":"21:00"}]},{"weekDay":4,"timeRanges":[{"opening":"08:00","closing":"21:00"}]},{"weekDay":5,"timeRanges":[{"opening":"08:00","closing":"21:00"}]},{"weekDay":6,"timeRanges":[{"opening":"09:00","closing":"18:00"}]}]},{"storeNumber":"39","address":{"name":"dm drogerie markt doo","street":"Knjaza Milo\u0161a 299","zip":"34300","city":"Aran\u0111elovac"},"location":{"lat":44.307313,"lon":20.556461},"openingHours":[{"weekDay":1,"timeRanges":[{"opening":"08:00","closing":"21:00"}]},{"weekDay":2,"timeRanges":[{"opening":"08:00","closing":"21:00"}]},{"weekDay":3,"timeRanges":[{"opening":"08:00","closing":"21:00"}]},{"weekDay":4,"timeRanges":[{"opening":"08:00","closing":"21:00"}]},{"weekDay":5,"timeRanges":[{"opening":"08:00","closing":"21:00"}]},{"weekDay":6,"timeRanges":[{"opening":"09:00","closing":"20:00"}]}]},{"storeNumber":"41","address":{"name":"dm drogerie markt doo","street":"Bulevar Mihajla Pupina 2","zip":"21000","city":"Novi Sad"},"location":{"lat":45.253973,"lon":19.842387},"openingHours":[{"weekDay":1,"timeRanges":[{"opening":"08:00","closing":"21:00"}]},{"weekDay":2,"timeRanges":[{"opening":"08:00","closing":"21:00"}]},{"weekDay":3,"timeRanges":[{"opening":"08:00","closing":"21:00"}]},{"weekDay":4,"timeRanges":[{"opening":"08:00","closing":"21:00"}]},{"weekDay":5,"timeRanges":[{"opening":"08:00","closing":"21:00"}]},{"weekDay":6,"timeRanges":[{"opening":"08:00","closing":"21:00"}]}]},{"storeNumber":"43","address":{"name":"dm drogerie markt doo","street":"Bra\u0107e Bad\u017eak 2","zip":"11400","city":"Mladenovac"},"location":{"lat":44.447132,"lon":20.687063},"openingHours":[{"weekDay":1,"timeRanges":[{"opening":"09:00","closing":"21:00"}]},{"weekDay":2,"timeRanges":[{"opening":"09:00","closing":"21:00"}]},{"weekDay":3,"timeRanges":[{"opening":"09:00","closing":"21:00"}]},{"weekDay":4,"timeRanges":[{"opening":"09:00","closing":"21:00"}]},{"weekDay":5,"timeRanges":[{"opening":"09:00","closing":"21:00"}]},{"weekDay":6,"timeRanges":[{"opening":"09:00","closing":"21:00"}]},{"weekDay":7,"timeRanges":[{"opening":"09:00","closing":"21:00"}]}]},{"storeNumber":"44","address":{"name":"dm drogerie markt doo","street":"Nikole Pa\u0161i\u0107a 29","zip":"18000","city":"Ni\u0161"},"location":{"lat":43.318278,"lon":21.895948},"openingHours":[{"weekDay":1,"timeRanges":[{"opening":"08:00","closing":"21:00"}]},{"weekDay":2,"timeRanges":[{"opening":"08:00","closing":"21:00"}]},{"weekDay":3,"timeRanges":[{"opening":"08:00","closing":"21:00"}]},{"weekDay":4,"timeRanges":[{"opening":"08:00","closing":"21:00"}]},{"weekDay":5,"timeRanges":[{"opening":"08:00","closing":"21:00"}]},{"weekDay":6,"timeRanges":[{"opening":"09:00","closing":"21:00"}]},{"weekDay":7,"timeRanges":[{"opening":"09:00","closing":"15:00"}]}]},{"storeNumber":"45","address":{"name":"dm drogerie markt doo","street":"Narodnih heroja 63","zip":"11000","city":"Beograd"},"location":{"lat":44.817692,"lon":20.401684},"openingHours":[{"weekDay":1,"timeRanges":[{"opening":"08:00","closing":"21:00"}]},{"weekDay":2,"timeRanges":[{"opening":"08:00","closing":"21:00"}]},{"weekDay":3,"timeRanges":[{"opening":"08:00","closing":"21:00"}]},{"weekDay":4,"timeRanges":[{"opening":"08:00","closing":"21:00"}]},{"weekDay":5,"timeRanges":[{"opening":"08:00","closing":"21:00"}]},{"weekDay":6,"timeRanges":[{"opening":"08:00","closing":"17:00"}]}]},{"storeNumber":"46","address":{"name":"dm drogerie markt doo","street":"Omladinskih brigada 100","zip":"11000","city":"Beograd"},"location":{"lat":44.807797,"lon":20.398414},"openingHours":[{"weekDay":1,"timeRanges":[{"opening":"09:00","closing":"21:00"}]},{"weekDay":2,"timeRanges":[{"opening":"09:00","closing":"21:00"}]},{"weekDay":3,"timeRanges":[{"opening":"09:00","closing":"21:00"}]},{"weekDay":4,"timeRanges":[{"opening":"09:00","closing":"21:00"}]},{"weekDay":5,"timeRanges":[{"opening":"09:00","closing":"21:00"}]},{"weekDay":6,"timeRanges":[{"opening":"09:00","closing":"21:00"}]},{"weekDay":7,"timeRanges":[{"opening":"09:00","closing":"21:00"}]}]},{"storeNumber":"47","address":{"name":"dm drogerie markt doo","street":"Partizanske avijacije 2","zip":"11000","city":"Beograd"},"location":{"lat":44.824663,"lon":20.389574},"openingHours":[{"weekDay":1,"timeRanges":[{"opening":"08:00","closing":"21:00"}]},{"weekDay":2,"timeRanges":[{"opening":"08:00","closing":"21:00"}]},{"weekDay":3,"timeRanges":[{"opening":"08:00","closing":"21:00"}]},{"weekDay":4,"timeRanges":[{"opening":"08:00","closing":"21:00"}]},{"weekDay":5,"timeRanges":[{"opening":"08:00","closing":"21:00"}]},{"weekDay":6,"timeRanges":[{"opening":"08:00","closing":"21:00"}]},{"weekDay":7,"timeRanges":[{"opening":"10:00","closing":"18:00"}]}]},{"storeNumber":"48","address":{"name":"dm drogerie markt doo","street":"Mirijevski bulevar 18b","zip":"11000","city":"Beograd"},"location":{"lat":44.811337,"lon":20.521924},"openingHours":[{"weekDay":1,"timeRanges":[{"opening":"09:00","closing":"21:00"}]},{"weekDay":2,"timeRanges":[{"opening":"09:00","closing":"21:00"}]},{"weekDay":3,"timeRanges":[{"opening":"09:00","closing":"21:00"}]},{"weekDay":4,"timeRanges":[{"opening":"09:00","closing":"21:00"}]},{"weekDay":5,"timeRanges":[{"opening":"09:00","closing":"21:00"}]},{"weekDay":6,"timeRanges":[{"opening":"09:00","closing":"21:00"}]},{"weekDay":7,"timeRanges":[{"opening":"09:00","closing":"21:00"}]}]},{"storeNumber":"49","address":{"name":"dm drogerie markt doo","street":"Milo\u0161a Obrenovi\u0107a 12","zip":"26000","city":"Pan\u010devo"},"location":{"lat":44.869337,"lon":20.659795},"openingHours":[{"weekDay":1,"timeRanges":[{"opening":"09:00","closing":"22:00"}]},{"weekDay":2,"timeRanges":[{"opening":"09:00","closing":"22:00"}]},{"weekDay":3,"timeRanges":[{"opening":"09:00","closing":"22:00"}]},{"weekDay":4,"timeRanges":[{"opening":"09:00","closing":"22:00"}]},{"weekDay":5,"timeRanges":[{"opening":"09:00","closing":"22:00"}]},{"weekDay":6,"timeRanges":[{"opening":"09:00","closing":"22:00"}]},{"weekDay":7,"timeRanges":[{"opening":"09:00","closing":"22:00"}]}]},{"storeNumber":"5","address":{"name":"dm drogerie markt doo","street":"Trg Pobede 3","zip":"26300","city":"Vr\u0161ac"},"location":{"lat":45.120621,"lon":21.298649},"openingHours":[{"weekDay":1,"timeRanges":[{"opening":"08:00","closing":"21:00"}]},{"weekDay":2,"timeRanges":[{"opening":"08:00","closing":"21:00"}]},{"weekDay":3,"timeRanges":[{"opening":"08:00","closing":"21:00"}]},{"weekDay":4,"timeRanges":[{"opening":"08:00","closing":"21:00"}]},{"weekDay":5,"timeRanges":[{"opening":"08:00","closing":"21:00"}]},{"weekDay":6,"timeRanges":[{"opening":"09:00","closing":"17:00"}]}]},{"storeNumber":"50","address":{"name":"dm drogerie markt doo","street":"Dragi\u0161e Mi\u0161ovi\u0107a 144","zip":"32000","city":"\u010ca\u010dak"},"location":{"lat":43.8794444,"lon":20.3583333},"openingHours":[{"weekDay":1,"timeRanges":[{"opening":"08:00","closing":"21:00"}]},{"weekDay":2,"timeRanges":[{"opening":"08:00","closing":"21:00"}]},{"weekDay":3,"timeRanges":[{"opening":"08:00","closing":"21:00"}]},{"weekDay":4,"timeRanges":[{"opening":"08:00","closing":"21:00"}]},{"weekDay":5,"timeRanges":[{"opening":"08:00","closing":"21:00"}]},{"weekDay":6,"timeRanges":[{"opening":"08:00","closing":"21:00"}]},{"weekDay":7,"timeRanges":[{"opening":"08:00","closing":"16:00"}]}]},{"storeNumber":"51","address":{"name":"dm drogerie markt doo","street":"Vojvode Stepe Stepanovi\u0107a 9I","zip":"11000","city":"Beograd"},"location":{"lat":44.7603945,"lon":20.5507694},"openingHours":[{"weekDay":1,"timeRanges":[{"opening":"09:00","closing":"21:00"}]},{"weekDay":2,"timeRanges":[{"opening":"09:00","closing":"21:00"}]},{"weekDay":3,"timeRanges":[{"opening":"09:00","closing":"21:00"}]},{"weekDay":4,"timeRanges":[{"opening":"09:00","closing":"21:00"}]},{"weekDay":5,"timeRanges":[{"opening":"09:00","closing":"21:00"}]},{"weekDay":6,"timeRanges":[{"opening":"09:00","closing":"21:00"}]},{"weekDay":7,"timeRanges":[{"opening":"10:00","closing":"18:00"}]}]},{"storeNumber":"52","address":{"name":"dm drogerie markt doo","street":"Ustani\u010dka 64a","zip":"11000","city":"Beograd"},"location":{"lat":44.785872,"lon":20.480561},"openingHours":[{"weekDay":1,"timeRanges":[{"opening":"08:00","closing":"21:00"}]},{"weekDay":2,"timeRanges":[{"opening":"08:00","closing":"21:00"}]},{"weekDay":3,"timeRanges":[{"opening":"08:00","closing":"21:00"}]},{"weekDay":4,"timeRanges":[{"opening":"08:00","closing":"21:00"}]},{"weekDay":5,"timeRanges":[{"opening":"08:00","closing":"21:00"}]},{"weekDay":6,"timeRanges":[{"opening":"08:00","closing":"21:00"}]},{"weekDay":7,"timeRanges":[{"opening":"08:00","closing":"15:00"}]}]},{"storeNumber":"53","address":{"name":"dm drogerie markt doo","street":"Stefana Prvoven\u010danog 51","zip":"17500","city":"Vranje"},"location":{"lat":42.552269,"lon":21.899075},"openingHours":[{"weekDay":1,"timeRanges":[{"opening":"08:00","closing":"21:00"}]},{"weekDay":2,"timeRanges":[{"opening":"08:00","closing":"21:00"}]},{"weekDay":3,"timeRanges":[{"opening":"08:00","closing":"21:00"}]},{"weekDay":4,"timeRanges":[{"opening":"08:00","closing":"21:00"}]},{"weekDay":5,"timeRanges":[{"opening":"08:00","closing":"21:00"}]},{"weekDay":6,"timeRanges":[{"opening":"08:00","closing":"20:00"}]}]},{"storeNumber":"54","address":{"name":"dm drogerie markt doo","street":"Bulevar Arsenija \u010carnojevica 95a","zip":"11000","city":"Beograd"},"location":{"lat":44.812064,"lon":20.419625},"openingHours":[{"weekDay":1,"timeRanges":[{"opening":"08:00","closing":"21:00"}]},{"weekDay":2,"timeRanges":[{"opening":"08:00","closing":"21:00"}]},{"weekDay":3,"timeRanges":[{"opening":"08:00","closing":"21:00"}]},{"weekDay":4,"timeRanges":[{"opening":"08:00","closing":"21:00"}]},{"weekDay":5,"timeRanges":[{"opening":"08:00","closing":"21:00"}]},{"weekDay":6,"timeRanges":[{"opening":"08:00","closing":"21:00"}]},{"weekDay":7,"timeRanges":[{"opening":"09:00","closing":"16:00"}]}]},{"storeNumber":"55","address":{"name":"dm drogerie markt doo","street":"Trg Kralja Milana 11","zip":"18000","city":"Ni\u0161"},"location":{"lat":43.321546,"lon":21.895301},"openingHours":[{"weekDay":1,"timeRanges":[{"opening":"09:00","closing":"22:00"}]},{"weekDay":2,"timeRanges":[{"opening":"09:00","closing":"22:00"}]},{"weekDay":3,"timeRanges":[{"opening":"09:00","closing":"22:00"}]},{"weekDay":4,"timeRanges":[{"opening":"09:00","closing":"22:00"}]},{"weekDay":5,"timeRanges":[{"opening":"09:00","closing":"22:00"}]},{"weekDay":6,"timeRanges":[{"opening":"09:00","closing":"21:00"}]},{"weekDay":7,"timeRanges":[{"opening":"10:00","closing":"16:00"}]}]},{"storeNumber":"56","address":{"name":"dm drogerie markt doo","street":"Batajnicki drum 1","zip":"11000","city":"Beograd"},"location":{"lat":44.862485,"lon":20.367258},"openingHours":[{"weekDay":1,"timeRanges":[{"opening":"09:00","closing":"21:00"}]},{"weekDay":2,"timeRanges":[{"opening":"09:00","closing":"21:00"}]},{"weekDay":3,"timeRanges":[{"opening":"09:00","closing":"21:00"}]},{"weekDay":4,"timeRanges":[{"opening":"09:00","closing":"21:00"}]},{"weekDay":5,"timeRanges":[{"opening":"09:00","closing":"21:00"}]},{"weekDay":6,"timeRanges":[{"opening":"09:00","closing":"21:00"}]},{"weekDay":7,"timeRanges":[{"opening":"09:00","closing":"21:00"}]}]},{"storeNumber":"59","address":{"name":"dm drogerie markt doo","street":"Sentandrejski put 11","zip":"21000","city":"Novi Sad"},"location":{"lat":45.275192,"lon":19.828306},"openingHours":[{"weekDay":1,"timeRanges":[{"opening":"10:00","closing":"22:00"}]},{"weekDay":2,"timeRanges":[{"opening":"10:00","closing":"22:00"}]},{"weekDay":3,"timeRanges":[{"opening":"10:00","closing":"22:00"}]},{"weekDay":4,"timeRanges":[{"opening":"10:00","closing":"22:00"}]},{"weekDay":5,"timeRanges":[{"opening":"10:00","closing":"22:00"}]},{"weekDay":6,"timeRanges":[{"opening":"10:00","closing":"22:00"}]},{"weekDay":7,"timeRanges":[{"opening":"10:00","closing":"22:00"}]}]},{"storeNumber":"60","address":{"name":"dm drogerie markt doo","street":"Terazije 15-23","zip":"11000","city":"Beograd"},"location":{"lat":44.813605,"lon":20.461111},"openingHours":[{"weekDay":1,"timeRanges":[{"opening":"09:00","closing":"21:00"}]},{"weekDay":2,"timeRanges":[{"opening":"09:00","closing":"21:00"}]},{"weekDay":3,"timeRanges":[{"opening":"09:00","closing":"21:00"}]},{"weekDay":4,"timeRanges":[{"opening":"09:00","closing":"21:00"}]},{"weekDay":5,"timeRanges":[{"opening":"09:00","closing":"21:00"}]},{"weekDay":6,"timeRanges":[{"opening":"09:00","closing":"21:00"}]},{"weekDay":7,"timeRanges":[{"opening":"11:00","closing":"18:00"}]}]},{"storeNumber":"61","address":{"name":"dm drogerie markt doo","street":"Doktora Zorana \u0110in\u0111i\u0107a 13","zip":"34000","city":"Kragujevac"},"location":{"lat":44.012135,"lon":20.917856},"openingHours":[{"weekDay":1,"timeRanges":[{"opening":"09:00","closing":"21:00"}]},{"weekDay":2,"timeRanges":[{"opening":"09:00","closing":"21:00"}]},{"weekDay":3,"timeRanges":[{"opening":"09:00","closing":"21:00"}]},{"weekDay":4,"timeRanges":[{"opening":"09:00","closing":"21:00"}]},{"weekDay":5,"timeRanges":[{"opening":"09:00","closing":"21:00"}]},{"weekDay":6,"timeRanges":[{"opening":"09:00","closing":"21:00"}]},{"weekDay":7,"timeRanges":[{"opening":"10:00","closing":"16:00"}]}]},{"storeNumber":"62","address":{"name":"dm drogerie markt doo","street":"Korzo 10","zip":"24000","city":"Subotica"},"location":{"lat":46.100556,"lon":19.668333},"openingHours":[{"weekDay":1,"timeRanges":[{"opening":"08:00","closing":"21:00"}]},{"weekDay":2,"timeRanges":[{"opening":"08:00","closing":"21:00"}]},{"weekDay":3,"timeRanges":[{"opening":"08:00","closing":"21:00"}]},{"weekDay":4,"timeRanges":[{"opening":"08:00","closing":"21:00"}]},{"weekDay":5,"timeRanges":[{"opening":"08:00","closing":"21:00"}]},{"weekDay":6,"timeRanges":[{"opening":"09:00","closing":"18:00"}]}]},{"storeNumber":"64","address":{"name":"dm drogerie markt doo","street":"Sutjeska 2","zip":"21000","city":"Novi Sad"},"location":{"lat":45.248056,"lon":19.845833},"openingHours":[{"weekDay":1,"timeRanges":[{"opening":"08:00","closing":"20:00"}]},{"weekDay":2,"timeRanges":[{"opening":"08:00","closing":"20:00"}]},{"weekDay":3,"timeRanges":[{"opening":"08:00","closing":"20:00"}]},{"weekDay":4,"timeRanges":[{"opening":"08:00","closing":"20:00"}]},{"weekDay":5,"timeRanges":[{"opening":"08:00","closing":"20:00"}]},{"weekDay":6,"timeRanges":[{"opening":"08:00","closing":"20:00"}]}]},{"storeNumber":"66","address":{"name":"dm drogerie markt doo","street":"Vuka Bojovi\u0107a bb","zip":"35000","city":"Jagodina"},"location":{"lat":43.966909,"lon":21.264843},"openingHours":[{"weekDay":1,"timeRanges":[{"opening":"09:00","closing":"22:00"}]},{"weekDay":2,"timeRanges":[{"opening":"09:00","closing":"22:00"}]},{"weekDay":3,"timeRanges":[{"opening":"09:00","closing":"22:00"}]},{"weekDay":4,"timeRanges":[{"opening":"09:00","closing":"22:00"}]},{"weekDay":5,"timeRanges":[{"opening":"09:00","closing":"22:00"}]},{"weekDay":6,"timeRanges":[{"opening":"09:00","closing":"22:00"}]},{"weekDay":7,"timeRanges":[{"opening":"09:00","closing":"22:00"}]}]},{"storeNumber":"67","address":{"name":"dm drogerie markt doo","street":"Makedonska 44","zip":"11000","city":"Beograd"},"location":{"lat":44.815184,"lon":20.46496},"openingHours":[{"weekDay":1,"timeRanges":[{"opening":"08:00","closing":"21:00"}]},{"weekDay":2,"timeRanges":[{"opening":"08:00","closing":"21:00"}]},{"weekDay":3,"timeRanges":[{"opening":"08:00","closing":"21:00"}]},{"weekDay":4,"timeRanges":[{"opening":"08:00","closing":"21:00"}]},{"weekDay":5,"timeRanges":[{"opening":"08:00","closing":"21:00"}]},{"weekDay":6,"timeRanges":[{"opening":"08:00","closing":"21:00"}]},{"weekDay":7,"timeRanges":[{"opening":"08:00","closing":"15:00"}]}]},{"storeNumber":"68","address":{"name":"dm drogerie markt doo","street":"Vizantijski Bulevar bb","zip":"18000","city":"Ni\u0161"},"location":{"lat":43.323056,"lon":21.925278},"openingHours":[{"weekDay":1,"timeRanges":[{"opening":"09:00","closing":"22:00"}]},{"weekDay":2,"timeRanges":[{"opening":"09:00","closing":"22:00"}]},{"weekDay":3,"timeRanges":[{"opening":"09:00","closing":"22:00"}]},{"weekDay":4,"timeRanges":[{"opening":"09:00","closing":"22:00"}]},{"weekDay":5,"timeRanges":[{"opening":"09:00","closing":"22:00"}]},{"weekDay":6,"timeRanges":[{"opening":"09:00","closing":"22:00"}]},{"weekDay":7,"timeRanges":[{"opening":"09:00","closing":"22:00"}]}]},{"storeNumber":"69","address":{"name":"dm drogerie markt doo","street":"Bulevar umetnosti 4","zip":"11000","city":"Beograd"},"location":{"lat":44.820594,"lon":20.414331},"openingHours":[{"weekDay":1,"timeRanges":[{"opening":"09:00","closing":"22:00"}]},{"weekDay":2,"timeRanges":[{"opening":"09:00","closing":"22:00"}]},{"weekDay":3,"timeRanges":[{"opening":"09:00","closing":"22:00"}]},{"weekDay":4,"timeRanges":[{"opening":"09:00","closing":"22:00"}]},{"weekDay":5,"timeRanges":[{"opening":"09:00","closing":"22:00"}]},{"weekDay":6,"timeRanges":[{"opening":"09:00","closing":"22:00"}]},{"weekDay":7,"timeRanges":[{"opening":"09:00","closing":"22:00"}]}]},{"storeNumber":"70","address":{"name":"dm drogerie markt doo","street":"Narodnog fronta 23b","zip":"21000","city":"Novi Sad"},"location":{"lat":45.239565,"lon":19.836389},"openingHours":[{"weekDay":1,"timeRanges":[{"opening":"08:00","closing":"20:00"}]},{"weekDay":2,"timeRanges":[{"opening":"08:00","closing":"20:00"}]},{"weekDay":3,"timeRanges":[{"opening":"08:00","closing":"20:00"}]},{"weekDay":4,"timeRanges":[{"opening":"08:00","closing":"20:00"}]},{"weekDay":5,"timeRanges":[{"opening":"08:00","closing":"20:00"}]},{"weekDay":6,"timeRanges":[{"opening":"08:00","closing":"18:00"}]}]},{"storeNumber":"71","address":{"name":"dm drogerie markt doo","street":"Takovska 1","zip":"37000","city":"Kru\u0161evac"},"location":{"lat":43.581048,"lon":21.330814},"openingHours":[{"weekDay":1,"timeRanges":[{"opening":"08:00","closing":"21:00"}]},{"weekDay":2,"timeRanges":[{"opening":"08:00","closing":"21:00"}]},{"weekDay":3,"timeRanges":[{"opening":"08:00","closing":"21:00"}]},{"weekDay":4,"timeRanges":[{"opening":"08:00","closing":"21:00"}]},{"weekDay":5,"timeRanges":[{"opening":"08:00","closing":"21:00"}]},{"weekDay":6,"timeRanges":[{"opening":"08:00","closing":"21:00"}]}]},{"storeNumber":"72","address":{"name":"dm drogerie markt doo","street":"Vidikovacki venac 102a","zip":"11000","city":"Beograd"},"location":{"lat":44.7398917,"lon":20.4161583},"openingHours":[{"weekDay":1,"timeRanges":[{"opening":"08:00","closing":"21:00"}]},{"weekDay":2,"timeRanges":[{"opening":"08:00","closing":"21:00"}]},{"weekDay":3,"timeRanges":[{"opening":"08:00","closing":"21:00"}]},{"weekDay":4,"timeRanges":[{"opening":"08:00","closing":"21:00"}]},{"weekDay":5,"timeRanges":[{"opening":"08:00","closing":"21:00"}]},{"weekDay":6,"timeRanges":[{"opening":"08:00","closing":"21:00"}]},{"weekDay":7,"timeRanges":[{"opening":"08:00","closing":"18:00"}]}]},{"storeNumber":"73","address":{"name":"dm drogerie markt doo","street":"Vare\u0161ka 4","zip":"11000","city":"Beograd"},"location":{"lat":44.750622,"lon":20.449188},"openingHours":[{"weekDay":1,"timeRanges":[{"opening":"09:00","closing":"21:00"}]},{"weekDay":2,"timeRanges":[{"opening":"09:00","closing":"21:00"}]},{"weekDay":3,"timeRanges":[{"opening":"09:00","closing":"21:00"}]},{"weekDay":4,"timeRanges":[{"opening":"09:00","closing":"21:00"}]},{"weekDay":5,"timeRanges":[{"opening":"09:00","closing":"21:00"}]},{"weekDay":6,"timeRanges":[{"opening":"09:00","closing":"21:00"}]},{"weekDay":7,"timeRanges":[{"opening":"09:00","closing":"21:00"}]}]},{"storeNumber":"74","address":{"name":"dm drogerie markt doo","street":"Despota \u0110ur\u0111a 15","zip":"11300","city":"Smederevo"},"location":{"lat":44.667442,"lon":20.926235},"openingHours":[{"weekDay":1,"timeRanges":[{"opening":"08:00","closing":"21:00"}]},{"weekDay":2,"timeRanges":[{"opening":"08:00","closing":"21:00"}]},{"weekDay":3,"timeRanges":[{"opening":"08:00","closing":"21:00"}]},{"weekDay":4,"timeRanges":[{"opening":"08:00","closing":"21:00"}]},{"weekDay":5,"timeRanges":[{"opening":"08:00","closing":"21:00"}]},{"weekDay":6,"timeRanges":[{"opening":"09:00","closing":"18:00"}]},{"weekDay":7,"timeRanges":[{"opening":"09:00","closing":"15:00"}]}]},{"storeNumber":"75","address":{"name":"dm drogerie markt doo","street":"Vojvode Stepe 344","zip":"11000","city":"Beograd"},"location":{"lat":44.762533,"lon":20.483537},"openingHours":[{"weekDay":1,"timeRanges":[{"opening":"08:00","closing":"21:00"}]},{"weekDay":2,"timeRanges":[{"opening":"08:00","closing":"21:00"}]},{"weekDay":3,"timeRanges":[{"opening":"08:00","closing":"21:00"}]},{"weekDay":4,"timeRanges":[{"opening":"08:00","closing":"21:00"}]},{"weekDay":5,"timeRanges":[{"opening":"08:00","closing":"21:00"}]},{"weekDay":6,"timeRanges":[{"opening":"08:00","closing":"20:00"}]},{"weekDay":7,"timeRanges":[{"opening":"09:00","closing":"15:00"}]}]},{"storeNumber":"76","address":{"name":"dm drogerie markt doo","street":"Bulevar Mihajla Pupina 4","zip":"11000","city":"Beograd"},"location":{"lat":44.815805,"lon":20.436812},"openingHours":[{"weekDay":1,"timeRanges":[{"opening":"09:00","closing":"22:00"}]},{"weekDay":2,"timeRanges":[{"opening":"09:00","closing":"22:00"}]},{"weekDay":3,"timeRanges":[{"opening":"09:00","closing":"22:00"}]},{"weekDay":4,"timeRanges":[{"opening":"09:00","closing":"22:00"}]},{"weekDay":5,"timeRanges":[{"opening":"09:00","closing":"22:00"}]},{"weekDay":6,"timeRanges":[{"opening":"09:00","closing":"22:00"}]},{"weekDay":7,"timeRanges":[{"opening":"09:00","closing":"22:00"}]}]},{"storeNumber":"77","address":{"name":"dm drogerie markt doo","street":"Segedinski put 88a","zip":"24000","city":"Subotica"},"location":{"lat":46.100015,"lon":19.6978},"openingHours":[{"weekDay":1,"timeRanges":[{"opening":"09:00","closing":"21:00"}]},{"weekDay":2,"timeRanges":[{"opening":"09:00","closing":"21:00"}]},{"weekDay":3,"timeRanges":[{"opening":"09:00","closing":"21:00"}]},{"weekDay":4,"timeRanges":[{"opening":"09:00","closing":"21:00"}]},{"weekDay":5,"timeRanges":[{"opening":"09:00","closing":"21:00"}]},{"weekDay":6,"timeRanges":[{"opening":"09:00","closing":"21:00"}]},{"weekDay":7,"timeRanges":[{"opening":"09:00","closing":"21:00"}]}]},{"storeNumber":"78","address":{"name":"dm drogerie markt doo","street":"Beogradskog bataljona 4","zip":"11000","city":"Beograd"},"location":{"lat":44.773938,"lon":20.416521},"openingHours":[{"weekDay":1,"timeRanges":[{"opening":"08:00","closing":"21:00"}]},{"weekDay":2,"timeRanges":[{"opening":"08:00","closing":"21:00"}]},{"weekDay":3,"timeRanges":[{"opening":"08:00","closing":"21:00"}]},{"weekDay":4,"timeRanges":[{"opening":"08:00","closing":"21:00"}]},{"weekDay":5,"timeRanges":[{"opening":"08:00","closing":"21:00"}]},{"weekDay":6,"timeRanges":[{"opening":"08:00","closing":"21:00"}]},{"weekDay":7,"timeRanges":[{"opening":"09:00","closing":"19:00"}]}]},{"storeNumber":"79","address":{"name":"dm drogerie markt doo","street":"\u017divka Davidovi\u0107a 86","zip":"11000","city":"Beograd"},"location":{"lat":44.786222,"lon":20.514465},"openingHours":[{"weekDay":1,"timeRanges":[{"opening":"09:00","closing":"21:00"}]},{"weekDay":2,"timeRanges":[{"opening":"09:00","closing":"21:00"}]},{"weekDay":3,"timeRanges":[{"opening":"09:00","closing":"21:00"}]},{"weekDay":4,"timeRanges":[{"opening":"09:00","closing":"21:00"}]},{"weekDay":5,"timeRanges":[{"opening":"09:00","closing":"21:00"}]},{"weekDay":6,"timeRanges":[{"opening":"09:00","closing":"21:00"}]},{"weekDay":7,"timeRanges":[{"opening":"09:00","closing":"21:00"}]}]},{"storeNumber":"8","address":{"name":"dm drogerie markt doo","street":"Kralja Petra 55","zip":"35000","city":"Para\u0107in"},"location":{"lat":43.861335,"lon":21.411138},"openingHours":[{"weekDay":1,"timeRanges":[{"opening":"08:00","closing":"21:00"}]},{"weekDay":2,"timeRanges":[{"opening":"08:00","closing":"21:00"}]},{"weekDay":3,"timeRanges":[{"opening":"08:00","closing":"21:00"}]},{"weekDay":4,"timeRanges":[{"opening":"08:00","closing":"21:00"}]},{"weekDay":5,"timeRanges":[{"opening":"08:00","closing":"21:00"}]},{"weekDay":6,"timeRanges":[{"opening":"09:00","closing":"18:00"}]}]},{"storeNumber":"80","address":{"name":"dm drogerie markt doo","street":"Bulevar Kralja Aleksandra 249","zip":"11000","city":"Beograd"},"location":{"lat":44.794688,"lon":20.501409},"openingHours":[{"weekDay":1,"timeRanges":[{"opening":"08:00","closing":"21:00"}]},{"weekDay":2,"timeRanges":[{"opening":"08:00","closing":"21:00"}]},{"weekDay":3,"timeRanges":[{"opening":"08:00","closing":"21:00"}]},{"weekDay":4,"timeRanges":[{"opening":"08:00","closing":"21:00"}]},{"weekDay":5,"timeRanges":[{"opening":"08:00","closing":"21:00"}]},{"weekDay":6,"timeRanges":[{"opening":"08:00","closing":"21:00"}]},{"weekDay":7,"timeRanges":[{"opening":"08:00","closing":"15:00"}]}]},{"storeNumber":"81","address":{"name":"dm drogerie markt doo","street":"Baglja\u0161 - Zapad 5","zip":"23000","city":"Zrenjanin"},"location":{"lat":45.376935,"lon":20.352834},"openingHours":[{"weekDay":1,"timeRanges":[{"opening":"09:00","closing":"22:00"}]},{"weekDay":2,"timeRanges":[{"opening":"09:00","closing":"22:00"}]},{"weekDay":3,"timeRanges":[{"opening":"09:00","closing":"22:00"}]},{"weekDay":4,"timeRanges":[{"opening":"09:00","closing":"22:00"}]},{"weekDay":5,"timeRanges":[{"opening":"09:00","closing":"22:00"}]},{"weekDay":6,"timeRanges":[{"opening":"09:00","closing":"22:00"}]},{"weekDay":7,"timeRanges":[{"opening":"09:00","closing":"22:00"}]}]},{"storeNumber":"82","address":{"name":"dm drogerie markt doo","street":"Jovana Cvijica 1a","zip":"15000","city":"\u0160abac"},"location":{"lat":44.751069,"lon":19.69131},"openingHours":[{"weekDay":1,"timeRanges":[{"opening":"09:00","closing":"22:00"}]},{"weekDay":2,"timeRanges":[{"opening":"09:00","closing":"22:00"}]},{"weekDay":3,"timeRanges":[{"opening":"09:00","closing":"22:00"}]},{"weekDay":4,"timeRanges":[{"opening":"09:00","closing":"22:00"}]},{"weekDay":5,"timeRanges":[{"opening":"09:00","closing":"22:00"}]},{"weekDay":6,"timeRanges":[{"opening":"09:00","closing":"22:00"}]},{"weekDay":7,"timeRanges":[{"opening":"09:00","closing":"22:00"}]}]},{"storeNumber":"83","address":{"name":"dm drogerie markt doo","street":"Episkopa Visariona 2c","zip":"21000","city":"Novi Sad"},"location":{"lat":45.259448,"lon":19.850974},"openingHours":[{"weekDay":1,"timeRanges":[{"opening":"08:00","closing":"21:00"}]},{"weekDay":2,"timeRanges":[{"opening":"08:00","closing":"21:00"}]},{"weekDay":3,"timeRanges":[{"opening":"08:00","closing":"21:00"}]},{"weekDay":4,"timeRanges":[{"opening":"08:00","closing":"21:00"}]},{"weekDay":5,"timeRanges":[{"opening":"08:00","closing":"21:00"}]},{"weekDay":6,"timeRanges":[{"opening":"08:00","closing":"18:00"}]}]},{"storeNumber":"84","address":{"name":"dm drogerie markt doo","street":"Darinke Radovi\u0107 33","zip":"11000","city":"Beograd"},"location":{"lat":44.730629,"lon":20.383053},"openingHours":[{"weekDay":1,"timeRanges":[{"opening":"08:00","closing":"21:00"}]},{"weekDay":2,"timeRanges":[{"opening":"08:00","closing":"21:00"}]},{"weekDay":3,"timeRanges":[{"opening":"08:00","closing":"21:00"}]},{"weekDay":4,"timeRanges":[{"opening":"08:00","closing":"21:00"}]},{"weekDay":5,"timeRanges":[{"opening":"08:00","closing":"21:00"}]},{"weekDay":6,"timeRanges":[{"opening":"08:00","closing":"21:00"}]},{"weekDay":7,"timeRanges":[{"opening":"08:00","closing":"15:00"}]}]},{"storeNumber":"85","address":{"name":"dm drogerie markt doo","street":"Masarikova 5","zip":"11000","city":"Beograd"},"location":{"lat":44.807055,"lon":20.463667},"openingHours":[{"weekDay":1,"timeRanges":[{"opening":"09:00","closing":"21:00"}]},{"weekDay":2,"timeRanges":[{"opening":"09:00","closing":"21:00"}]},{"weekDay":3,"timeRanges":[{"opening":"09:00","closing":"21:00"}]},{"weekDay":4,"timeRanges":[{"opening":"09:00","closing":"21:00"}]},{"weekDay":5,"timeRanges":[{"opening":"09:00","closing":"21:00"}]},{"weekDay":6,"timeRanges":[{"opening":"09:00","closing":"21:00"}]}]},{"storeNumber":"86","address":{"name":"dm drogerie markt doo","street":"Rableova 17","zip":"11000","city":"Beograd"},"location":{"lat":44.786731,"lon":20.534852},"openingHours":[{"weekDay":1,"timeRanges":[{"opening":"08:00","closing":"21:00"}]},{"weekDay":2,"timeRanges":[{"opening":"08:00","closing":"21:00"}]},{"weekDay":3,"timeRanges":[{"opening":"08:00","closing":"21:00"}]},{"weekDay":4,"timeRanges":[{"opening":"08:00","closing":"21:00"}]},{"weekDay":5,"timeRanges":[{"opening":"08:00","closing":"21:00"}]},{"weekDay":6,"timeRanges":[{"opening":"08:00","closing":"21:00"}]},{"weekDay":7,"timeRanges":[{"opening":"08:00","closing":"15:00"}]}]},{"storeNumber":"87","address":{"name":"dm drogerie markt doo","street":"Patrijarha Dimitrija 14","zip":"11090","city":"Beograd"},"location":{"lat":44.74015,"lon":20.43846},"openingHours":[{"weekDay":1,"timeRanges":[{"opening":"10:00","closing":"22:00"}]},{"weekDay":2,"timeRanges":[{"opening":"10:00","closing":"22:00"}]},{"weekDay":3,"timeRanges":[{"opening":"10:00","closing":"22:00"}]},{"weekDay":4,"timeRanges":[{"opening":"10:00","closing":"22:00"}]},{"weekDay":5,"timeRanges":[{"opening":"10:00","closing":"22:00"}]},{"weekDay":6,"timeRanges":[{"opening":"10:00","closing":"22:00"}]},{"weekDay":7,"timeRanges":[{"opening":"10:00","closing":"22:00"}]}]},{"storeNumber":"88","address":{"name":"dm drogerie markt doo","street":"Bul. Mediana 21","zip":"18000","city":"Ni\u0161"},"location":{"lat":43.31131,"lon":21.93598},"openingHours":[{"weekDay":1,"timeRanges":[{"opening":"09:00","closing":"22:00"}]},{"weekDay":2,"timeRanges":[{"opening":"09:00","closing":"22:00"}]},{"weekDay":3,"timeRanges":[{"opening":"09:00","closing":"22:00"}]},{"weekDay":4,"timeRanges":[{"opening":"09:00","closing":"22:00"}]},{"weekDay":5,"timeRanges":[{"opening":"09:00","closing":"22:00"}]},{"weekDay":6,"timeRanges":[{"opening":"09:00","closing":"22:00"}]},{"weekDay":7,"timeRanges":[{"opening":"09:00","closing":"22:00"}]}]},{"storeNumber":"89","address":{"name":"dm drogerie markt doo","street":"Uzun Mirkova 2b","zip":"14000","city":"Valjevo"},"location":{"lat":44.270444,"lon":19.898145},"openingHours":[{"weekDay":1,"timeRanges":[{"opening":"08:00","closing":"22:00"}]},{"weekDay":2,"timeRanges":[{"opening":"08:00","closing":"22:00"}]},{"weekDay":3,"timeRanges":[{"opening":"08:00","closing":"22:00"}]},{"weekDay":4,"timeRanges":[{"opening":"08:00","closing":"22:00"}]},{"weekDay":5,"timeRanges":[{"opening":"08:00","closing":"22:00"}]},{"weekDay":6,"timeRanges":[{"opening":"08:00","closing":"22:00"}]},{"weekDay":7,"timeRanges":[{"opening":"08:00","closing":"22:00"}]}]},{"storeNumber":"90","address":{"name":"dm drogerie markt doo","street":"\u0160trosmajerova 28","zip":"25000","city":"Sombor"},"location":{"lat":45.764623,"lon":19.124685},"openingHours":[{"weekDay":1,"timeRanges":[{"opening":"09:00","closing":"21:00"}]},{"weekDay":2,"timeRanges":[{"opening":"09:00","closing":"21:00"}]},{"weekDay":3,"timeRanges":[{"opening":"09:00","closing":"21:00"}]},{"weekDay":4,"timeRanges":[{"opening":"09:00","closing":"21:00"}]},{"weekDay":5,"timeRanges":[{"opening":"09:00","closing":"21:00"}]},{"weekDay":6,"timeRanges":[{"opening":"09:00","closing":"21:00"}]},{"weekDay":7,"timeRanges":[{"opening":"09:00","closing":"21:00"}]}]},{"storeNumber":"91","address":{"name":"dm drogerie markt doo","street":"Vojvode Mi\u0161i\u0107a 36v","zip":"11500","city":"Obrenovac"},"location":{"lat":44.652889,"lon":20.185205},"openingHours":[{"weekDay":1,"timeRanges":[{"opening":"08:00","closing":"21:00"}]},{"weekDay":2,"timeRanges":[{"opening":"08:00","closing":"21:00"}]},{"weekDay":3,"timeRanges":[{"opening":"08:00","closing":"21:00"}]},{"weekDay":4,"timeRanges":[{"opening":"08:00","closing":"21:00"}]},{"weekDay":5,"timeRanges":[{"opening":"08:00","closing":"21:00"}]},{"weekDay":6,"timeRanges":[{"opening":"08:00","closing":"21:00"}]},{"weekDay":7,"timeRanges":[{"opening":"09:00","closing":"19:00"}]}]},{"storeNumber":"92","address":{"name":"dm drogerie markt doo","street":"To\u0161in bunar 172","zip":"11070","city":"Beograd"},"location":{"lat":44.827491,"lon":20.397288},"openingHours":[{"weekDay":1,"timeRanges":[{"opening":"08:00","closing":"21:00"}]},{"weekDay":2,"timeRanges":[{"opening":"08:00","closing":"21:00"}]},{"weekDay":3,"timeRanges":[{"opening":"08:00","closing":"21:00"}]},{"weekDay":4,"timeRanges":[{"opening":"08:00","closing":"21:00"}]},{"weekDay":5,"timeRanges":[{"opening":"08:00","closing":"21:00"}]},{"weekDay":6,"timeRanges":[{"opening":"08:00","closing":"21:00"}]},{"weekDay":7,"timeRanges":[{"opening":"09:00","closing":"19:00"}]}]},{"storeNumber":"93","address":{"name":"dm drogerie markt doo","street":"Bratstva i jedinstva 2g","zip":"11211","city":"Beograd"},"location":{"lat":44.888307,"lon":20.45886},"openingHours":[{"weekDay":1,"timeRanges":[{"opening":"09:00","closing":"22:00"}]},{"weekDay":2,"timeRanges":[{"opening":"09:00","closing":"22:00"}]},{"weekDay":3,"timeRanges":[{"opening":"09:00","closing":"22:00"}]},{"weekDay":4,"timeRanges":[{"opening":"09:00","closing":"22:00"}]},{"weekDay":5,"timeRanges":[{"opening":"09:00","closing":"22:00"}]},{"weekDay":6,"timeRanges":[{"opening":"09:00","closing":"22:00"}]},{"weekDay":7,"timeRanges":[{"opening":"09:00","closing":"22:00"}]}]},{"storeNumber":"94","address":{"name":"dm drogerie markt doo","street":"Vojvode Radomira Putnika 8","zip":"26000","city":"Pan\u010devo"},"location":{"lat":44.869921,"lon":20.644053},"openingHours":[{"weekDay":1,"timeRanges":[{"opening":"08:00","closing":"21:00"}]},{"weekDay":2,"timeRanges":[{"opening":"08:00","closing":"21:00"}]},{"weekDay":3,"timeRanges":[{"opening":"08:00","closing":"21:00"}]},{"weekDay":4,"timeRanges":[{"opening":"08:00","closing":"21:00"}]},{"weekDay":5,"timeRanges":[{"opening":"08:00","closing":"21:00"}]},{"weekDay":6,"timeRanges":[{"opening":"09:00","closing":"17:00"}]}]},{"storeNumber":"96","address":{"name":"dm drogerie markt doo","street":"Bulevar kralja Aleksandra 30-32","zip":"11000","city":"Beograd"},"location":{"lat":44.808932,"lon":20.46844},"openingHours":[{"weekDay":1,"timeRanges":[{"opening":"08:00","closing":"21:00"}]},{"weekDay":2,"timeRanges":[{"opening":"08:00","closing":"21:00"}]},{"weekDay":3,"timeRanges":[{"opening":"08:00","closing":"21:00"}]},{"weekDay":4,"timeRanges":[{"opening":"08:00","closing":"21:00"}]},{"weekDay":5,"timeRanges":[{"opening":"08:00","closing":"21:00"}]},{"weekDay":6,"timeRanges":[{"opening":"08:00","closing":"21:00"}]},{"weekDay":7,"timeRanges":[{"opening":"08:00","closing":"15:00"}]}]},{"storeNumber":"97","address":{"name":"dm drogerie markt doo","street":"Knez Mihailova 54","zip":"11000","city":"Beograd"},"location":{"lat":44.820096,"lon":20.454328},"openingHours":[{"weekDay":1,"timeRanges":[{"opening":"09:00","closing":"22:00"}]},{"weekDay":2,"timeRanges":[{"opening":"09:00","closing":"22:00"}]},{"weekDay":3,"timeRanges":[{"opening":"09:00","closing":"22:00"}]},{"weekDay":4,"timeRanges":[{"opening":"09:00","closing":"22:00"}]},{"weekDay":5,"timeRanges":[{"opening":"09:00","closing":"22:00"}]},{"weekDay":6,"timeRanges":[{"opening":"09:00","closing":"22:00"}]},{"weekDay":7,"timeRanges":[{"opening":"09:00","closing":"22:00"}]}]},{"storeNumber":"98","address":{"name":"dm drogerie markt doo","street":"\u0160alina\u010dka 58","zip":"11300","city":"Smederevo"},"location":{"lat":44.675275,"lon":20.946825},"openingHours":[{"weekDay":1,"timeRanges":[{"opening":"09:00","closing":"21:00"}]},{"weekDay":2,"timeRanges":[{"opening":"09:00","closing":"21:00"}]},{"weekDay":3,"timeRanges":[{"opening":"09:00","closing":"21:00"}]},{"weekDay":4,"timeRanges":[{"opening":"09:00","closing":"21:00"}]},{"weekDay":5,"timeRanges":[{"opening":"09:00","closing":"21:00"}]},{"weekDay":6,"timeRanges":[{"opening":"09:00","closing":"21:00"}]},{"weekDay":7,"timeRanges":[{"opening":"09:00","closing":"21:00"}]}]},{"storeNumber":"99","address":{"name":"dm drogerie markt doo","street":"\u017delezni\u010dka 4","zip":"11550","city":"Lazarevac"},"location":{"lat":44.386823,"lon":20.250984},"openingHours":[{"weekDay":1,"timeRanges":[{"opening":"09:00","closing":"22:00"}]},{"weekDay":2,"timeRanges":[{"opening":"09:00","closing":"22:00"}]},{"weekDay":3,"timeRanges":[{"opening":"09:00","closing":"22:00"}]},{"weekDay":4,"timeRanges":[{"opening":"09:00","closing":"22:00"}]},{"weekDay":5,"timeRanges":[{"opening":"09:00","closing":"22:00"}]},{"weekDay":6,"timeRanges":[{"opening":"09:00","closing":"22:00"}]},{"weekDay":7,"timeRanges":[{"opening":"09:00","closing":"22:00"}]}]}]