[{"storeNumber":"125","address":{"name":"dm drogerie markt","street":"Hod\u017eovo n\u00e1mestie 4","zip":"811 06","city":"Bratislava"},"location":{"lat":48.14861,"lon":17.10894},"openingHours":[{"weekDay":1,"timeRanges":[{"opening":"08:00","closing":"19:00"}]},{"weekDay":2,"timeRanges":[{"opening":"08:00","closing":"19:00"}]},{"weekDay":3,"timeRanges":[{"opening":"08:00","closing":"19:00"}]},{"weekDay":4,"timeRanges":[{"opening":"08:00","closing":"19:00"}]},{"weekDay":5,"timeRanges":[{"opening":"08:00","closing":"19:00"}]},{"weekDay":6,"timeRanges":[{"opening":"09:00","closing":"13:00"}]}]},{"storeNumber":"127","address":{"name":"dm drogerie markt","street":"Iv\u00e1nska cesta 12","zip":"821 04","city":"Bratislava"},"location":{"lat":48.1646407,"lon":17.1809322},"openingHours":[{"weekDay":1,"timeRanges":[{"opening":"09:00","closing":"21:00"}]},{"weekDay":2,"timeRanges":[{"opening":"09:00","closing":"21:00"}]},{"weekDay":3,"timeRanges":[{"opening":"09:00","closing":"21:00"}]},{"weekDay":4,"timeRanges":[{"opening":"09:00","closing":"21:00"}]},{"weekDay":5,"timeRanges":[{"opening":"09:00","closing":"21:00"}]},{"weekDay":6,"timeRanges":[{"opening":"09:00","closing":"21:00"}]},{"weekDay":7,"timeRanges":[{"opening":"09:00","closing":"21:00"}]}]},{"storeNumber":"128","address":{"name":"dm drogerie markt","street":"N\u00e1mestie hrdinov 6","zip":"934 01","city":"Levice"},"location":{"lat":48.21962,"lon":18.60766},"openingHours":[{"weekDay":1,"timeRanges":[{"opening":"08:00","closing":"18:00"}]},{"weekDay":2,"timeRanges":[{"opening":"08:00","closing":"18:00"}]},{"weekDay":3,"timeRanges":[{"opening":"08:00","closing":"18:00"}]},{"weekDay":4,"timeRanges":[{"opening":"08:00","closing":"18:00"}]},{"weekDay":5,"timeRanges":[{"opening":"08:00","closing":"18:00"}]},{"weekDay":6,"timeRanges":[{"opening":"08:00","closing":"12:00"}]}]},{"storeNumber":"129","address":{"name":"dm drogerie markt","street":"Moldavsk\u00e1 cesta 32","zip":"040 11","city":"Ko\u0161ice"},"location":{"lat":48.6953904,"lon":21.2372271},"openingHours":[{"weekDay":1,"timeRanges":[{"opening":"09:00","closing":"21:00"}]},{"weekDay":2,"timeRanges":[{"opening":"09:00","closing":"21:00"}]},{"weekDay":3,"timeRanges":[{"opening":"09:00","closing":"21:00"}]},{"weekDay":4,"timeRanges":[{"opening":"09:00","closing":"21:00"}]},{"weekDay":5,"timeRanges":[{"opening":"09:00","closing":"21:00"}]},{"weekDay":6,"timeRanges":[{"opening":"09:00","closing":"21:00"}]},{"weekDay":7,"timeRanges":[{"opening":"09:00","closing":"21:00"}]}]},{"storeNumber":"130","address":{"name":"dm drogerie markt","street":"\u0160tef\u00e1nikova 688","zip":"020 01","city":"P\u00fachov"},"location":{"lat":49.1219535,"lon":18.3249},"openingHours":[{"weekDay":1,"timeRanges":[{"opening":"08:00","closing":"18:00"}]},{"weekDay":2,"timeRanges":[{"opening":"08:00","closing":"18:00"}]},{"weekDay":3,"timeRanges":[{"opening":"08:00","closing":"18:00"}]},{"weekDay":4,"timeRanges":[{"opening":"08:00","closing":"18:00"}]},{"weekDay":5,"timeRanges":[{"opening":"08:00","closing":"18:00"}]},{"weekDay":6,"timeRanges":[{"opening":"08:00","closing":"12:00"}]}]},{"storeNumber":"131","address":{"name":"dm drogerie markt","street":"Lichnerova 28","zip":"903 01","city":"Senec"},"location":{"lat":48.21907,"lon":17.40066},"openingHours":[{"weekDay":1,"timeRanges":[{"opening":"08:00","closing":"18:30"}]},{"weekDay":2,"timeRanges":[{"opening":"08:00","closing":"18:30"}]},{"weekDay":3,"timeRanges":[{"opening":"08:00","closing":"18:30"}]},{"weekDay":4,"timeRanges":[{"opening":"08:00","closing":"18:30"}]},{"weekDay":5,"timeRanges":[{"opening":"08:00","closing":"18:30"}]},{"weekDay":6,"timeRanges":[{"opening":"08:00","closing":"12:30"}]}]},{"storeNumber":"134","address":{"name":"dm drogerie markt","street":"Podhora 48","zip":"034 01","city":"Ru\u017eomberok"},"location":{"lat":49.07947,"lon":19.30484},"openingHours":[{"weekDay":1,"timeRanges":[{"opening":"08:00","closing":"18:30"}]},{"weekDay":2,"timeRanges":[{"opening":"08:00","closing":"18:30"}]},{"weekDay":3,"timeRanges":[{"opening":"08:00","closing":"18:30"}]},{"weekDay":4,"timeRanges":[{"opening":"08:00","closing":"18:30"}]},{"weekDay":5,"timeRanges":[{"opening":"08:00","closing":"18:30"}]},{"weekDay":6,"timeRanges":[{"opening":"08:00","closing":"13:00"}]}]},{"storeNumber":"136","address":{"name":"dm drogerie markt","street":"Einsteinova 18","zip":"851 01","city":"Bratislava"},"location":{"lat":48.132387,"lon":17.1091705},"openingHours":[{"weekDay":1,"timeRanges":[{"opening":"09:00","closing":"21:00"}]},{"weekDay":2,"timeRanges":[{"opening":"09:00","closing":"21:00"}]},{"weekDay":3,"timeRanges":[{"opening":"09:00","closing":"21:00"}]},{"weekDay":4,"timeRanges":[{"opening":"09:00","closing":"21:00"}]},{"weekDay":5,"timeRanges":[{"opening":"09:00","closing":"21:00"}]},{"weekDay":6,"timeRanges":[{"opening":"09:00","closing":"21:00"}]},{"weekDay":7,"timeRanges":[{"opening":"09:00","closing":"21:00"}]}]},{"storeNumber":"138","address":{"name":"dm drogerie markt","street":"Koz\u00e1\u010deka 8","zip":"960 01","city":"Zvolen"},"location":{"lat":48.57727,"lon":19.12923},"openingHours":[{"weekDay":1,"timeRanges":[{"opening":"08:00","closing":"18:00"}]},{"weekDay":2,"timeRanges":[{"opening":"08:00","closing":"18:00"}]},{"weekDay":3,"timeRanges":[{"opening":"08:00","closing":"18:00"}]},{"weekDay":4,"timeRanges":[{"opening":"08:00","closing":"18:00"}]},{"weekDay":5,"timeRanges":[{"opening":"08:00","closing":"18:00"}]},{"weekDay":6,"timeRanges":[{"opening":"08:30","closing":"12:30"}]}]},{"storeNumber":"140","address":{"name":"dm drogerie markt","street":"Pal\u00e1rikova 1449","zip":"022 04","city":"\u010cadca"},"location":{"lat":49.43806,"lon":18.78843},"openingHours":[{"weekDay":1,"timeRanges":[{"opening":"08:00","closing":"18:00"}]},{"weekDay":2,"timeRanges":[{"opening":"08:00","closing":"18:00"}]},{"weekDay":3,"timeRanges":[{"opening":"08:00","closing":"18:00"}]},{"weekDay":4,"timeRanges":[{"opening":"08:00","closing":"18:00"}]},{"weekDay":5,"timeRanges":[{"opening":"08:00","closing":"18:00"}]},{"weekDay":6,"timeRanges":[{"opening":"08:00","closing":"12:00"}]}]},{"storeNumber":"141","address":{"name":"dm drogerie markt","street":"Hviezdoslavova 202","zip":"911 01","city":"Tren\u010d\u00edn"},"location":{"lat":48.8915826,"lon":18.038669},"openingHours":[{"weekDay":1,"timeRanges":[{"opening":"08:00","closing":"18:00"}]},{"weekDay":2,"timeRanges":[{"opening":"08:00","closing":"18:00"}]},{"weekDay":3,"timeRanges":[{"opening":"08:00","closing":"18:00"}]},{"weekDay":4,"timeRanges":[{"opening":"08:00","closing":"18:00"}]},{"weekDay":5,"timeRanges":[{"opening":"08:00","closing":"18:00"}]},{"weekDay":6,"timeRanges":[{"opening":"08:00","closing":"12:00"}]}]},{"storeNumber":"142","address":{"name":"dm drogerie markt","street":"OC Gal\u00e9ria, Torysk\u00e1 ulica 5","zip":"040 01","city":"Ko\u0161ice"},"location":{"lat":48.71479,"lon":21.23756},"openingHours":[{"weekDay":1,"timeRanges":[{"opening":"09:00","closing":"21:00"}]},{"weekDay":2,"timeRanges":[{"opening":"09:00","closing":"21:00"}]},{"weekDay":3,"timeRanges":[{"opening":"09:00","closing":"21:00"}]},{"weekDay":4,"timeRanges":[{"opening":"09:00","closing":"21:00"}]},{"weekDay":5,"timeRanges":[{"opening":"09:00","closing":"21:00"}]},{"weekDay":6,"timeRanges":[{"opening":"09:00","closing":"21:00"}]},{"weekDay":7,"timeRanges":[{"opening":"09:00","closing":"21:00"}]}]},{"storeNumber":"143","address":{"name":"dm drogerie markt","street":"Hlavn\u00e1 681","zip":"927 01","city":"\u0160ala"},"location":{"lat":48.15059,"lon":17.87415},"openingHours":[{"weekDay":1,"timeRanges":[{"opening":"08:00","closing":"18:00"}]},{"weekDay":2,"timeRanges":[{"opening":"08:00","closing":"18:00"}]},{"weekDay":3,"timeRanges":[{"opening":"08:00","closing":"18:00"}]},{"weekDay":4,"timeRanges":[{"opening":"08:00","closing":"18:00"}]},{"weekDay":5,"timeRanges":[{"opening":"08:00","closing":"18:00"}]},{"weekDay":6,"timeRanges":[{"opening":"08:00","closing":"12:00"}]}]},{"storeNumber":"144","address":{"name":"dm drogerie markt","street":"OC Plus, Holubyho 28","zip":"902 01","city":"Pezinok"},"location":{"lat":48.28722,"lon":17.26823},"openingHours":[{"weekDay":1,"timeRanges":[{"opening":"09:00","closing":"20:00"}]},{"weekDay":2,"timeRanges":[{"opening":"09:00","closing":"20:00"}]},{"weekDay":3,"timeRanges":[{"opening":"09:00","closing":"20:00"}]},{"weekDay":4,"timeRanges":[{"opening":"09:00","closing":"20:00"}]},{"weekDay":5,"timeRanges":[{"opening":"09:00","closing":"20:00"}]},{"weekDay":6,"timeRanges":[{"opening":"09:00","closing":"20:00"}]},{"weekDay":7,"timeRanges":[{"opening":"09:00","closing":"20:00"}]}]},{"storeNumber":"145","address":{"name":"dm drogerie markt","street":"\u013d.Fullu 3","zip":"841 05","city":"Bratislava"},"location":{"lat":48.15301,"lon":17.04988},"openingHours":[{"weekDay":1,"timeRanges":[{"opening":"08:00","closing":"19:00"}]},{"weekDay":2,"timeRanges":[{"opening":"08:00","closing":"19:00"}]},{"weekDay":3,"timeRanges":[{"opening":"08:00","closing":"19:00"}]},{"weekDay":4,"timeRanges":[{"opening":"08:00","closing":"19:00"}]},{"weekDay":5,"timeRanges":[{"opening":"08:00","closing":"19:00"}]},{"weekDay":6,"timeRanges":[{"opening":"08:00","closing":"13:00"}]}]},{"storeNumber":"149","address":{"name":"dm drogerie markt","street":"Hlavn\u00e1 592\/51","zip":"900 31","city":"Stupava"},"location":{"lat":48.27087,"lon":17.03188},"openingHours":[{"weekDay":1,"timeRanges":[{"opening":"08:00","closing":"18:30"}]},{"weekDay":2,"timeRanges":[{"opening":"08:00","closing":"18:30"}]},{"weekDay":3,"timeRanges":[{"opening":"08:00","closing":"18:30"}]},{"weekDay":4,"timeRanges":[{"opening":"08:00","closing":"18:30"}]},{"weekDay":5,"timeRanges":[{"opening":"08:00","closing":"18:30"}]},{"weekDay":6,"timeRanges":[{"opening":"08:00","closing":"12:30"}]}]},{"storeNumber":"151","address":{"name":"dm drogerie markt","street":"Hlavn\u00e1 47","zip":"931 01","city":"\u0160amor\u00edn"},"location":{"lat":48.02743,"lon":17.30983},"openingHours":[{"weekDay":1,"timeRanges":[{"opening":"08:00","closing":"18:30"}]},{"weekDay":2,"timeRanges":[{"opening":"08:00","closing":"18:30"}]},{"weekDay":3,"timeRanges":[{"opening":"08:00","closing":"18:30"}]},{"weekDay":4,"timeRanges":[{"opening":"08:00","closing":"18:30"}]},{"weekDay":5,"timeRanges":[{"opening":"08:00","closing":"18:30"}]},{"weekDay":6,"timeRanges":[{"opening":"08:00","closing":"13:00"}]}]},{"storeNumber":"152","address":{"name":"dm drogerie markt","street":"Kyjevsk\u00e9 n\u00e1m. 5","zip":"974 04","city":"Bansk\u00e1 Bystrica"},"location":{"lat":48.72717,"lon":19.11949},"openingHours":[{"weekDay":1,"timeRanges":[{"opening":"08:00","closing":"18:00"}]},{"weekDay":2,"timeRanges":[{"opening":"08:00","closing":"18:00"}]},{"weekDay":3,"timeRanges":[{"opening":"08:00","closing":"18:00"}]},{"weekDay":4,"timeRanges":[{"opening":"08:00","closing":"18:00"}]},{"weekDay":5,"timeRanges":[{"opening":"08:00","closing":"18:00"}]},{"weekDay":6,"timeRanges":[{"opening":"08:00","closing":"12:00"}]}]},{"storeNumber":"154","address":{"name":"dm drogerie markt","street":"Bel\u00e1 6988","zip":"913 21","city":"Tren\u010d\u00edn"},"location":{"lat":48.86591,"lon":18.0205},"openingHours":[{"weekDay":1,"timeRanges":[{"opening":"08:00","closing":"20:00"}]},{"weekDay":2,"timeRanges":[{"opening":"08:00","closing":"20:00"}]},{"weekDay":3,"timeRanges":[{"opening":"08:00","closing":"20:00"}]},{"weekDay":4,"timeRanges":[{"opening":"08:00","closing":"20:00"}]},{"weekDay":5,"timeRanges":[{"opening":"08:00","closing":"20:00"}]},{"weekDay":6,"timeRanges":[{"opening":"09:00","closing":"20:00"}]},{"weekDay":7,"timeRanges":[{"opening":"09:00","closing":"20:00"}]}]},{"storeNumber":"155","address":{"name":"dm drogerie markt","street":"Nitrianska cesta 109\/D","zip":"940 67","city":"Nov\u00e9 Z\u00e1mky"},"location":{"lat":48.00133,"lon":18.15568},"openingHours":[{"weekDay":1,"timeRanges":[{"opening":"09:00","closing":"20:00"}]},{"weekDay":2,"timeRanges":[{"opening":"09:00","closing":"20:00"}]},{"weekDay":3,"timeRanges":[{"opening":"09:00","closing":"20:00"}]},{"weekDay":4,"timeRanges":[{"opening":"09:00","closing":"20:00"}]},{"weekDay":5,"timeRanges":[{"opening":"09:00","closing":"20:00"}]},{"weekDay":6,"timeRanges":[{"opening":"09:00","closing":"20:00"}]},{"weekDay":7,"timeRanges":[{"opening":"09:00","closing":"20:00"}]}]},{"storeNumber":"156","address":{"name":"dm drogerie markt","street":"OD Moyzesova 7","zip":"058 01","city":"Poprad"},"location":{"lat":49.04465,"lon":20.29156},"openingHours":[{"weekDay":1,"timeRanges":[{"opening":"09:00","closing":"20:00"}]},{"weekDay":2,"timeRanges":[{"opening":"09:00","closing":"20:00"}]},{"weekDay":3,"timeRanges":[{"opening":"09:00","closing":"20:00"}]},{"weekDay":4,"timeRanges":[{"opening":"09:00","closing":"20:00"}]},{"weekDay":5,"timeRanges":[{"opening":"09:00","closing":"20:00"}]},{"weekDay":6,"timeRanges":[{"opening":"09:00","closing":"20:00"}]},{"weekDay":7,"timeRanges":[{"opening":"09:00","closing":"20:00"}]}]},{"storeNumber":"157","address":{"name":"dm drogerie markt","street":"Hviezdoslavov\u00e1 39","zip":"953 01","city":"Zlat\u00e9 Moravce"},"location":{"lat":48.38551,"lon":18.38945},"openingHours":[{"weekDay":1,"timeRanges":[{"opening":"08:00","closing":"19:00"}]},{"weekDay":2,"timeRanges":[{"opening":"08:00","closing":"19:00"}]},{"weekDay":3,"timeRanges":[{"opening":"08:00","closing":"19:00"}]},{"weekDay":4,"timeRanges":[{"opening":"08:00","closing":"19:00"}]},{"weekDay":5,"timeRanges":[{"opening":"08:00","closing":"19:00"}]},{"weekDay":6,"timeRanges":[{"opening":"08:00","closing":"17:00"}]}]},{"storeNumber":"158","address":{"name":"dm drogerie markt","street":"Hlavn\u00e1 116","zip":"080 01","city":"Pre\u0161ov"},"location":{"lat":48.99945,"lon":21.23976},"openingHours":[{"weekDay":1,"timeRanges":[{"opening":"08:00","closing":"18:30"}]},{"weekDay":2,"timeRanges":[{"opening":"08:00","closing":"18:30"}]},{"weekDay":3,"timeRanges":[{"opening":"08:00","closing":"18:30"}]},{"weekDay":4,"timeRanges":[{"opening":"08:00","closing":"18:30"}]},{"weekDay":5,"timeRanges":[{"opening":"08:00","closing":"18:30"}]},{"weekDay":6,"timeRanges":[{"opening":"08:00","closing":"12:00"}]}]},{"storeNumber":"161","address":{"name":"dm drogerie markt","street":"Obchodn\u00e1 58","zip":"811 02","city":"Bratislava"},"location":{"lat":48.14821,"lon":17.11204},"openingHours":[{"weekDay":1,"timeRanges":[{"opening":"08:00","closing":"20:00"}]},{"weekDay":2,"timeRanges":[{"opening":"08:00","closing":"20:00"}]},{"weekDay":3,"timeRanges":[{"opening":"08:00","closing":"20:00"}]},{"weekDay":4,"timeRanges":[{"opening":"08:00","closing":"20:00"}]},{"weekDay":5,"timeRanges":[{"opening":"08:00","closing":"20:00"}]},{"weekDay":6,"timeRanges":[{"opening":"09:00","closing":"18:00"}]}]},{"storeNumber":"163","address":{"name":"dm drogerie markt","street":"Poto\u010dn\u00e1 22","zip":"909 01","city":"Skalica"},"location":{"lat":48.84631,"lon":17.22569},"openingHours":[{"weekDay":1,"timeRanges":[{"opening":"08:00","closing":"18:00"}]},{"weekDay":2,"timeRanges":[{"opening":"08:00","closing":"18:00"}]},{"weekDay":3,"timeRanges":[{"opening":"08:00","closing":"18:00"}]},{"weekDay":4,"timeRanges":[{"opening":"08:00","closing":"18:00"}]},{"weekDay":5,"timeRanges":[{"opening":"08:00","closing":"18:00"}]},{"weekDay":6,"timeRanges":[{"opening":"08:00","closing":"12:00"}]}]},{"storeNumber":"164","address":{"name":"dm drogerie markt","street":"M.R.\u0160tef\u00e1nika 4","zip":"920 01","city":"Hlohovec"},"location":{"lat":48.4278063,"lon":17.7975338},"openingHours":[{"weekDay":1,"timeRanges":[{"opening":"08:00","closing":"18:00"}]},{"weekDay":2,"timeRanges":[{"opening":"08:00","closing":"18:00"}]},{"weekDay":3,"timeRanges":[{"opening":"08:00","closing":"18:00"}]},{"weekDay":4,"timeRanges":[{"opening":"08:00","closing":"18:00"}]},{"weekDay":5,"timeRanges":[{"opening":"08:00","closing":"18:00"}]},{"weekDay":6,"timeRanges":[{"opening":"08:00","closing":"12:00"}]}]},{"storeNumber":"165","address":{"name":"dm drogerie markt","street":"Obchodn\u00e1 4","zip":"955 01","city":"Topo\u013e\u010dany"},"location":{"lat":48.56053,"lon":18.17323},"openingHours":[{"weekDay":1,"timeRanges":[{"opening":"08:00","closing":"18:00"}]},{"weekDay":2,"timeRanges":[{"opening":"08:00","closing":"18:00"}]},{"weekDay":3,"timeRanges":[{"opening":"08:00","closing":"18:00"}]},{"weekDay":4,"timeRanges":[{"opening":"08:00","closing":"18:00"}]},{"weekDay":5,"timeRanges":[{"opening":"08:00","closing":"18:00"}]},{"weekDay":6,"timeRanges":[{"opening":"08:00","closing":"12:00"}]}]},{"storeNumber":"166","address":{"name":"dm drogerie markt","street":"Saratovsk\u00e1 686\/28","zip":"841 02","city":"Bratislava"},"location":{"lat":48.19301,"lon":17.03395},"openingHours":[{"weekDay":1,"timeRanges":[{"opening":"08:00","closing":"20:00"}]},{"weekDay":2,"timeRanges":[{"opening":"08:00","closing":"20:00"}]},{"weekDay":3,"timeRanges":[{"opening":"08:00","closing":"20:00"}]},{"weekDay":4,"timeRanges":[{"opening":"08:00","closing":"20:00"}]},{"weekDay":5,"timeRanges":[{"opening":"08:00","closing":"20:00"}]},{"weekDay":6,"timeRanges":[{"opening":"08:00","closing":"20:00"}]},{"weekDay":7,"timeRanges":[{"opening":"08:00","closing":"20:00"}]}]},{"storeNumber":"168","address":{"name":"dm drogerie markt","street":"Kuba\u010dova 19","zip":"831 06","city":"Bratislava"},"location":{"lat":48.21099,"lon":17.15342},"openingHours":[{"weekDay":1,"timeRanges":[{"opening":"08:00","closing":"18:30"}]},{"weekDay":2,"timeRanges":[{"opening":"08:00","closing":"18:30"}]},{"weekDay":3,"timeRanges":[{"opening":"08:00","closing":"18:30"}]},{"weekDay":4,"timeRanges":[{"opening":"08:00","closing":"18:30"}]},{"weekDay":5,"timeRanges":[{"opening":"08:00","closing":"18:30"}]},{"weekDay":6,"timeRanges":[{"opening":"08:00","closing":"12:30"}]}]},{"storeNumber":"169","address":{"name":"dm drogerie markt","street":"N\u00e1mestie SNP 18","zip":"974 01","city":"Bansk\u00e1 Bystrica"},"location":{"lat":48.73551,"lon":19.14476},"openingHours":[{"weekDay":1,"timeRanges":[{"opening":"08:00","closing":"18:30"}]},{"weekDay":2,"timeRanges":[{"opening":"08:00","closing":"18:30"}]},{"weekDay":3,"timeRanges":[{"opening":"08:00","closing":"18:30"}]},{"weekDay":4,"timeRanges":[{"opening":"08:00","closing":"18:30"}]},{"weekDay":5,"timeRanges":[{"opening":"08:00","closing":"18:30"}]},{"weekDay":6,"timeRanges":[{"opening":"08:30","closing":"12:30"}]}]},{"storeNumber":"170","address":{"name":"dm drogerie markt","street":"\u0160t\u00farova 4","zip":"811 02","city":"Bratislava"},"location":{"lat":48.14321,"lon":17.11318},"openingHours":[{"weekDay":1,"timeRanges":[{"opening":"08:00","closing":"19:00"}]},{"weekDay":2,"timeRanges":[{"opening":"08:00","closing":"19:00"}]},{"weekDay":3,"timeRanges":[{"opening":"08:00","closing":"19:00"}]},{"weekDay":4,"timeRanges":[{"opening":"08:00","closing":"19:00"}]},{"weekDay":5,"timeRanges":[{"opening":"08:00","closing":"19:00"}]},{"weekDay":6,"timeRanges":[{"opening":"09:00","closing":"14:00"}]}]},{"storeNumber":"171","address":{"name":"dm drogerie markt","street":"ul. A. Bernol\u00e1ka 1","zip":"010 01","city":"\u017dilina"},"location":{"lat":49.2167253,"lon":18.7405575},"openingHours":[{"weekDay":1,"timeRanges":[{"opening":"08:00","closing":"18:30"}]},{"weekDay":2,"timeRanges":[{"opening":"08:00","closing":"18:30"}]},{"weekDay":3,"timeRanges":[{"opening":"08:00","closing":"18:30"}]},{"weekDay":4,"timeRanges":[{"opening":"08:00","closing":"18:30"}]},{"weekDay":5,"timeRanges":[{"opening":"08:00","closing":"18:30"}]},{"weekDay":6,"timeRanges":[{"opening":"08:00","closing":"12:00"}]}]},{"storeNumber":"172","address":{"name":"dm drogerie markt","street":"Parn\u00fd mlyn 5544","zip":"984 01","city":"Lu\u010denec"},"location":{"lat":48.3324836,"lon":19.63874},"openingHours":[{"weekDay":1,"timeRanges":[{"opening":"09:00","closing":"19:00"}]},{"weekDay":2,"timeRanges":[{"opening":"09:00","closing":"19:00"}]},{"weekDay":3,"timeRanges":[{"opening":"09:00","closing":"19:00"}]},{"weekDay":4,"timeRanges":[{"opening":"09:00","closing":"19:00"}]},{"weekDay":5,"timeRanges":[{"opening":"09:00","closing":"19:00"}]},{"weekDay":6,"timeRanges":[{"opening":"09:00","closing":"19:00"}]},{"weekDay":7,"timeRanges":[{"opening":"09:00","closing":"19:00"}]}]},{"storeNumber":"174","address":{"name":"dm drogerie markt","street":"Stroj\u00e1rska 2524","zip":"069 01","city":"Snina"},"location":{"lat":48.9872208,"lon":22.1515394},"openingHours":[{"weekDay":1,"timeRanges":[{"opening":"08:00","closing":"18:00"}]},{"weekDay":2,"timeRanges":[{"opening":"08:00","closing":"18:00"}]},{"weekDay":3,"timeRanges":[{"opening":"08:00","closing":"18:00"}]},{"weekDay":4,"timeRanges":[{"opening":"08:00","closing":"18:00"}]},{"weekDay":5,"timeRanges":[{"opening":"08:00","closing":"18:00"}]},{"weekDay":6,"timeRanges":[{"opening":"08:00","closing":"12:00"}]}]},{"storeNumber":"175","address":{"name":"dm drogerie markt","street":"N\u00e1mestie Hrani\u010diarov 37","zip":"851 03","city":"Bratislava"},"location":{"lat":48.12031,"lon":17.11926},"openingHours":[{"weekDay":1,"timeRanges":[{"opening":"08:00","closing":"19:00"}]},{"weekDay":2,"timeRanges":[{"opening":"08:00","closing":"19:00"}]},{"weekDay":3,"timeRanges":[{"opening":"08:00","closing":"19:00"}]},{"weekDay":4,"timeRanges":[{"opening":"08:00","closing":"19:00"}]},{"weekDay":5,"timeRanges":[{"opening":"08:00","closing":"19:00"}]},{"weekDay":6,"timeRanges":[{"opening":"08:00","closing":"13:00"}]}]},{"storeNumber":"176","address":{"name":"dm drogerie markt","street":"Hlavn\u00e1 ulica 918\/2","zip":"924 01","city":"Galanta"},"location":{"lat":48.18974,"lon":17.72844},"openingHours":[{"weekDay":1,"timeRanges":[{"opening":"08:00","closing":"18:00"}]},{"weekDay":2,"timeRanges":[{"opening":"08:00","closing":"18:00"}]},{"weekDay":3,"timeRanges":[{"opening":"08:00","closing":"18:00"}]},{"weekDay":4,"timeRanges":[{"opening":"08:00","closing":"18:00"}]},{"weekDay":5,"timeRanges":[{"opening":"08:00","closing":"18:00"}]},{"weekDay":6,"timeRanges":[{"opening":"08:00","closing":"12:00"}]}]},{"storeNumber":"177","address":{"name":"dm drogerie markt","street":"Bratislavsk\u00e1 cesta 4579","zip":"945 01","city":"Kom\u00e1rno"},"location":{"lat":47.7645948,"lon":18.0983427},"openingHours":[{"weekDay":1,"timeRanges":[{"opening":"09:00","closing":"20:00"}]},{"weekDay":2,"timeRanges":[{"opening":"09:00","closing":"20:00"}]},{"weekDay":3,"timeRanges":[{"opening":"09:00","closing":"20:00"}]},{"weekDay":4,"timeRanges":[{"opening":"09:00","closing":"20:00"}]},{"weekDay":5,"timeRanges":[{"opening":"09:00","closing":"20:00"}]},{"weekDay":6,"timeRanges":[{"opening":"09:00","closing":"20:00"}]},{"weekDay":7,"timeRanges":[{"opening":"09:00","closing":"20:00"}]}]},{"storeNumber":"178","address":{"name":"dm drogerie markt","street":"Dolno\u010dermansk\u00e1 7220\/22","zip":"949 01","city":"Nitra"},"location":{"lat":48.3018,"lon":18.06365},"openingHours":[{"weekDay":1,"timeRanges":[{"opening":"09:00","closing":"20:00"}]},{"weekDay":2,"timeRanges":[{"opening":"09:00","closing":"20:00"}]},{"weekDay":3,"timeRanges":[{"opening":"09:00","closing":"20:00"}]},{"weekDay":4,"timeRanges":[{"opening":"09:00","closing":"20:00"}]},{"weekDay":5,"timeRanges":[{"opening":"09:00","closing":"20:00"}]},{"weekDay":6,"timeRanges":[{"opening":"09:00","closing":"20:00"}]},{"weekDay":7,"timeRanges":[{"opening":"09:00","closing":"20:00"}]}]},{"storeNumber":"179","address":{"name":"dm drogerie markt","street":"Galantsk\u00e1 cesta 5695\/15","zip":"929 01","city":"Dunajsk\u00e1 Streda"},"location":{"lat":47.9973705,"lon":17.6292378},"openingHours":[{"weekDay":1,"timeRanges":[{"opening":"09:00","closing":"20:00"}]},{"weekDay":2,"timeRanges":[{"opening":"09:00","closing":"20:00"}]},{"weekDay":3,"timeRanges":[{"opening":"09:00","closing":"20:00"}]},{"weekDay":4,"timeRanges":[{"opening":"09:00","closing":"20:00"}]},{"weekDay":5,"timeRanges":[{"opening":"09:00","closing":"20:00"}]},{"weekDay":6,"timeRanges":[{"opening":"09:00","closing":"20:00"}]},{"weekDay":7,"timeRanges":[{"opening":"09:00","closing":"20:00"}]}]},{"storeNumber":"180","address":{"name":"dm drogerie markt","street":"Nikola Teslu 743\/29","zip":"921 01","city":"Pie\u0161\u0165any"},"location":{"lat":48.5910776,"lon":17.8039002},"openingHours":[{"weekDay":1,"timeRanges":[{"opening":"09:00","closing":"20:00"}]},{"weekDay":2,"timeRanges":[{"opening":"09:00","closing":"20:00"}]},{"weekDay":3,"timeRanges":[{"opening":"09:00","closing":"20:00"}]},{"weekDay":4,"timeRanges":[{"opening":"09:00","closing":"20:00"}]},{"weekDay":5,"timeRanges":[{"opening":"09:00","closing":"20:00"}]},{"weekDay":6,"timeRanges":[{"opening":"09:00","closing":"20:00"}]},{"weekDay":7,"timeRanges":[{"opening":"09:00","closing":"20:00"}]}]},{"storeNumber":"181","address":{"name":"dm drogerie markt","street":"Duklianskych hrdinov 26706\/31A","zip":"093 01","city":"Vranov nad Top\u013eou"},"location":{"lat":48.8849314,"lon":21.6787379},"openingHours":[{"weekDay":1,"timeRanges":[{"opening":"09:00","closing":"19:00"}]},{"weekDay":2,"timeRanges":[{"opening":"09:00","closing":"19:00"}]},{"weekDay":3,"timeRanges":[{"opening":"09:00","closing":"19:00"}]},{"weekDay":4,"timeRanges":[{"opening":"09:00","closing":"19:00"}]},{"weekDay":5,"timeRanges":[{"opening":"09:00","closing":"19:00"}]},{"weekDay":6,"timeRanges":[{"opening":"09:00","closing":"19:00"}]},{"weekDay":7,"timeRanges":[{"opening":"09:00","closing":"19:00"}]}]},{"storeNumber":"182","address":{"name":"dm drogerie markt","street":"Duklianska ul. 3821","zip":"085 01","city":"Bardejov"},"location":{"lat":49.3017708,"lon":21.2840054},"openingHours":[{"weekDay":1,"timeRanges":[{"opening":"09:00","closing":"20:00"}]},{"weekDay":2,"timeRanges":[{"opening":"09:00","closing":"20:00"}]},{"weekDay":3,"timeRanges":[{"opening":"09:00","closing":"20:00"}]},{"weekDay":4,"timeRanges":[{"opening":"09:00","closing":"20:00"}]},{"weekDay":5,"timeRanges":[{"opening":"09:00","closing":"20:00"}]},{"weekDay":6,"timeRanges":[{"opening":"09:00","closing":"20:00"}]},{"weekDay":7,"timeRanges":[{"opening":"09:00","closing":"20:00"}]}]},{"storeNumber":"183","address":{"name":"dm drogerie markt","street":"Okru\u017en\u00e1 1927","zip":"020 18","city":"P\u00fachov"},"location":{"lat":49.1318484,"lon":18.3302964},"openingHours":[{"weekDay":1,"timeRanges":[{"opening":"09:00","closing":"20:00"}]},{"weekDay":2,"timeRanges":[{"opening":"09:00","closing":"20:00"}]},{"weekDay":3,"timeRanges":[{"opening":"09:00","closing":"20:00"}]},{"weekDay":4,"timeRanges":[{"opening":"09:00","closing":"20:00"}]},{"weekDay":5,"timeRanges":[{"opening":"09:00","closing":"20:00"}]},{"weekDay":6,"timeRanges":[{"opening":"09:00","closing":"20:00"}]},{"weekDay":7,"timeRanges":[{"opening":"09:00","closing":"20:00"}]}]},{"storeNumber":"184","address":{"name":"dm drogerie markt","street":"Sobraneck\u00e1 cesta 5","zip":"071 01","city":"Michalovce"},"location":{"lat":48.7441478,"lon":21.9209334},"openingHours":[{"weekDay":1,"timeRanges":[{"opening":"09:00","closing":"20:00"}]},{"weekDay":2,"timeRanges":[{"opening":"09:00","closing":"20:00"}]},{"weekDay":3,"timeRanges":[{"opening":"09:00","closing":"20:00"}]},{"weekDay":4,"timeRanges":[{"opening":"09:00","closing":"20:00"}]},{"weekDay":5,"timeRanges":[{"opening":"09:00","closing":"20:00"}]},{"weekDay":6,"timeRanges":[{"opening":"09:00","closing":"20:00"}]},{"weekDay":7,"timeRanges":[{"opening":"09:00","closing":"20:00"}]}]},{"storeNumber":"185","address":{"name":"dm drogerie markt","street":"Hornonitrianska cesta 1282\/3","zip":"971 01","city":"Prievidza"},"location":{"lat":48.7863239,"lon":18.6275459},"openingHours":[{"weekDay":1,"timeRanges":[{"opening":"09:00","closing":"20:00"}]},{"weekDay":2,"timeRanges":[{"opening":"09:00","closing":"20:00"}]},{"weekDay":3,"timeRanges":[{"opening":"09:00","closing":"20:00"}]},{"weekDay":4,"timeRanges":[{"opening":"09:00","closing":"20:00"}]},{"weekDay":5,"timeRanges":[{"opening":"09:00","closing":"20:00"}]},{"weekDay":6,"timeRanges":[{"opening":"09:00","closing":"20:00"}]},{"weekDay":7,"timeRanges":[{"opening":"09:00","closing":"20:00"}]}]},{"storeNumber":"187","address":{"name":"dm drogerie markt","street":"Alej J\u00e1na Pavla II. 2","zip":"048 01","city":"Ro\u017e\u0148ava"},"location":{"lat":48.6530943,"lon":20.5363129},"openingHours":[{"weekDay":1,"timeRanges":[{"opening":"09:00","closing":"19:00"}]},{"weekDay":2,"timeRanges":[{"opening":"09:00","closing":"19:00"}]},{"weekDay":3,"timeRanges":[{"opening":"09:00","closing":"19:00"}]},{"weekDay":4,"timeRanges":[{"opening":"09:00","closing":"19:00"}]},{"weekDay":5,"timeRanges":[{"opening":"09:00","closing":"19:00"}]},{"weekDay":6,"timeRanges":[{"opening":"09:00","closing":"19:00"}]},{"weekDay":7,"timeRanges":[{"opening":"09:00","closing":"19:00"}]}]},{"storeNumber":"188","address":{"name":"dm drogerie markt","street":"Mlynsk\u00e1 463","zip":"052 01","city":"Spi\u0161sk\u00e1 Nov\u00e1 Ves"},"location":{"lat":48.9352078,"lon":20.5760452},"openingHours":[{"weekDay":1,"timeRanges":[{"opening":"09:00","closing":"20:00"}]},{"weekDay":2,"timeRanges":[{"opening":"09:00","closing":"20:00"}]},{"weekDay":3,"timeRanges":[{"opening":"09:00","closing":"20:00"}]},{"weekDay":4,"timeRanges":[{"opening":"09:00","closing":"20:00"}]},{"weekDay":5,"timeRanges":[{"opening":"09:00","closing":"20:00"}]},{"weekDay":6,"timeRanges":[{"opening":"09:00","closing":"20:00"}]},{"weekDay":7,"timeRanges":[{"opening":"09:00","closing":"20:00"}]}]},{"storeNumber":"190","address":{"name":"dm drogerie markt","street":"Akademick\u00e1 1\/A","zip":"949 01","city":"Nitra"},"location":{"lat":48.30963,"lon":18.09813},"openingHours":[{"weekDay":1,"timeRanges":[{"opening":"09:00","closing":"20:00"}]},{"weekDay":2,"timeRanges":[{"opening":"09:00","closing":"20:00"}]},{"weekDay":3,"timeRanges":[{"opening":"09:00","closing":"20:00"}]},{"weekDay":4,"timeRanges":[{"opening":"09:00","closing":"20:00"}]},{"weekDay":5,"timeRanges":[{"opening":"09:00","closing":"20:00"}]},{"weekDay":6,"timeRanges":[{"opening":"09:00","closing":"20:00"}]},{"weekDay":7,"timeRanges":[{"opening":"09:00","closing":"20:00"}]}]},{"storeNumber":"192","address":{"name":"dm drogerie markt","street":"Alej Slobody 13\/G","zip":"026 01","city":"Doln\u00fd Kub\u00edn"},"location":{"lat":49.214288,"lon":19.299353},"openingHours":[{"weekDay":1,"timeRanges":[{"opening":"09:00","closing":"20:00"}]},{"weekDay":2,"timeRanges":[{"opening":"09:00","closing":"20:00"}]},{"weekDay":3,"timeRanges":[{"opening":"09:00","closing":"20:00"}]},{"weekDay":4,"timeRanges":[{"opening":"09:00","closing":"20:00"}]},{"weekDay":5,"timeRanges":[{"opening":"09:00","closing":"20:00"}]},{"weekDay":6,"timeRanges":[{"opening":"09:00","closing":"20:00"}]},{"weekDay":7,"timeRanges":[{"opening":"09:00","closing":"20:00"}]}]},{"storeNumber":"193","address":{"name":"dm drogerie markt","street":"Star\u00e9 Grunty 24","zip":"841 01","city":"Bratislava"},"location":{"lat":48.1581909,"lon":17.0697033},"openingHours":[{"weekDay":1,"timeRanges":[{"opening":"08:00","closing":"20:00"}]},{"weekDay":2,"timeRanges":[{"opening":"08:00","closing":"20:00"}]},{"weekDay":3,"timeRanges":[{"opening":"08:00","closing":"20:00"}]},{"weekDay":4,"timeRanges":[{"opening":"08:00","closing":"20:00"}]},{"weekDay":5,"timeRanges":[{"opening":"08:00","closing":"20:00"}]},{"weekDay":6,"timeRanges":[{"opening":"08:00","closing":"20:00"}]},{"weekDay":7,"timeRanges":[{"opening":"08:00","closing":"20:00"}]}]},{"storeNumber":"194","address":{"name":"dm drogerie markt","street":"OC Ra\u010da, P\u00fachovsk\u00e1 10","zip":"831 06","city":"Bratislava"},"location":{"lat":48.2130667,"lon":17.1632898},"openingHours":[{"weekDay":1,"timeRanges":[{"opening":"09:00","closing":"20:00"}]},{"weekDay":2,"timeRanges":[{"opening":"09:00","closing":"20:00"}]},{"weekDay":3,"timeRanges":[{"opening":"09:00","closing":"20:00"}]},{"weekDay":4,"timeRanges":[{"opening":"09:00","closing":"20:00"}]},{"weekDay":5,"timeRanges":[{"opening":"09:00","closing":"20:00"}]},{"weekDay":6,"timeRanges":[{"opening":"09:00","closing":"20:00"}]},{"weekDay":7,"timeRanges":[{"opening":"09:00","closing":"20:00"}]}]},{"storeNumber":"195","address":{"name":"dm drogerie markt","street":"NC Laugar\u00edcio, Bel\u00e1 7271","zip":"913 21","city":"Tren\u010d\u00edn"},"location":{"lat":48.8639011,"lon":18.0243437},"openingHours":[{"weekDay":1,"timeRanges":[{"opening":"09:00","closing":"21:00"}]},{"weekDay":2,"timeRanges":[{"opening":"09:00","closing":"21:00"}]},{"weekDay":3,"timeRanges":[{"opening":"09:00","closing":"21:00"}]},{"weekDay":4,"timeRanges":[{"opening":"09:00","closing":"21:00"}]},{"weekDay":5,"timeRanges":[{"opening":"09:00","closing":"21:00"}]},{"weekDay":6,"timeRanges":[{"opening":"09:00","closing":"21:00"}]},{"weekDay":7,"timeRanges":[{"opening":"09:00","closing":"21:00"}]}]},{"storeNumber":"196","address":{"name":"dm drogerie markt","street":"Ulica 1. m\u00e1ja 41","zip":"031 01","city":"Liptovsk\u00fd Mikul\u00e1\u0161"},"location":{"lat":49.0831187,"lon":19.620427},"openingHours":[{"weekDay":1,"timeRanges":[{"opening":"09:00","closing":"20:00"}]},{"weekDay":2,"timeRanges":[{"opening":"09:00","closing":"20:00"}]},{"weekDay":3,"timeRanges":[{"opening":"09:00","closing":"20:00"}]},{"weekDay":4,"timeRanges":[{"opening":"09:00","closing":"20:00"}]},{"weekDay":5,"timeRanges":[{"opening":"09:00","closing":"20:00"}]},{"weekDay":6,"timeRanges":[{"opening":"09:00","closing":"20:00"}]},{"weekDay":7,"timeRanges":[{"opening":"09:00","closing":"20:00"}]}]},{"storeNumber":"197","address":{"name":"dm drogerie markt","street":"Orechov\u00e1 3143\/60","zip":"900 42","city":"Dunajsk\u00e1 Lu\u017en\u00e1"},"location":{"lat":48.0767851,"lon":17.2690587},"openingHours":[{"weekDay":1,"timeRanges":[{"opening":"09:00","closing":"20:00"}]},{"weekDay":2,"timeRanges":[{"opening":"09:00","closing":"20:00"}]},{"weekDay":3,"timeRanges":[{"opening":"09:00","closing":"20:00"}]},{"weekDay":4,"timeRanges":[{"opening":"09:00","closing":"20:00"}]},{"weekDay":5,"timeRanges":[{"opening":"09:00","closing":"20:00"}]},{"weekDay":6,"timeRanges":[{"opening":"09:00","closing":"20:00"}]},{"weekDay":7,"timeRanges":[{"opening":"09:00","closing":"20:00"}]}]},{"storeNumber":"198","address":{"name":"dm drogerie markt","street":"Cukrovarsk\u00e1 427","zip":"926 01","city":"Sere\u010f"},"location":{"lat":48.28394,"lon":17.73454},"openingHours":[{"weekDay":1,"timeRanges":[{"opening":"08:00","closing":"18:00"}]},{"weekDay":2,"timeRanges":[{"opening":"08:00","closing":"18:00"}]},{"weekDay":3,"timeRanges":[{"opening":"08:00","closing":"18:00"}]},{"weekDay":4,"timeRanges":[{"opening":"08:00","closing":"18:00"}]},{"weekDay":5,"timeRanges":[{"opening":"08:00","closing":"18:00"}]},{"weekDay":6,"timeRanges":[{"opening":"08:00","closing":"12:00"}]}]},{"storeNumber":"199","address":{"name":"dm drogerie markt","street":"Obchodn\u00e1 ulica 5","zip":"905 01","city":"Senica"},"location":{"lat":48.6862719,"lon":17.3628468},"openingHours":[{"weekDay":1,"timeRanges":[{"opening":"09:00","closing":"20:00"}]},{"weekDay":2,"timeRanges":[{"opening":"09:00","closing":"20:00"}]},{"weekDay":3,"timeRanges":[{"opening":"09:00","closing":"20:00"}]},{"weekDay":4,"timeRanges":[{"opening":"09:00","closing":"20:00"}]},{"weekDay":5,"timeRanges":[{"opening":"09:00","closing":"20:00"}]},{"weekDay":6,"timeRanges":[{"opening":"09:00","closing":"20:00"}]},{"weekDay":7,"timeRanges":[{"opening":"09:00","closing":"20:00"}]}]},{"storeNumber":"201","address":{"name":"dm drogerie markt","street":"N\u00e1m. Slobody 5","zip":"915 01","city":"Nov\u00e9 Mesto nad V\u00e1hom"},"location":{"lat":48.7580325,"lon":17.830476},"openingHours":[{"weekDay":1,"timeRanges":[{"opening":"08:00","closing":"18:00"}]},{"weekDay":2,"timeRanges":[{"opening":"08:00","closing":"18:00"}]},{"weekDay":3,"timeRanges":[{"opening":"08:00","closing":"18:00"}]},{"weekDay":4,"timeRanges":[{"opening":"08:00","closing":"18:00"}]},{"weekDay":5,"timeRanges":[{"opening":"08:00","closing":"18:00"}]},{"weekDay":6,"timeRanges":[{"opening":"08:00","closing":"12:00"}]}]},{"storeNumber":"202","address":{"name":"dm drogerie markt","street":"Rub\u00ednova 1","zip":"900 25","city":"Chorv\u00e1tsky Grob"},"location":{"lat":48.2339169,"lon":17.2501394},"openingHours":[{"weekDay":1,"timeRanges":[{"opening":"09:00","closing":"19:00"}]},{"weekDay":2,"timeRanges":[{"opening":"09:00","closing":"19:00"}]},{"weekDay":3,"timeRanges":[{"opening":"09:00","closing":"19:00"}]},{"weekDay":4,"timeRanges":[{"opening":"09:00","closing":"19:00"}]},{"weekDay":5,"timeRanges":[{"opening":"09:00","closing":"19:00"}]},{"weekDay":6,"timeRanges":[{"opening":"09:00","closing":"19:00"}]},{"weekDay":7,"timeRanges":[{"opening":"09:00","closing":"19:00"}]}]},{"storeNumber":"204","address":{"name":"dm drogerie markt","street":"Kamenn\u00e9 pole 4449\/3","zip":"031 01","city":"Liptovsk\u00fd Mikul\u00e1\u0161"},"location":{"lat":49.0773146,"lon":19.6047728},"openingHours":[{"weekDay":1,"timeRanges":[{"opening":"09:00","closing":"20:00"}]},{"weekDay":2,"timeRanges":[{"opening":"09:00","closing":"20:00"}]},{"weekDay":3,"timeRanges":[{"opening":"09:00","closing":"20:00"}]},{"weekDay":4,"timeRanges":[{"opening":"09:00","closing":"20:00"}]},{"weekDay":5,"timeRanges":[{"opening":"09:00","closing":"20:00"}]},{"weekDay":6,"timeRanges":[{"opening":"09:00","closing":"20:00"}]},{"weekDay":7,"timeRanges":[{"opening":"09:00","closing":"20:00"}]}]},{"storeNumber":"205","address":{"name":"dm drogerie markt","street":"SNP 10","zip":"979 01","city":"Rimavsk\u00e1 Sobota"},"location":{"lat":48.38373,"lon":20.01961},"openingHours":[{"weekDay":1,"timeRanges":[{"opening":"08:00","closing":"18:00"}]},{"weekDay":2,"timeRanges":[{"opening":"08:00","closing":"18:00"}]},{"weekDay":3,"timeRanges":[{"opening":"08:00","closing":"18:00"}]},{"weekDay":4,"timeRanges":[{"opening":"08:00","closing":"18:00"}]},{"weekDay":5,"timeRanges":[{"opening":"08:00","closing":"18:00"}]},{"weekDay":6,"timeRanges":[{"opening":"08:00","closing":"13:00"}]}]},{"storeNumber":"206","address":{"name":"dm drogerie markt","street":"Vlasteneck\u00e9 n\u00e1mestie 3","zip":"851 06","city":"Bratislava"},"location":{"lat":48.124098,"lon":17.1107323},"openingHours":[{"weekDay":1,"timeRanges":[{"opening":"08:00","closing":"19:00"}]},{"weekDay":2,"timeRanges":[{"opening":"08:00","closing":"19:00"}]},{"weekDay":3,"timeRanges":[{"opening":"08:00","closing":"19:00"}]},{"weekDay":4,"timeRanges":[{"opening":"08:00","closing":"19:00"}]},{"weekDay":5,"timeRanges":[{"opening":"08:00","closing":"19:00"}]},{"weekDay":6,"timeRanges":[{"opening":"08:00","closing":"13:00"}]}]},{"storeNumber":"207","address":{"name":"dm drogerie markt","street":"Rudohorsk\u00e1 16","zip":"974 11","city":"Bansk\u00e1 Bystrica"},"location":{"lat":48.75964,"lon":19.16734},"openingHours":[{"weekDay":1,"timeRanges":[{"opening":"08:00","closing":"18:00"}]},{"weekDay":2,"timeRanges":[{"opening":"08:00","closing":"18:00"}]},{"weekDay":3,"timeRanges":[{"opening":"08:00","closing":"18:00"}]},{"weekDay":4,"timeRanges":[{"opening":"08:00","closing":"18:00"}]},{"weekDay":5,"timeRanges":[{"opening":"08:00","closing":"18:00"}]},{"weekDay":6,"timeRanges":[{"opening":"08:30","closing":"12:30"}]}]},{"storeNumber":"208","address":{"name":"dm drogerie markt","street":"Vajnorsk\u00e1 ul. 100","zip":"831 04","city":"Bratislava"},"location":{"lat":48.1676942,"lon":17.1396236},"openingHours":[{"weekDay":1,"timeRanges":[{"opening":"09:00","closing":"21:00"}]},{"weekDay":2,"timeRanges":[{"opening":"09:00","closing":"21:00"}]},{"weekDay":3,"timeRanges":[{"opening":"09:00","closing":"21:00"}]},{"weekDay":4,"timeRanges":[{"opening":"09:00","closing":"21:00"}]},{"weekDay":5,"timeRanges":[{"opening":"09:00","closing":"21:00"}]},{"weekDay":6,"timeRanges":[{"opening":"09:00","closing":"21:00"}]},{"weekDay":7,"timeRanges":[{"opening":"09:00","closing":"21:00"}]}]},{"storeNumber":"209","address":{"name":"dm drogerie markt","street":"N\u00e1mestie Slobody 21","zip":"066 01","city":"Humenn\u00e9"},"location":{"lat":48.93585,"lon":21.90872},"openingHours":[{"weekDay":1,"timeRanges":[{"opening":"08:00","closing":"18:00"}]},{"weekDay":2,"timeRanges":[{"opening":"08:00","closing":"18:00"}]},{"weekDay":3,"timeRanges":[{"opening":"08:00","closing":"18:00"}]},{"weekDay":4,"timeRanges":[{"opening":"08:00","closing":"18:00"}]},{"weekDay":5,"timeRanges":[{"opening":"08:00","closing":"18:00"}]},{"weekDay":6,"timeRanges":[{"opening":"08:00","closing":"12:00"}]}]},{"storeNumber":"210","address":{"name":"dm drogerie markt","street":"Pribinova 8","zip":"811 09","city":"Bratislava"},"location":{"lat":48.1399975,"lon":17.1212592},"openingHours":[{"weekDay":1,"timeRanges":[{"opening":"09:00","closing":"21:00"}]},{"weekDay":2,"timeRanges":[{"opening":"09:00","closing":"21:00"}]},{"weekDay":3,"timeRanges":[{"opening":"09:00","closing":"21:00"}]},{"weekDay":4,"timeRanges":[{"opening":"09:00","closing":"21:00"}]},{"weekDay":5,"timeRanges":[{"opening":"09:00","closing":"21:00"}]},{"weekDay":6,"timeRanges":[{"opening":"09:00","closing":"21:00"}]},{"weekDay":7,"timeRanges":[{"opening":"09:00","closing":"21:00"}]}]},{"storeNumber":"211","address":{"name":"dm drogerie markt","street":"A.Hlinku 62","zip":"921 01","city":"Pie\u0161\u0165any"},"location":{"lat":48.59516,"lon":17.82578},"openingHours":[{"weekDay":1,"timeRanges":[{"opening":"08:00","closing":"18:00"}]},{"weekDay":2,"timeRanges":[{"opening":"08:00","closing":"18:00"}]},{"weekDay":3,"timeRanges":[{"opening":"08:00","closing":"18:00"}]},{"weekDay":4,"timeRanges":[{"opening":"08:00","closing":"18:00"}]},{"weekDay":5,"timeRanges":[{"opening":"08:00","closing":"18:00"}]},{"weekDay":6,"timeRanges":[{"opening":"08:00","closing":"12:00"}]}]},{"storeNumber":"213","address":{"name":"dm drogerie markt","street":"Hlavn\u00e1 56","zip":"040 01","city":"Ko\u0161ice"},"location":{"lat":48.72163,"lon":21.25688},"openingHours":[{"weekDay":1,"timeRanges":[{"opening":"08:00","closing":"19:00"}]},{"weekDay":2,"timeRanges":[{"opening":"08:00","closing":"19:00"}]},{"weekDay":3,"timeRanges":[{"opening":"08:00","closing":"19:00"}]},{"weekDay":4,"timeRanges":[{"opening":"08:00","closing":"19:00"}]},{"weekDay":5,"timeRanges":[{"opening":"08:00","closing":"19:00"}]},{"weekDay":6,"timeRanges":[{"opening":"08:00","closing":"13:00"}]}]},{"storeNumber":"216","address":{"name":"dm drogerie markt","street":"T.G.Masaryka 18","zip":"984 01","city":"Lu\u010denec"},"location":{"lat":48.328865,"lon":19.6677378},"openingHours":[{"weekDay":1,"timeRanges":[{"opening":"08:00","closing":"18:00"}]},{"weekDay":2,"timeRanges":[{"opening":"08:00","closing":"18:00"}]},{"weekDay":3,"timeRanges":[{"opening":"08:00","closing":"18:00"}]},{"weekDay":4,"timeRanges":[{"opening":"08:00","closing":"18:00"}]},{"weekDay":5,"timeRanges":[{"opening":"08:00","closing":"18:00"}]},{"weekDay":6,"timeRanges":[{"opening":"08:00","closing":"12:00"}]}]},{"storeNumber":"217","address":{"name":"dm drogerie markt","street":"Hlavn\u00e1 134\/18","zip":"943 01","city":"\u0160t\u00farovo"},"location":{"lat":47.79906,"lon":18.72186},"openingHours":[{"weekDay":1,"timeRanges":[{"opening":"08:00","closing":"18:00"}]},{"weekDay":2,"timeRanges":[{"opening":"08:00","closing":"18:00"}]},{"weekDay":3,"timeRanges":[{"opening":"08:00","closing":"18:00"}]},{"weekDay":4,"timeRanges":[{"opening":"08:00","closing":"18:00"}]},{"weekDay":5,"timeRanges":[{"opening":"08:00","closing":"18:00"}]},{"weekDay":6,"timeRanges":[{"opening":"08:00","closing":"12:00"}]}]},{"storeNumber":"220","address":{"name":"dm drogerie markt","street":"Arm. gen. L. Svobodu 21\/a","zip":"080 01","city":"Pre\u0161ov"},"location":{"lat":48.9873421,"lon":21.2625834},"openingHours":[{"weekDay":1,"timeRanges":[{"opening":"09:00","closing":"19:00"}]},{"weekDay":2,"timeRanges":[{"opening":"09:00","closing":"19:00"}]},{"weekDay":3,"timeRanges":[{"opening":"09:00","closing":"19:00"}]},{"weekDay":4,"timeRanges":[{"opening":"09:00","closing":"19:00"}]},{"weekDay":5,"timeRanges":[{"opening":"09:00","closing":"19:00"}]},{"weekDay":6,"timeRanges":[{"opening":"09:00","closing":"19:00"}]},{"weekDay":7,"timeRanges":[{"opening":"09:00","closing":"19:00"}]}]},{"storeNumber":"221","address":{"name":"dm drogerie markt","street":"Vrakunsk\u00e1 35","zip":"821 06","city":"Bratislava"},"location":{"lat":48.13702,"lon":17.20259},"openingHours":[{"weekDay":1,"timeRanges":[{"opening":"08:00","closing":"19:00"}]},{"weekDay":2,"timeRanges":[{"opening":"08:00","closing":"19:00"}]},{"weekDay":3,"timeRanges":[{"opening":"08:00","closing":"19:00"}]},{"weekDay":4,"timeRanges":[{"opening":"08:00","closing":"19:00"}]},{"weekDay":5,"timeRanges":[{"opening":"08:00","closing":"19:00"}]},{"weekDay":6,"timeRanges":[{"opening":"08:00","closing":"13:00"}]}]},{"storeNumber":"222","address":{"name":"dm drogerie markt","street":"Ulica SNP 4500","zip":"017 07","city":"Pova\u017esk\u00e1 Bystrica"},"location":{"lat":49.1021901,"lon":18.4593205},"openingHours":[{"weekDay":1,"timeRanges":[{"opening":"09:00","closing":"20:00"}]},{"weekDay":2,"timeRanges":[{"opening":"09:00","closing":"20:00"}]},{"weekDay":3,"timeRanges":[{"opening":"09:00","closing":"20:00"}]},{"weekDay":4,"timeRanges":[{"opening":"09:00","closing":"20:00"}]},{"weekDay":5,"timeRanges":[{"opening":"09:00","closing":"20:00"}]},{"weekDay":6,"timeRanges":[{"opening":"09:00","closing":"20:00"}]},{"weekDay":7,"timeRanges":[{"opening":"09:00","closing":"20:00"}]}]},{"storeNumber":"223","address":{"name":"dm drogerie markt","street":"OC Retro, Nev\u00e4dzov\u00e1 6","zip":"821 01","city":"Bratislava"},"location":{"lat":48.15232,"lon":17.15788},"openingHours":[{"weekDay":1,"timeRanges":[{"opening":"08:00","closing":"20:00"}]},{"weekDay":2,"timeRanges":[{"opening":"08:00","closing":"20:00"}]},{"weekDay":3,"timeRanges":[{"opening":"08:00","closing":"20:00"}]},{"weekDay":4,"timeRanges":[{"opening":"08:00","closing":"20:00"}]},{"weekDay":5,"timeRanges":[{"opening":"08:00","closing":"20:00"}]},{"weekDay":6,"timeRanges":[{"opening":"09:00","closing":"20:00"}]},{"weekDay":7,"timeRanges":[{"opening":"09:00","closing":"20:00"}]}]},{"storeNumber":"224","address":{"name":"dm drogerie markt","street":"M.R.\u0160tef\u00e1nika 10","zip":"075 01","city":"Trebi\u0161ov"},"location":{"lat":48.63319,"lon":21.71762},"openingHours":[{"weekDay":1,"timeRanges":[{"opening":"08:00","closing":"18:00"}]},{"weekDay":2,"timeRanges":[{"opening":"08:00","closing":"18:00"}]},{"weekDay":3,"timeRanges":[{"opening":"08:00","closing":"18:00"}]},{"weekDay":4,"timeRanges":[{"opening":"08:00","closing":"18:00"}]},{"weekDay":5,"timeRanges":[{"opening":"08:00","closing":"18:00"}]},{"weekDay":6,"timeRanges":[{"opening":"08:00","closing":"12:00"}]}]},{"storeNumber":"225","address":{"name":"dm drogerie markt","street":"Trieda KVP 1","zip":"040 23","city":"Ko\u0161ice"},"location":{"lat":48.71562,"lon":21.21351},"openingHours":[{"weekDay":1,"timeRanges":[{"opening":"08:00","closing":"18:30"}]},{"weekDay":2,"timeRanges":[{"opening":"08:00","closing":"18:30"}]},{"weekDay":3,"timeRanges":[{"opening":"08:00","closing":"18:30"}]},{"weekDay":4,"timeRanges":[{"opening":"08:00","closing":"18:30"}]},{"weekDay":5,"timeRanges":[{"opening":"08:00","closing":"18:30"}]},{"weekDay":6,"timeRanges":[{"opening":"08:00","closing":"13:00"}]}]},{"storeNumber":"226","address":{"name":"dm drogerie markt","street":"Lama\u010dsk\u00e1 cesta 1C 5959","zip":"841 04","city":"Bratislava"},"location":{"lat":48.1768243,"lon":17.0652045},"openingHours":[{"weekDay":1,"timeRanges":[{"opening":"09:00","closing":"21:00"}]},{"weekDay":2,"timeRanges":[{"opening":"09:00","closing":"21:00"}]},{"weekDay":3,"timeRanges":[{"opening":"09:00","closing":"21:00"}]},{"weekDay":4,"timeRanges":[{"opening":"09:00","closing":"21:00"}]},{"weekDay":5,"timeRanges":[{"opening":"09:00","closing":"21:00"}]},{"weekDay":6,"timeRanges":[{"opening":"09:00","closing":"21:00"}]},{"weekDay":7,"timeRanges":[{"opening":"09:00","closing":"21:00"}]}]},{"storeNumber":"227","address":{"name":"dm drogerie markt","street":"Medza 14","zip":"052 01","city":"Spi\u0161sk\u00e1 Nov\u00e1 Ves"},"location":{"lat":48.947562,"lon":20.5506768},"openingHours":[{"weekDay":1,"timeRanges":[{"opening":"09:00","closing":"20:00"}]},{"weekDay":2,"timeRanges":[{"opening":"09:00","closing":"20:00"}]},{"weekDay":3,"timeRanges":[{"opening":"09:00","closing":"20:00"}]},{"weekDay":4,"timeRanges":[{"opening":"09:00","closing":"20:00"}]},{"weekDay":5,"timeRanges":[{"opening":"09:00","closing":"20:00"}]},{"weekDay":6,"timeRanges":[{"opening":"09:00","closing":"20:00"}]},{"weekDay":7,"timeRanges":[{"opening":"09:00","closing":"20:00"}]}]},{"storeNumber":"228","address":{"name":"dm drogerie markt","street":"Jilemnick\u00e9ho ulica 10809","zip":"036 01","city":"Martin"},"location":{"lat":49.08906,"lon":18.93193},"openingHours":[{"weekDay":1,"timeRanges":[{"opening":"09:00","closing":"20:00"}]},{"weekDay":2,"timeRanges":[{"opening":"09:00","closing":"20:00"}]},{"weekDay":3,"timeRanges":[{"opening":"09:00","closing":"20:00"}]},{"weekDay":4,"timeRanges":[{"opening":"09:00","closing":"20:00"}]},{"weekDay":5,"timeRanges":[{"opening":"09:00","closing":"20:00"}]},{"weekDay":6,"timeRanges":[{"opening":"09:00","closing":"20:00"}]},{"weekDay":7,"timeRanges":[{"opening":"09:00","closing":"20:00"}]}]},{"storeNumber":"229","address":{"name":"dm drogerie markt","street":"N\u00e1m. A. Hlinku 7B","zip":"010 01","city":"\u017dilina"},"location":{"lat":49.22458,"lon":18.74161},"openingHours":[{"weekDay":1,"timeRanges":[{"opening":"08:00","closing":"21:00"}]},{"weekDay":2,"timeRanges":[{"opening":"08:00","closing":"21:00"}]},{"weekDay":3,"timeRanges":[{"opening":"08:00","closing":"21:00"}]},{"weekDay":4,"timeRanges":[{"opening":"08:00","closing":"21:00"}]},{"weekDay":5,"timeRanges":[{"opening":"08:00","closing":"21:00"}]},{"weekDay":6,"timeRanges":[{"opening":"09:00","closing":"21:00"}]},{"weekDay":7,"timeRanges":[{"opening":"09:00","closing":"21:00"}]}]},{"storeNumber":"230","address":{"name":"dm drogerie markt","street":"Obchodn\u00e1 8","zip":"018 41","city":"Dubnica nad V\u00e1hom"},"location":{"lat":48.9530546,"lon":18.1564026},"openingHours":[{"weekDay":1,"timeRanges":[{"opening":"09:00","closing":"20:00"}]},{"weekDay":2,"timeRanges":[{"opening":"09:00","closing":"20:00"}]},{"weekDay":3,"timeRanges":[{"opening":"09:00","closing":"20:00"}]},{"weekDay":4,"timeRanges":[{"opening":"09:00","closing":"20:00"}]},{"weekDay":5,"timeRanges":[{"opening":"09:00","closing":"20:00"}]},{"weekDay":6,"timeRanges":[{"opening":"09:00","closing":"20:00"}]},{"weekDay":7,"timeRanges":[{"opening":"09:00","closing":"20:00"}]}]},{"storeNumber":"231","address":{"name":"dm drogerie markt","street":"Eisnerova 64","zip":"841 07","city":"Bratislava"},"location":{"lat":48.20544,"lon":16.98788},"openingHours":[{"weekDay":1,"timeRanges":[{"opening":"09:00","closing":"20:00"}]},{"weekDay":2,"timeRanges":[{"opening":"09:00","closing":"20:00"}]},{"weekDay":3,"timeRanges":[{"opening":"09:00","closing":"20:00"}]},{"weekDay":4,"timeRanges":[{"opening":"09:00","closing":"20:00"}]},{"weekDay":5,"timeRanges":[{"opening":"09:00","closing":"20:00"}]},{"weekDay":6,"timeRanges":[{"opening":"09:00","closing":"20:00"}]},{"weekDay":7,"timeRanges":[{"opening":"09:00","closing":"20:00"}]}]},{"storeNumber":"233","address":{"name":"dm drogerie markt","street":"Cesta na Senec 2\/A","zip":"821 04","city":"Bratislava"},"location":{"lat":48.1858508,"lon":17.1770656},"openingHours":[{"weekDay":1,"timeRanges":[{"opening":"09:00","closing":"21:00"}]},{"weekDay":2,"timeRanges":[{"opening":"09:00","closing":"21:00"}]},{"weekDay":3,"timeRanges":[{"opening":"09:00","closing":"21:00"}]},{"weekDay":4,"timeRanges":[{"opening":"09:00","closing":"21:00"}]},{"weekDay":5,"timeRanges":[{"opening":"09:00","closing":"21:00"}]},{"weekDay":6,"timeRanges":[{"opening":"09:00","closing":"21:00"}]},{"weekDay":7,"timeRanges":[{"opening":"09:00","closing":"21:00"}]}]},{"storeNumber":"234","address":{"name":"dm drogerie markt","street":"N\u00e1mestie Ban\u00edkov 11","zip":"972 51","city":"Handlov\u00e1"},"location":{"lat":48.72836,"lon":18.75995},"openingHours":[{"weekDay":1,"timeRanges":[{"opening":"08:00","closing":"18:00"}]},{"weekDay":2,"timeRanges":[{"opening":"08:00","closing":"18:00"}]},{"weekDay":3,"timeRanges":[{"opening":"08:00","closing":"18:00"}]},{"weekDay":4,"timeRanges":[{"opening":"08:00","closing":"18:00"}]},{"weekDay":5,"timeRanges":[{"opening":"08:00","closing":"18:00"}]},{"weekDay":6,"timeRanges":[{"opening":"08:00","closing":"12:00"}]}]},{"storeNumber":"235","address":{"name":"dm drogerie markt","street":"Zvolensk\u00e1 cesta 8","zip":"974 05","city":"Bansk\u00e1 Bystrica"},"location":{"lat":48.713722,"lon":19.1364363},"openingHours":[{"weekDay":1,"timeRanges":[{"opening":"09:00","closing":"20:00"}]},{"weekDay":2,"timeRanges":[{"opening":"09:00","closing":"20:00"}]},{"weekDay":3,"timeRanges":[{"opening":"09:00","closing":"20:00"}]},{"weekDay":4,"timeRanges":[{"opening":"09:00","closing":"20:00"}]},{"weekDay":5,"timeRanges":[{"opening":"09:00","closing":"20:00"}]},{"weekDay":6,"timeRanges":[{"opening":"09:00","closing":"20:00"}]},{"weekDay":7,"timeRanges":[{"opening":"09:00","closing":"20:00"}]}]},{"storeNumber":"236","address":{"name":"dm drogerie markt","street":"Tureck\u00fd rad 11","zip":"934 01","city":"Levice"},"location":{"lat":48.2265,"lon":18.5974},"openingHours":[{"weekDay":1,"timeRanges":[{"opening":"09:00","closing":"20:00"}]},{"weekDay":2,"timeRanges":[{"opening":"09:00","closing":"20:00"}]},{"weekDay":3,"timeRanges":[{"opening":"09:00","closing":"20:00"}]},{"weekDay":4,"timeRanges":[{"opening":"09:00","closing":"20:00"}]},{"weekDay":5,"timeRanges":[{"opening":"09:00","closing":"20:00"}]},{"weekDay":6,"timeRanges":[{"opening":"09:00","closing":"20:00"}]},{"weekDay":7,"timeRanges":[{"opening":"09:00","closing":"20:00"}]}]},{"storeNumber":"237","address":{"name":"dm drogerie markt","street":"Teplick\u00e1 5142","zip":"058 01","city":"Poprad"},"location":{"lat":49.06015,"lon":20.26233},"openingHours":[{"weekDay":1,"timeRanges":[{"opening":"09:00","closing":"20:00"}]},{"weekDay":2,"timeRanges":[{"opening":"09:00","closing":"20:00"}]},{"weekDay":3,"timeRanges":[{"opening":"09:00","closing":"20:00"}]},{"weekDay":4,"timeRanges":[{"opening":"09:00","closing":"20:00"}]},{"weekDay":5,"timeRanges":[{"opening":"09:00","closing":"20:00"}]},{"weekDay":6,"timeRanges":[{"opening":"09:00","closing":"20:00"}]},{"weekDay":7,"timeRanges":[{"opening":"09:00","closing":"20:00"}]}]},{"storeNumber":"238","address":{"name":"dm drogerie markt","street":"Slobody 3039\/4","zip":"022 01","city":"\u010cadca"},"location":{"lat":49.44231,"lon":18.78832},"openingHours":[{"weekDay":1,"timeRanges":[{"opening":"09:00","closing":"20:00"}]},{"weekDay":2,"timeRanges":[{"opening":"09:00","closing":"20:00"}]},{"weekDay":3,"timeRanges":[{"opening":"09:00","closing":"20:00"}]},{"weekDay":4,"timeRanges":[{"opening":"09:00","closing":"20:00"}]},{"weekDay":5,"timeRanges":[{"opening":"09:00","closing":"20:00"}]},{"weekDay":6,"timeRanges":[{"opening":"09:00","closing":"20:00"}]},{"weekDay":7,"timeRanges":[{"opening":"09:00","closing":"20:00"}]}]},{"storeNumber":"239","address":{"name":"dm drogerie markt","street":"N\u00e1bre\u017en\u00e1 1913\/5A","zip":"971 01","city":"Prievidza"},"location":{"lat":48.7799724,"lon":18.6085058},"openingHours":[{"weekDay":1,"timeRanges":[{"opening":"08:00","closing":"20:00"}]},{"weekDay":2,"timeRanges":[{"opening":"08:00","closing":"20:00"}]},{"weekDay":3,"timeRanges":[{"opening":"08:00","closing":"20:00"}]},{"weekDay":4,"timeRanges":[{"opening":"08:00","closing":"20:00"}]},{"weekDay":5,"timeRanges":[{"opening":"08:00","closing":"20:00"}]},{"weekDay":6,"timeRanges":[{"opening":"08:00","closing":"20:00"}]},{"weekDay":7,"timeRanges":[{"opening":"08:00","closing":"20:00"}]}]},{"storeNumber":"240","address":{"name":"dm drogerie markt","street":"Nov\u00e1 6B","zip":"917 01","city":"Trnava"},"location":{"lat":48.36773,"lon":17.61278},"openingHours":[{"weekDay":1,"timeRanges":[{"opening":"09:00","closing":"20:00"}]},{"weekDay":2,"timeRanges":[{"opening":"09:00","closing":"20:00"}]},{"weekDay":3,"timeRanges":[{"opening":"09:00","closing":"20:00"}]},{"weekDay":4,"timeRanges":[{"opening":"09:00","closing":"20:00"}]},{"weekDay":5,"timeRanges":[{"opening":"09:00","closing":"20:00"}]},{"weekDay":6,"timeRanges":[{"opening":"09:00","closing":"20:00"}]},{"weekDay":7,"timeRanges":[{"opening":"09:00","closing":"20:00"}]}]},{"storeNumber":"242","address":{"name":"dm-drogerie markt","street":"Pezinsk\u00e1 11a","zip":"901 01","city":"Malacky"},"location":{"lat":48.43268,"lon":17.02926},"openingHours":[{"weekDay":1,"timeRanges":[{"opening":"09:00","closing":"20:00"}]},{"weekDay":2,"timeRanges":[{"opening":"09:00","closing":"20:00"}]},{"weekDay":3,"timeRanges":[{"opening":"09:00","closing":"20:00"}]},{"weekDay":4,"timeRanges":[{"opening":"09:00","closing":"20:00"}]},{"weekDay":5,"timeRanges":[{"opening":"09:00","closing":"20:00"}]},{"weekDay":6,"timeRanges":[{"opening":"09:00","closing":"20:00"}]},{"weekDay":7,"timeRanges":[{"opening":"09:00","closing":"20:00"}]}]},{"storeNumber":"243","address":{"name":"dm drogerie markt","street":"Popradsk\u00e1 73\/1853","zip":"064 01","city":"Star\u00e1 \u013dubov\u0148a"},"location":{"lat":49.30553,"lon":20.68549},"openingHours":[{"weekDay":1,"timeRanges":[{"opening":"09:00","closing":"19:00"}]},{"weekDay":2,"timeRanges":[{"opening":"09:00","closing":"19:00"}]},{"weekDay":3,"timeRanges":[{"opening":"09:00","closing":"19:00"}]},{"weekDay":4,"timeRanges":[{"opening":"09:00","closing":"19:00"}]},{"weekDay":5,"timeRanges":[{"opening":"09:00","closing":"19:00"}]},{"weekDay":6,"timeRanges":[{"opening":"09:00","closing":"19:00"}]},{"weekDay":7,"timeRanges":[{"opening":"09:00","closing":"19:00"}]}]},{"storeNumber":"244","address":{"name":"dm drogerie markt","street":"Obchodn\u00e1 ul. 9734\/1","zip":"960 01","city":"Zvolen"},"location":{"lat":48.5848671,"lon":19.1079299},"openingHours":[{"weekDay":1,"timeRanges":[{"opening":"09:00","closing":"20:00"}]},{"weekDay":2,"timeRanges":[{"opening":"09:00","closing":"20:00"}]},{"weekDay":3,"timeRanges":[{"opening":"09:00","closing":"20:00"}]},{"weekDay":4,"timeRanges":[{"opening":"09:00","closing":"20:00"}]},{"weekDay":5,"timeRanges":[{"opening":"09:00","closing":"20:00"}]},{"weekDay":6,"timeRanges":[{"opening":"09:00","closing":"20:00"}]},{"weekDay":7,"timeRanges":[{"opening":"09:00","closing":"20:00"}]}]},{"storeNumber":"245","address":{"name":"dm drogerie markt","street":"Sv\u00e4toplukova 15A","zip":"957 04","city":"B\u00e1novce nad Bebravou"},"location":{"lat":48.72983,"lon":18.24853},"openingHours":[{"weekDay":1,"timeRanges":[{"opening":"09:00","closing":"20:00"}]},{"weekDay":2,"timeRanges":[{"opening":"09:00","closing":"20:00"}]},{"weekDay":3,"timeRanges":[{"opening":"09:00","closing":"20:00"}]},{"weekDay":4,"timeRanges":[{"opening":"09:00","closing":"20:00"}]},{"weekDay":5,"timeRanges":[{"opening":"09:00","closing":"20:00"}]},{"weekDay":6,"timeRanges":[{"opening":"09:00","closing":"20:00"}]},{"weekDay":7,"timeRanges":[{"opening":"09:00","closing":"20:00"}]}]},{"storeNumber":"247","address":{"name":"dm drogerie markt","street":"Meder\u010dsk\u00e1 4\/4987","zip":"945 05","city":"Kom\u00e1rno"},"location":{"lat":47.76288,"lon":18.12772},"openingHours":[{"weekDay":1,"timeRanges":[{"opening":"08:00","closing":"19:00"}]},{"weekDay":2,"timeRanges":[{"opening":"08:00","closing":"19:00"}]},{"weekDay":3,"timeRanges":[{"opening":"08:00","closing":"19:00"}]},{"weekDay":4,"timeRanges":[{"opening":"08:00","closing":"19:00"}]},{"weekDay":5,"timeRanges":[{"opening":"08:00","closing":"19:00"}]},{"weekDay":6,"timeRanges":[{"opening":"08:00","closing":"13:00"}]}]},{"storeNumber":"248","address":{"name":"dm drogerie markt","street":"Esterh\u00e1zyovcov 3169\/30","zip":"924 01","city":"Galanta"},"location":{"lat":48.2005262,"lon":17.7328323},"openingHours":[{"weekDay":1,"timeRanges":[{"opening":"09:00","closing":"20:00"}]},{"weekDay":2,"timeRanges":[{"opening":"09:00","closing":"20:00"}]},{"weekDay":3,"timeRanges":[{"opening":"09:00","closing":"20:00"}]},{"weekDay":4,"timeRanges":[{"opening":"09:00","closing":"20:00"}]},{"weekDay":5,"timeRanges":[{"opening":"09:00","closing":"20:00"}]},{"weekDay":6,"timeRanges":[{"opening":"09:00","closing":"20:00"}]},{"weekDay":7,"timeRanges":[{"opening":"09:00","closing":"20:00"}]}]},{"storeNumber":"250","address":{"name":"dm drogerie markt","street":"Za V\u00e1hom 1197","zip":"920 01","city":"Hlohovec"},"location":{"lat":48.4330237,"lon":17.7905192},"openingHours":[{"weekDay":1,"timeRanges":[{"opening":"09:00","closing":"20:00"}]},{"weekDay":2,"timeRanges":[{"opening":"09:00","closing":"20:00"}]},{"weekDay":3,"timeRanges":[{"opening":"09:00","closing":"20:00"}]},{"weekDay":4,"timeRanges":[{"opening":"09:00","closing":"20:00"}]},{"weekDay":5,"timeRanges":[{"opening":"09:00","closing":"20:00"}]},{"weekDay":6,"timeRanges":[{"opening":"09:00","closing":"20:00"}]},{"weekDay":7,"timeRanges":[{"opening":"09:00","closing":"20:00"}]}]},{"storeNumber":"260","address":{"name":"dm drogerie markt","street":"Petra Jilemnick\u00e9ho 4888\/83","zip":"955 01","city":"Topo\u013e\u010dany"},"location":{"lat":48.57422,"lon":18.18761},"openingHours":[{"weekDay":1,"timeRanges":[{"opening":"09:00","closing":"20:00"}]},{"weekDay":2,"timeRanges":[{"opening":"09:00","closing":"20:00"}]},{"weekDay":3,"timeRanges":[{"opening":"09:00","closing":"20:00"}]},{"weekDay":4,"timeRanges":[{"opening":"09:00","closing":"20:00"}]},{"weekDay":5,"timeRanges":[{"opening":"09:00","closing":"20:00"}]},{"weekDay":6,"timeRanges":[{"opening":"09:00","closing":"20:00"}]},{"weekDay":7,"timeRanges":[{"opening":"09:00","closing":"20:00"}]}]},{"storeNumber":"261","address":{"name":"dm drogerie markt","street":"Nitrianska ul. 2080","zip":"958 01","city":"Partiz\u00e1nske"},"location":{"lat":48.62854,"lon":18.36318},"openingHours":[{"weekDay":1,"timeRanges":[{"opening":"09:00","closing":"20:00"}]},{"weekDay":2,"timeRanges":[{"opening":"09:00","closing":"20:00"}]},{"weekDay":3,"timeRanges":[{"opening":"09:00","closing":"20:00"}]},{"weekDay":4,"timeRanges":[{"opening":"09:00","closing":"20:00"}]},{"weekDay":5,"timeRanges":[{"opening":"09:00","closing":"20:00"}]},{"weekDay":6,"timeRanges":[{"opening":"09:00","closing":"20:00"}]},{"weekDay":7,"timeRanges":[{"opening":"09:00","closing":"20:00"}]}]},{"storeNumber":"262","address":{"name":"dm drogerie markt","street":"Sovietskych hrdinov 627\/37","zip":"089 01","city":"Svidn\u00edk"},"location":{"lat":49.30947,"lon":21.57165},"openingHours":[{"weekDay":1,"timeRanges":[{"opening":"08:00","closing":"18:00"}]},{"weekDay":2,"timeRanges":[{"opening":"08:00","closing":"18:00"}]},{"weekDay":3,"timeRanges":[{"opening":"08:00","closing":"18:00"}]},{"weekDay":4,"timeRanges":[{"opening":"08:00","closing":"18:00"}]},{"weekDay":5,"timeRanges":[{"opening":"08:00","closing":"18:00"}]},{"weekDay":6,"timeRanges":[{"opening":"08:00","closing":"12:00"}]}]},{"storeNumber":"263","address":{"name":"dm drogerie markt","street":"M.R.\u0160tef\u00e1nika 8","zip":"942 01","city":"\u0160urany"},"location":{"lat":48.08768,"lon":18.18583},"openingHours":[{"weekDay":1,"timeRanges":[{"opening":"08:00","closing":"18:00"}]},{"weekDay":2,"timeRanges":[{"opening":"08:00","closing":"18:00"}]},{"weekDay":3,"timeRanges":[{"opening":"08:00","closing":"18:00"}]},{"weekDay":4,"timeRanges":[{"opening":"08:00","closing":"18:00"}]},{"weekDay":5,"timeRanges":[{"opening":"08:00","closing":"18:00"}]},{"weekDay":6,"timeRanges":[{"opening":"08:00","closing":"12:00"}]}]},{"storeNumber":"265","address":{"name":"dm drogerie markt","street":"Bratislavsk\u00e1 5","zip":"949 01","city":"Nitra"},"location":{"lat":48.31129,"lon":18.06921},"openingHours":[{"weekDay":1,"timeRanges":[{"opening":"09:00","closing":"21:00"}]},{"weekDay":2,"timeRanges":[{"opening":"09:00","closing":"21:00"}]},{"weekDay":3,"timeRanges":[{"opening":"09:00","closing":"21:00"}]},{"weekDay":4,"timeRanges":[{"opening":"09:00","closing":"21:00"}]},{"weekDay":5,"timeRanges":[{"opening":"09:00","closing":"21:00"}]},{"weekDay":6,"timeRanges":[{"opening":"09:00","closing":"21:00"}]},{"weekDay":7,"timeRanges":[{"opening":"09:00","closing":"21:00"}]}]},{"storeNumber":"266","address":{"name":"dm drogerie markt","street":"\u010ceskoslovenskej arm\u00e1dy 67\/19","zip":"977 01","city":"Brezno"},"location":{"lat":48.80697,"lon":19.63954},"openingHours":[{"weekDay":1,"timeRanges":[{"opening":"08:00","closing":"18:00"}]},{"weekDay":2,"timeRanges":[{"opening":"08:00","closing":"18:00"}]},{"weekDay":3,"timeRanges":[{"opening":"08:00","closing":"18:00"}]},{"weekDay":4,"timeRanges":[{"opening":"08:00","closing":"18:00"}]},{"weekDay":5,"timeRanges":[{"opening":"08:00","closing":"18:00"}]},{"weekDay":6,"timeRanges":[{"opening":"08:00","closing":"12:00"}]}]},{"storeNumber":"269","address":{"name":"dm drogerie markt","street":"Americk\u00e1 trieda 11","zip":"040 13","city":"Ko\u0161ice"},"location":{"lat":48.75294,"lon":21.26948},"openingHours":[{"weekDay":1,"timeRanges":[{"opening":"09:00","closing":"20:00"}]},{"weekDay":2,"timeRanges":[{"opening":"09:00","closing":"20:00"}]},{"weekDay":3,"timeRanges":[{"opening":"09:00","closing":"20:00"}]},{"weekDay":4,"timeRanges":[{"opening":"09:00","closing":"20:00"}]},{"weekDay":5,"timeRanges":[{"opening":"09:00","closing":"20:00"}]},{"weekDay":6,"timeRanges":[{"opening":"09:00","closing":"20:00"}]},{"weekDay":7,"timeRanges":[{"opening":"09:00","closing":"20:00"}]}]},{"storeNumber":"270","address":{"name":"dm drogerie markt","street":"Lama\u010d 6780","zip":"841 03","city":"Bratislava"},"location":{"lat":48.2056063,"lon":17.0333686},"openingHours":[{"weekDay":1,"timeRanges":[{"opening":"09:00","closing":"21:00"}]},{"weekDay":2,"timeRanges":[{"opening":"09:00","closing":"21:00"}]},{"weekDay":3,"timeRanges":[{"opening":"09:00","closing":"21:00"}]},{"weekDay":4,"timeRanges":[{"opening":"09:00","closing":"21:00"}]},{"weekDay":5,"timeRanges":[{"opening":"09:00","closing":"21:00"}]},{"weekDay":6,"timeRanges":[{"opening":"09:00","closing":"21:00"}]},{"weekDay":7,"timeRanges":[{"opening":"09:00","closing":"21:00"}]}]},{"storeNumber":"271","address":{"name":"dm-drogerie markt","street":"Kop\u010dianska 8-10","zip":"851 01","city":"Bratislava"},"location":{"lat":48.12186,"lon":17.09782},"openingHours":[{"weekDay":1,"timeRanges":[{"opening":"08:00","closing":"19:00"}]},{"weekDay":2,"timeRanges":[{"opening":"08:00","closing":"19:00"}]},{"weekDay":3,"timeRanges":[{"opening":"08:00","closing":"19:00"}]},{"weekDay":4,"timeRanges":[{"opening":"08:00","closing":"19:00"}]},{"weekDay":5,"timeRanges":[{"opening":"08:00","closing":"19:00"}]},{"weekDay":6,"timeRanges":[{"opening":"08:00","closing":"19:00"}]}]},{"storeNumber":"272","address":{"name":"dm-drogerie markt","street":"Stani\u010dn\u00e9 n\u00e1mestie 11","zip":"040 01","city":"Ko\u0161ice"},"location":{"lat":48.72294,"lon":21.26754},"openingHours":[{"weekDay":1,"timeRanges":[{"opening":"08:00","closing":"20:00"}]},{"weekDay":2,"timeRanges":[{"opening":"08:00","closing":"20:00"}]},{"weekDay":3,"timeRanges":[{"opening":"08:00","closing":"20:00"}]},{"weekDay":4,"timeRanges":[{"opening":"08:00","closing":"20:00"}]},{"weekDay":5,"timeRanges":[{"opening":"08:00","closing":"20:00"}]},{"weekDay":6,"timeRanges":[{"opening":"08:00","closing":"20:00"}]},{"weekDay":7,"timeRanges":[{"opening":"08:00","closing":"20:00"}]}]},{"storeNumber":"273","address":{"name":"dm-drogerie markt","street":"Tren\u010dianska 2739\/69","zip":"915 01","city":"Nov\u00e9 Mesto nad V\u00e1hom"},"location":{"lat":48.7427403,"lon":17.8395225},"openingHours":[{"weekDay":1,"timeRanges":[{"opening":"09:00","closing":"20:00"}]},{"weekDay":2,"timeRanges":[{"opening":"09:00","closing":"20:00"}]},{"weekDay":3,"timeRanges":[{"opening":"09:00","closing":"20:00"}]},{"weekDay":4,"timeRanges":[{"opening":"09:00","closing":"20:00"}]},{"weekDay":5,"timeRanges":[{"opening":"09:00","closing":"20:00"}]},{"weekDay":6,"timeRanges":[{"opening":"09:00","closing":"20:00"}]},{"weekDay":7,"timeRanges":[{"opening":"09:00","closing":"20:00"}]}]},{"storeNumber":"274","address":{"name":"dm-drogerie markt","street":"A.H.\u0160kult\u00e9tyho 2781","zip":"990 01","city":"Ve\u013ek\u00fd Krt\u00ed\u0161"},"location":{"lat":48.206197,"lon":19.3433369},"openingHours":[{"weekDay":1,"timeRanges":[{"opening":"09:00","closing":"19:00"}]},{"weekDay":2,"timeRanges":[{"opening":"09:00","closing":"19:00"}]},{"weekDay":3,"timeRanges":[{"opening":"09:00","closing":"19:00"}]},{"weekDay":4,"timeRanges":[{"opening":"09:00","closing":"19:00"}]},{"weekDay":5,"timeRanges":[{"opening":"09:00","closing":"19:00"}]},{"weekDay":6,"timeRanges":[{"opening":"09:00","closing":"19:00"}]},{"weekDay":7,"timeRanges":[{"opening":"09:00","closing":"19:00"}]}]},{"storeNumber":"275","address":{"name":"dm-drogerie markt","street":"Doktora J\u00e1nskeho 2850","zip":"965 01","city":"\u017diar nad Hronom"},"location":{"lat":48.59412,"lon":18.84913},"openingHours":[{"weekDay":1,"timeRanges":[{"opening":"09:00","closing":"20:00"}]},{"weekDay":2,"timeRanges":[{"opening":"09:00","closing":"20:00"}]},{"weekDay":3,"timeRanges":[{"opening":"09:00","closing":"20:00"}]},{"weekDay":4,"timeRanges":[{"opening":"09:00","closing":"20:00"}]},{"weekDay":5,"timeRanges":[{"opening":"09:00","closing":"20:00"}]},{"weekDay":6,"timeRanges":[{"opening":"09:00","closing":"20:00"}]},{"weekDay":7,"timeRanges":[{"opening":"09:00","closing":"20:00"}]}]},{"storeNumber":"276","address":{"name":"dm-drogerie markt","street":"Na Trosk\u00e1ch 25","zip":"974 01","city":"Bansk\u00e1 Bystrica"},"location":{"lat":48.7304779,"lon":19.1365425},"openingHours":[{"weekDay":1,"timeRanges":[{"opening":"09:00","closing":"21:00"}]},{"weekDay":2,"timeRanges":[{"opening":"09:00","closing":"21:00"}]},{"weekDay":3,"timeRanges":[{"opening":"09:00","closing":"21:00"}]},{"weekDay":4,"timeRanges":[{"opening":"09:00","closing":"21:00"}]},{"weekDay":5,"timeRanges":[{"opening":"09:00","closing":"21:00"}]},{"weekDay":6,"timeRanges":[{"opening":"09:00","closing":"21:00"}]},{"weekDay":7,"timeRanges":[{"opening":"09:00","closing":"21:00"}]}]},{"storeNumber":"277","address":{"name":"dm-drogerie markt","street":"Pri starom letisku 3\/V","zip":"831 07","city":"Bratislava"},"location":{"lat":48.1998782,"lon":17.1970241},"openingHours":[{"weekDay":1,"timeRanges":[{"opening":"09:00","closing":"20:30"}]},{"weekDay":2,"timeRanges":[{"opening":"09:00","closing":"20:30"}]},{"weekDay":3,"timeRanges":[{"opening":"09:00","closing":"20:30"}]},{"weekDay":4,"timeRanges":[{"opening":"09:00","closing":"20:30"}]},{"weekDay":5,"timeRanges":[{"opening":"09:00","closing":"20:30"}]},{"weekDay":6,"timeRanges":[{"opening":"09:00","closing":"20:30"}]},{"weekDay":7,"timeRanges":[{"opening":"09:00","closing":"20:30"}]}]},{"storeNumber":"278","address":{"name":"dm-drogerie markt","street":"N\u00e1mestie Sv\u00e4t\u00e9ho Eg\u00eddia 290\/124","zip":"058 01","city":"Poprad"},"location":{"lat":49.0531625,"lon":20.2984112},"openingHours":[{"weekDay":1,"timeRanges":[{"opening":"09:00","closing":"21:00"}]},{"weekDay":2,"timeRanges":[{"opening":"09:00","closing":"21:00"}]},{"weekDay":3,"timeRanges":[{"opening":"09:00","closing":"21:00"}]},{"weekDay":4,"timeRanges":[{"opening":"09:00","closing":"21:00"}]},{"weekDay":5,"timeRanges":[{"opening":"09:00","closing":"21:00"}]},{"weekDay":6,"timeRanges":[{"opening":"09:00","closing":"21:00"}]},{"weekDay":7,"timeRanges":[{"opening":"09:00","closing":"21:00"}]}]},{"storeNumber":"279","address":{"name":"dm-drogerie markt","street":"Koll\u00e1rova 20","zip":"917 01","city":"Trnava"},"location":{"lat":48.3746351,"lon":17.5914753},"openingHours":[{"weekDay":1,"timeRanges":[{"opening":"09:00","closing":"21:00"}]},{"weekDay":2,"timeRanges":[{"opening":"09:00","closing":"21:00"}]},{"weekDay":3,"timeRanges":[{"opening":"09:00","closing":"21:00"}]},{"weekDay":4,"timeRanges":[{"opening":"09:00","closing":"21:00"}]},{"weekDay":5,"timeRanges":[{"opening":"09:00","closing":"21:00"}]},{"weekDay":6,"timeRanges":[{"opening":"09:00","closing":"21:00"}]},{"weekDay":7,"timeRanges":[{"opening":"09:00","closing":"21:00"}]}]},{"storeNumber":"280","address":{"name":"dm-drogerie markt","street":"N\u00e1mestie Matice Slovenskej 4263","zip":"018 41","city":"Dubnica nad V\u00e1hom"},"location":{"lat":48.9591726,"lon":18.1742578},"openingHours":[{"weekDay":1,"timeRanges":[{"opening":"08:00","closing":"19:00"}]},{"weekDay":2,"timeRanges":[{"opening":"08:00","closing":"19:00"}]},{"weekDay":3,"timeRanges":[{"opening":"08:00","closing":"19:00"}]},{"weekDay":4,"timeRanges":[{"opening":"08:00","closing":"19:00"}]},{"weekDay":5,"timeRanges":[{"opening":"08:00","closing":"19:00"}]},{"weekDay":6,"timeRanges":[{"opening":"08:00","closing":"18:00"}]},{"weekDay":7,"timeRanges":[{"opening":"09:30","closing":"17:30"}]}]},{"storeNumber":"281","address":{"name":"dm-drogerie markt","street":"Kas\u00e1rensk\u00e1 ulica 16","zip":"931 01","city":"\u0160amor\u00edn"},"location":{"lat":48.0342264,"lon":17.3003484},"openingHours":[{"weekDay":1,"timeRanges":[{"opening":"08:00","closing":"20:00"}]},{"weekDay":2,"timeRanges":[{"opening":"08:00","closing":"20:00"}]},{"weekDay":3,"timeRanges":[{"opening":"08:00","closing":"20:00"}]},{"weekDay":4,"timeRanges":[{"opening":"08:00","closing":"20:00"}]},{"weekDay":5,"timeRanges":[{"opening":"09:00","closing":"20:00"}]},{"weekDay":6,"timeRanges":[{"opening":"09:00","closing":"20:00"}]},{"weekDay":7,"timeRanges":[{"opening":"09:00","closing":"20:00"}]}]},{"storeNumber":"282","address":{"name":"dm-drogerie markt","street":"Nap\u00e1jadl\u00e1 1\/E","zip":"040 12","city":"Ko\u0161ice"},"location":{"lat":48.683823,"lon":21.2849749},"openingHours":[{"weekDay":1,"timeRanges":[{"opening":"09:00","closing":"20:00"}]},{"weekDay":2,"timeRanges":[{"opening":"09:00","closing":"20:00"}]},{"weekDay":3,"timeRanges":[{"opening":"09:00","closing":"20:00"}]},{"weekDay":4,"timeRanges":[{"opening":"09:00","closing":"20:00"}]},{"weekDay":5,"timeRanges":[{"opening":"09:00","closing":"20:00"}]},{"weekDay":6,"timeRanges":[{"opening":"09:00","closing":"20:00"}]},{"weekDay":7,"timeRanges":[{"opening":"09:00","closing":"20:00"}]}]},{"storeNumber":"283","address":{"name":"dm-drogerie markt","street":"Landererova 8","zip":"811 09","city":"Bratislava"},"location":{"lat":48.1421623,"lon":17.1262677},"openingHours":[{"weekDay":1,"timeRanges":[{"opening":"08:00","closing":"19:00"}]},{"weekDay":2,"timeRanges":[{"opening":"08:00","closing":"19:00"}]},{"weekDay":3,"timeRanges":[{"opening":"08:00","closing":"19:00"}]},{"weekDay":4,"timeRanges":[{"opening":"08:00","closing":"19:00"}]},{"weekDay":5,"timeRanges":[{"opening":"08:00","closing":"19:00"}]}]},{"storeNumber":"284","address":{"name":"dm-drogerie markt","street":"Ko\u0161ick\u00e1 8843\/3G","zip":"010 01","city":"\u017dilina"},"location":{"lat":49.2200604,"lon":18.7577047},"openingHours":[{"weekDay":1,"timeRanges":[{"opening":"08:00","closing":"20:00"}]},{"weekDay":2,"timeRanges":[{"opening":"08:00","closing":"20:00"}]},{"weekDay":3,"timeRanges":[{"opening":"08:00","closing":"20:00"}]},{"weekDay":4,"timeRanges":[{"opening":"08:00","closing":"20:00"}]},{"weekDay":5,"timeRanges":[{"opening":"08:00","closing":"20:00"}]},{"weekDay":6,"timeRanges":[{"opening":"09:00","closing":"20:00"}]},{"weekDay":7,"timeRanges":[{"opening":"09:00","closing":"20:00"}]}]},{"storeNumber":"285","address":{"name":"dm-drogerie markt","street":"Svornosti 58\/12998","zip":"821 06","city":"Bratislava"},"location":{"lat":48.1317646,"lon":17.1927599},"openingHours":[{"weekDay":1,"timeRanges":[{"opening":"09:00","closing":"20:00"}]},{"weekDay":2,"timeRanges":[{"opening":"09:00","closing":"20:00"}]},{"weekDay":3,"timeRanges":[{"opening":"09:00","closing":"20:00"}]},{"weekDay":4,"timeRanges":[{"opening":"09:00","closing":"20:00"}]},{"weekDay":5,"timeRanges":[{"opening":"09:00","closing":"20:00"}]},{"weekDay":6,"timeRanges":[{"opening":"09:00","closing":"20:00"}]},{"weekDay":7,"timeRanges":[{"opening":"09:00","closing":"20:00"}]}]},{"storeNumber":"286","address":{"name":"dm-drogerie markt","street":"Trst\u00ednska cesta 3\/A","zip":"917 01","city":"Trnava"},"location":{"lat":48.3865421,"lon":17.5714171},"openingHours":[{"weekDay":1,"timeRanges":[{"opening":"09:00","closing":"20:00"}]},{"weekDay":2,"timeRanges":[{"opening":"09:00","closing":"20:00"}]},{"weekDay":3,"timeRanges":[{"opening":"09:00","closing":"20:00"}]},{"weekDay":4,"timeRanges":[{"opening":"09:00","closing":"20:00"}]},{"weekDay":5,"timeRanges":[{"opening":"09:00","closing":"20:00"}]},{"weekDay":6,"timeRanges":[{"opening":"09:00","closing":"20:00"}]},{"weekDay":7,"timeRanges":[{"opening":"09:00","closing":"20:00"}]}]},{"storeNumber":"287","address":{"name":"dm-drogerie markt","street":"29. augusta 37","zip":"974 01","city":"Bansk\u00e1 Bystrica"},"location":{"lat":48.734851,"lon":19.1597907},"openingHours":[{"weekDay":1,"timeRanges":[{"opening":"08:00","closing":"20:00"}]},{"weekDay":2,"timeRanges":[{"opening":"08:00","closing":"20:00"}]},{"weekDay":3,"timeRanges":[{"opening":"08:00","closing":"20:00"}]},{"weekDay":4,"timeRanges":[{"opening":"08:00","closing":"20:00"}]},{"weekDay":5,"timeRanges":[{"opening":"08:00","closing":"20:00"}]},{"weekDay":6,"timeRanges":[{"opening":"09:00","closing":"20:00"}]},{"weekDay":7,"timeRanges":[{"opening":"09:00","closing":"20:00"}]}]},{"storeNumber":"288","address":{"name":"dm-drogerie markt","street":"Ludv\u00edka Svobodu 30","zip":"969 01","city":"Bansk\u00e1 \u0160tiavnica"},"location":{"lat":48.4537553,"lon":18.9161592},"openingHours":[{"weekDay":1,"timeRanges":[{"opening":"09:00","closing":"20:00"}]},{"weekDay":2,"timeRanges":[{"opening":"09:00","closing":"20:00"}]},{"weekDay":3,"timeRanges":[{"opening":"09:00","closing":"20:00"}]},{"weekDay":4,"timeRanges":[{"opening":"09:00","closing":"20:00"}]},{"weekDay":5,"timeRanges":[{"opening":"09:00","closing":"20:00"}]},{"weekDay":6,"timeRanges":[{"opening":"09:00","closing":"20:00"}]},{"weekDay":7,"timeRanges":[{"opening":"09:00","closing":"20:00"}]}]},{"storeNumber":"293","address":{"name":"dm drogerie markt","street":"M.R.\u0160tef\u00e1nika 2","zip":"940 37","city":"Nov\u00e9 Z\u00e1mky"},"location":{"lat":47.9862761,"lon":18.1647588},"openingHours":[{"weekDay":1,"timeRanges":[{"opening":"08:00","closing":"18:30"}]},{"weekDay":2,"timeRanges":[{"opening":"08:00","closing":"18:30"}]},{"weekDay":3,"timeRanges":[{"opening":"08:00","closing":"18:30"}]},{"weekDay":4,"timeRanges":[{"opening":"08:00","closing":"18:30"}]},{"weekDay":5,"timeRanges":[{"opening":"08:00","closing":"18:30"}]},{"weekDay":6,"timeRanges":[{"opening":"08:00","closing":"12:00"}]}]},{"storeNumber":"295","address":{"name":"dm drogerie markt","street":"Mileti\u010dova 40","zip":"821 01","city":"Bratislava"},"location":{"lat":48.15457,"lon":17.1344},"openingHours":[{"weekDay":1,"timeRanges":[{"opening":"08:00","closing":"19:00"}]},{"weekDay":2,"timeRanges":[{"opening":"08:00","closing":"19:00"}]},{"weekDay":3,"timeRanges":[{"opening":"08:00","closing":"19:00"}]},{"weekDay":4,"timeRanges":[{"opening":"08:00","closing":"19:00"}]},{"weekDay":5,"timeRanges":[{"opening":"08:00","closing":"19:00"}]},{"weekDay":6,"timeRanges":[{"opening":"08:00","closing":"14:00"}]}]},{"storeNumber":"300","address":{"name":"dm-drogerie markt","street":"M\u00fdtna 46","zip":"811 07","city":"Bratislava"},"location":{"lat":48.1567619,"lon":17.1189601},"openingHours":[{"weekDay":1,"timeRanges":[{"opening":"08:00","closing":"20:00"}]},{"weekDay":2,"timeRanges":[{"opening":"08:00","closing":"20:00"}]},{"weekDay":3,"timeRanges":[{"opening":"08:00","closing":"20:00"}]},{"weekDay":4,"timeRanges":[{"opening":"08:00","closing":"20:00"}]},{"weekDay":5,"timeRanges":[{"opening":"08:00","closing":"20:00"}]},{"weekDay":6,"timeRanges":[{"opening":"08:00","closing":"20:00"}]},{"weekDay":7,"timeRanges":[{"opening":"08:00","closing":"20:00"}]}]},{"storeNumber":"301","address":{"name":"dm-drogerie markt","street":"Solivarsk\u00e1 14839\/1C","zip":"080 01","city":"Pre\u0161ov"},"location":{"lat":48.9844422,"lon":21.253399},"openingHours":[{"weekDay":1,"timeRanges":[{"opening":"09:00","closing":"20:00"}]},{"weekDay":2,"timeRanges":[{"opening":"09:00","closing":"20:00"}]},{"weekDay":3,"timeRanges":[{"opening":"09:00","closing":"20:00"}]},{"weekDay":4,"timeRanges":[{"opening":"09:00","closing":"20:00"}]},{"weekDay":5,"timeRanges":[{"opening":"09:00","closing":"20:00"}]},{"weekDay":6,"timeRanges":[{"opening":"09:00","closing":"20:00"}]},{"weekDay":7,"timeRanges":[{"opening":"09:00","closing":"20:00"}]}]},{"storeNumber":"302","address":{"name":"dm-drogerie markt","street":"\u0160t\u00farova ulica 92","zip":"962 12","city":"Detva"},"location":{"lat":48.5425983,"lon":19.4015107},"openingHours":[{"weekDay":1,"timeRanges":[{"opening":"09:00","closing":"19:00"}]},{"weekDay":2,"timeRanges":[{"opening":"09:00","closing":"19:00"}]},{"weekDay":3,"timeRanges":[{"opening":"09:00","closing":"19:00"}]},{"weekDay":4,"timeRanges":[{"opening":"09:00","closing":"19:00"}]},{"weekDay":5,"timeRanges":[{"opening":"09:00","closing":"19:00"}]},{"weekDay":6,"timeRanges":[{"opening":"09:00","closing":"19:00"}]},{"weekDay":7,"timeRanges":[{"opening":"09:00","closing":"19:00"}]}]},{"storeNumber":"303","address":{"name":"dm-drogerie markt","street":"Humensk\u00e1 ulica 4","zip":"071 01","city":"Michalovce"},"location":{"lat":48.752535,"lon":21.8989604},"openingHours":[{"weekDay":1,"timeRanges":[{"opening":"09:00","closing":"20:00"}]},{"weekDay":2,"timeRanges":[{"opening":"09:00","closing":"20:00"}]},{"weekDay":3,"timeRanges":[{"opening":"09:00","closing":"20:00"}]},{"weekDay":4,"timeRanges":[{"opening":"09:00","closing":"20:00"}]},{"weekDay":5,"timeRanges":[{"opening":"09:00","closing":"20:00"}]},{"weekDay":6,"timeRanges":[{"opening":"09:00","closing":"20:00"}]},{"weekDay":7,"timeRanges":[{"opening":"09:00","closing":"20:00"}]}]},{"storeNumber":"304","address":{"name":"dm-drogerie markt","street":"Sokolsk\u00e1 ulica 10017\/117","zip":"960 03","city":"Zvolen"},"location":{"lat":48.5761166,"lon":19.1498781},"openingHours":[{"weekDay":1,"timeRanges":[{"opening":"09:00","closing":"20:00"}]},{"weekDay":2,"timeRanges":[{"opening":"09:00","closing":"20:00"}]},{"weekDay":3,"timeRanges":[{"opening":"09:00","closing":"20:00"}]},{"weekDay":4,"timeRanges":[{"opening":"09:00","closing":"20:00"}]},{"weekDay":5,"timeRanges":[{"opening":"09:00","closing":"20:00"}]},{"weekDay":6,"timeRanges":[{"opening":"09:00","closing":"20:00"}]},{"weekDay":7,"timeRanges":[{"opening":"09:00","closing":"20:00"}]}]},{"storeNumber":"305","address":{"name":"dm-drogerie markt","street":"Viestova 1302\/7","zip":"907 01","city":"Myjava"},"location":{"lat":48.7490508,"lon":17.5715753},"openingHours":[{"weekDay":1,"timeRanges":[{"opening":"09:00","closing":"20:00"}]},{"weekDay":2,"timeRanges":[{"opening":"09:00","closing":"20:00"}]},{"weekDay":3,"timeRanges":[{"opening":"09:00","closing":"20:00"}]},{"weekDay":4,"timeRanges":[{"opening":"09:00","closing":"20:00"}]},{"weekDay":5,"timeRanges":[{"opening":"09:00","closing":"20:00"}]},{"weekDay":6,"timeRanges":[{"opening":"09:00","closing":"20:00"}]},{"weekDay":7,"timeRanges":[{"opening":"10:00","closing":"19:00"}]}]},{"storeNumber":"306","address":{"name":"dm-drogerie markt","street":"S.H. Vajansk\u00e9ho 46B\/10693","zip":"940 02","city":"Nov\u00e9 Z\u00e1mky"},"location":{"lat":47.979618,"lon":18.1549116},"openingHours":[{"weekDay":1,"timeRanges":[{"opening":"09:00","closing":"20:00"}]},{"weekDay":2,"timeRanges":[{"opening":"09:00","closing":"20:00"}]},{"weekDay":3,"timeRanges":[{"opening":"09:00","closing":"20:00"}]},{"weekDay":4,"timeRanges":[{"opening":"09:00","closing":"20:00"}]},{"weekDay":5,"timeRanges":[{"opening":"09:00","closing":"20:00"}]},{"weekDay":6,"timeRanges":[{"opening":"09:00","closing":"20:00"}]},{"weekDay":7,"timeRanges":[{"opening":"09:00","closing":"20:00"}]}]},{"storeNumber":"307","address":{"name":"dm-drogerie markt","street":"Myslenick\u00e1 4440\/2B","streetAdditional":"Pezinok FMZ*","zip":"902 01","city":"Pezinok"},"location":{"lat":48.2779288,"lon":17.2552249},"openingHours":[{"weekDay":1,"timeRanges":[{"opening":"09:00","closing":"20:00"}]},{"weekDay":2,"timeRanges":[{"opening":"09:00","closing":"20:00"}]},{"weekDay":3,"timeRanges":[{"opening":"09:00","closing":"20:00"}]},{"weekDay":4,"timeRanges":[{"opening":"09:00","closing":"20:00"}]},{"weekDay":5,"timeRanges":[{"opening":"09:00","closing":"20:00"}]},{"weekDay":6,"timeRanges":[{"opening":"09:00","closing":"20:00"}]},{"weekDay":7,"timeRanges":[{"opening":"09:00","closing":"20:00"}]}]},{"storeNumber":"308","address":{"name":"dm-drogerie markt","street":"N\u00e1mestie SNP 2\/11376","zip":"036 01","city":"Martin"},"location":{"lat":49.0616495,"lon":18.9203054},"openingHours":[{"weekDay":1,"timeRanges":[{"opening":"08:00","closing":"20:00"}]},{"weekDay":2,"timeRanges":[{"opening":"08:00","closing":"20:00"}]},{"weekDay":3,"timeRanges":[{"opening":"08:00","closing":"20:00"}]},{"weekDay":4,"timeRanges":[{"opening":"08:00","closing":"20:00"}]},{"weekDay":5,"timeRanges":[{"opening":"08:00","closing":"20:00"}]},{"weekDay":6,"timeRanges":[{"opening":"08:00","closing":"20:00"}]},{"weekDay":7,"timeRanges":[{"opening":"08:00","closing":"20:00"}]}]},{"storeNumber":"311","address":{"name":"dm-drogerie markt","street":"Tvaro\u017enianska 2592\/7","zip":"060 01","city":"Ke\u017emarok"},"location":{"lat":49.129779,"lon":20.4316877},"openingHours":[{"weekDay":1,"timeRanges":[{"opening":"09:00","closing":"20:00"}]},{"weekDay":2,"timeRanges":[{"opening":"09:00","closing":"20:00"}]},{"weekDay":3,"timeRanges":[{"opening":"09:00","closing":"20:00"}]},{"weekDay":4,"timeRanges":[{"opening":"09:00","closing":"20:00"}]},{"weekDay":5,"timeRanges":[{"opening":"09:00","closing":"20:00"}]},{"weekDay":6,"timeRanges":[{"opening":"09:00","closing":"20:00"}]},{"weekDay":7,"timeRanges":[{"opening":"09:00","closing":"20:00"}]}]},{"storeNumber":"314","address":{"name":"dm-drogerie markt","street":"Rovinka 2050","zip":"900 41","city":"Rovinka"},"location":{"lat":48.092457,"lon":17.241968},"openingHours":[{"weekDay":1,"timeRanges":[{"opening":"09:00","closing":"20:00"}]},{"weekDay":2,"timeRanges":[{"opening":"09:00","closing":"20:00"}]},{"weekDay":3,"timeRanges":[{"opening":"09:00","closing":"20:00"}]},{"weekDay":4,"timeRanges":[{"opening":"09:00","closing":"20:00"}]},{"weekDay":5,"timeRanges":[{"opening":"09:00","closing":"20:00"}]},{"weekDay":6,"timeRanges":[{"opening":"09:00","closing":"20:00"}]},{"weekDay":7,"timeRanges":[{"opening":"09:00","closing":"20:00"}]}]},{"storeNumber":"315","address":{"name":"dm-drogerie markt","street":"Metodova 6","zip":"821 08","city":"Bratislava"},"location":{"lat":48.157023,"lon":17.1288509},"openingHours":[{"weekDay":1,"timeRanges":[{"opening":"08:00","closing":"21:00"}]},{"weekDay":2,"timeRanges":[{"opening":"08:00","closing":"21:00"}]},{"weekDay":3,"timeRanges":[{"opening":"08:00","closing":"21:00"}]},{"weekDay":4,"timeRanges":[{"opening":"08:00","closing":"21:00"}]},{"weekDay":5,"timeRanges":[{"opening":"08:00","closing":"21:00"}]},{"weekDay":6,"timeRanges":[{"opening":"09:00","closing":"21:00"}]},{"weekDay":7,"timeRanges":[{"opening":"09:00","closing":"21:00"}]}]},{"storeNumber":"317","address":{"name":"dm-drogerie markt","street":"Bratislavsk\u00e1 114","zip":"921 01","city":"Pie\u0161\u0165any"},"location":{"lat":48.5873272,"lon":17.8140825},"openingHours":[{"weekDay":1,"timeRanges":[{"opening":"09:00","closing":"20:00"}]},{"weekDay":2,"timeRanges":[{"opening":"09:00","closing":"20:00"}]},{"weekDay":3,"timeRanges":[{"opening":"09:00","closing":"20:00"}]},{"weekDay":4,"timeRanges":[{"opening":"09:00","closing":"20:00"}]},{"weekDay":5,"timeRanges":[{"opening":"09:00","closing":"20:00"}]},{"weekDay":6,"timeRanges":[{"opening":"09:00","closing":"20:00"}]},{"weekDay":7,"timeRanges":[{"opening":"09:00","closing":"20:00"}]}]},{"storeNumber":"318","address":{"name":"dm drogerie markt","street":"\u013d. \u0160t\u00fara 2000\/82","zip":"019 01","city":"Ilava"},"location":{"lat":48.9933532,"lon":18.2300021},"openingHours":[{"weekDay":1,"timeRanges":[{"opening":"09:00","closing":"20:00"}]},{"weekDay":2,"timeRanges":[{"opening":"09:00","closing":"20:00"}]},{"weekDay":3,"timeRanges":[{"opening":"09:00","closing":"20:00"}]},{"weekDay":4,"timeRanges":[{"opening":"09:00","closing":"20:00"}]},{"weekDay":5,"timeRanges":[{"opening":"09:00","closing":"20:00"}]},{"weekDay":6,"timeRanges":[{"opening":"09:00","closing":"20:00"}]},{"weekDay":7,"timeRanges":[{"opening":"09:00","closing":"20:00"}]}]},{"storeNumber":"319","address":{"name":"dm-drogerie markt","street":"Martina Benku 5053\/2A","zip":"955 03","city":"Topo\u013e\u010dany"},"location":{"lat":48.55594,"lon":18.177452},"openingHours":[{"weekDay":1,"timeRanges":[{"opening":"09:00","closing":"20:00"}]},{"weekDay":2,"timeRanges":[{"opening":"09:00","closing":"20:00"}]},{"weekDay":3,"timeRanges":[{"opening":"09:00","closing":"20:00"}]},{"weekDay":4,"timeRanges":[{"opening":"09:00","closing":"20:00"}]},{"weekDay":5,"timeRanges":[{"opening":"09:00","closing":"20:00"}]},{"weekDay":6,"timeRanges":[{"opening":"09:00","closing":"20:00"}]},{"weekDay":7,"timeRanges":[{"opening":"09:00","closing":"20:00"}]}]},{"storeNumber":"320","address":{"name":"dm drogerie markt","street":"Ve\u013ekoblahovsk\u00e1 cesta 4325\/9F","zip":"929 01","city":"Dunajsk\u00e1 Streda"},"location":{"lat":47.9980915,"lon":17.6106213},"openingHours":[{"weekDay":1,"timeRanges":[{"opening":"08:00","closing":"19:00"}]},{"weekDay":2,"timeRanges":[{"opening":"08:00","closing":"19:00"}]},{"weekDay":3,"timeRanges":[{"opening":"08:00","closing":"19:00"}]},{"weekDay":4,"timeRanges":[{"opening":"08:00","closing":"19:00"}]},{"weekDay":5,"timeRanges":[{"opening":"08:00","closing":"19:00"}]},{"weekDay":6,"timeRanges":[{"opening":"08:00","closing":"19:00"}]},{"weekDay":7,"timeRanges":[{"opening":"08:00","closing":"19:00"}]}]},{"storeNumber":"321","address":{"name":"dm drogerie markt","street":"Ba\u017eantia 7435\/3","zip":"929 01","city":"Dunajsk\u00e1 Streda"},"location":{"lat":47.9884059,"lon":17.6352879},"openingHours":[{"weekDay":1,"timeRanges":[{"opening":"09:00","closing":"20:00"}]},{"weekDay":2,"timeRanges":[{"opening":"09:00","closing":"20:00"}]},{"weekDay":3,"timeRanges":[{"opening":"09:00","closing":"20:00"}]},{"weekDay":4,"timeRanges":[{"opening":"09:00","closing":"20:00"}]},{"weekDay":5,"timeRanges":[{"opening":"09:00","closing":"20:00"}]},{"weekDay":6,"timeRanges":[{"opening":"09:00","closing":"20:00"}]},{"weekDay":7,"timeRanges":[{"opening":"09:00","closing":"20:00"}]}]},{"storeNumber":"324","address":{"name":"dm drogerie markt","street":"Hlinsk\u00e1 8943\/47A","zip":"010 01","city":"\u017dilina"},"location":{"lat":49.2031547,"lon":18.7359399},"openingHours":[{"weekDay":1,"timeRanges":[{"opening":"08:00","closing":"20:00"}]},{"weekDay":2,"timeRanges":[{"opening":"08:00","closing":"20:00"}]},{"weekDay":3,"timeRanges":[{"opening":"08:00","closing":"20:00"}]},{"weekDay":4,"timeRanges":[{"opening":"08:00","closing":"20:00"}]},{"weekDay":5,"timeRanges":[{"opening":"08:00","closing":"20:00"}]},{"weekDay":6,"timeRanges":[{"opening":"09:00","closing":"20:00"}]},{"weekDay":7,"timeRanges":[{"opening":"09:00","closing":"20:00"}]}]},{"storeNumber":"325","address":{"name":"dm-drogerie markt","street":"OC Turiec 1","zip":"036 01","city":"Martin"},"location":{"lat":49.0801961,"lon":18.9230553},"openingHours":[{"weekDay":1,"timeRanges":[{"opening":"08:00","closing":"19:00"}]},{"weekDay":2,"timeRanges":[{"opening":"08:00","closing":"19:00"}]},{"weekDay":3,"timeRanges":[{"opening":"08:00","closing":"19:00"}]},{"weekDay":4,"timeRanges":[{"opening":"08:00","closing":"19:00"}]},{"weekDay":5,"timeRanges":[{"opening":"08:00","closing":"19:00"}]},{"weekDay":6,"timeRanges":[{"opening":"09:00","closing":"19:00"}]},{"weekDay":7,"timeRanges":[{"opening":"09:00","closing":"19:00"}]}]},{"storeNumber":"326","address":{"name":"dm drogerie markt","street":"Herlianska 60","zip":"040 14","city":"Ko\u0161ice"},"location":{"lat":48.7280778,"lon":21.2926279},"openingHours":[{"weekDay":1,"timeRanges":[{"opening":"09:00","closing":"20:00"}]},{"weekDay":2,"timeRanges":[{"opening":"09:00","closing":"20:00"}]},{"weekDay":3,"timeRanges":[{"opening":"09:00","closing":"20:00"}]},{"weekDay":4,"timeRanges":[{"opening":"09:00","closing":"20:00"}]},{"weekDay":5,"timeRanges":[{"opening":"09:00","closing":"20:00"}]},{"weekDay":6,"timeRanges":[{"opening":"09:00","closing":"20:00"}]},{"weekDay":7,"timeRanges":[{"opening":"09:00","closing":"20:00"}]}]},{"storeNumber":"327","address":{"name":"dm-drogerie markt","street":"Vysoko\u0161kol\u00e1kov 52","zip":"010 08","city":"\u017dilina"},"location":{"lat":49.211875,"lon":18.7524291},"openingHours":[{"weekDay":1,"timeRanges":[{"opening":"08:00","closing":"21:00"}]},{"weekDay":2,"timeRanges":[{"opening":"08:00","closing":"21:00"}]},{"weekDay":3,"timeRanges":[{"opening":"08:00","closing":"21:00"}]},{"weekDay":4,"timeRanges":[{"opening":"08:00","closing":"21:00"}]},{"weekDay":5,"timeRanges":[{"opening":"08:00","closing":"21:00"}]},{"weekDay":6,"timeRanges":[{"opening":"09:00","closing":"21:00"}]},{"weekDay":7,"timeRanges":[{"opening":"09:00","closing":"21:00"}]}]},{"storeNumber":"328","address":{"name":"dm-drogerie markt","street":"Bratislavsk\u00e1 ul. 5870","zip":"903 01","city":"Senec"},"location":{"lat":48.2137989,"lon":17.3865706},"openingHours":[{"weekDay":1,"timeRanges":[{"opening":"09:00","closing":"20:00"}]},{"weekDay":2,"timeRanges":[{"opening":"09:00","closing":"20:00"}]},{"weekDay":3,"timeRanges":[{"opening":"09:00","closing":"20:00"}]},{"weekDay":4,"timeRanges":[{"opening":"09:00","closing":"20:00"}]},{"weekDay":5,"timeRanges":[{"opening":"09:00","closing":"20:00"}]},{"weekDay":6,"timeRanges":[{"opening":"09:00","closing":"20:00"}]},{"weekDay":7,"timeRanges":[{"opening":"09:00","closing":"20:00"}]}]},{"storeNumber":"329","address":{"name":"dm-drogerie markt","street":"Slne\u010dnicov\u00e1 6379","zip":"900 27","city":"Bernol\u00e1kovo"},"location":{"lat":48.1916646,"lon":17.2915223},"openingHours":[{"weekDay":1,"timeRanges":[{"opening":"08:00","closing":"20:00"}]},{"weekDay":2,"timeRanges":[{"opening":"08:00","closing":"20:00"}]},{"weekDay":3,"timeRanges":[{"opening":"08:00","closing":"20:00"}]},{"weekDay":4,"timeRanges":[{"opening":"08:00","closing":"20:00"}]},{"weekDay":5,"timeRanges":[{"opening":"08:00","closing":"20:00"}]},{"weekDay":6,"timeRanges":[{"opening":"08:00","closing":"20:00"}]},{"weekDay":7,"timeRanges":[{"opening":"09:00","closing":"20:00"}]}]},{"storeNumber":"330","address":{"name":"dm-drogerie markt","street":"Kamenn\u00e9 N\u00e1mestie 1\/A","zip":"815 61","city":"Bratislava"},"location":{"lat":48.1453351,"lon":17.114068},"openingHours":[{"weekDay":1,"timeRanges":[{"opening":"09:00","closing":"21:00"}]},{"weekDay":2,"timeRanges":[{"opening":"09:00","closing":"21:00"}]},{"weekDay":3,"timeRanges":[{"opening":"09:00","closing":"21:00"}]},{"weekDay":4,"timeRanges":[{"opening":"09:00","closing":"21:00"}]},{"weekDay":5,"timeRanges":[{"opening":"09:00","closing":"21:00"}]},{"weekDay":6,"timeRanges":[{"opening":"09:00","closing":"20:00"}]},{"weekDay":7,"timeRanges":[{"opening":"09:00","closing":"20:00"}]}]},{"storeNumber":"331","address":{"name":"dm-drogerie markt","street":"\u0160tef\u00e1nikova trieda 35\/61","zip":"94901","city":"Nitra"},"location":{"lat":48.306743,"lon":18.0862516},"openingHours":[{"weekDay":1,"timeRanges":[{"opening":"09:00","closing":"21:00"}]},{"weekDay":2,"timeRanges":[{"opening":"09:00","closing":"21:00"}]},{"weekDay":3,"timeRanges":[{"opening":"09:00","closing":"21:00"}]},{"weekDay":4,"timeRanges":[{"opening":"09:00","closing":"21:00"}]},{"weekDay":5,"timeRanges":[{"opening":"09:00","closing":"21:00"}]},{"weekDay":6,"timeRanges":[{"opening":"09:00","closing":"21:00"}]},{"weekDay":7,"timeRanges":[{"opening":"09:00","closing":"21:00"}]}]},{"storeNumber":"332","address":{"name":"dm-drogerie markt","street":"Obchodn\u00e1 ulica 2889\/8","zip":"080 06","city":"\u013dubotice"},"location":{"lat":49.0129962,"lon":21.2584211},"openingHours":[{"weekDay":1,"timeRanges":[{"opening":"09:00","closing":"20:00"}]},{"weekDay":2,"timeRanges":[{"opening":"09:00","closing":"20:00"}]},{"weekDay":3,"timeRanges":[{"opening":"09:00","closing":"20:00"}]},{"weekDay":4,"timeRanges":[{"opening":"09:00","closing":"20:00"}]},{"weekDay":5,"timeRanges":[{"opening":"09:00","closing":"20:00"}]},{"weekDay":6,"timeRanges":[{"opening":"09:00","closing":"20:00"}]},{"weekDay":7,"timeRanges":[{"opening":"09:00","closing":"20:00"}]}]},{"storeNumber":"333","address":{"name":"dm-drogerie markt","street":"Priemyseln\u00e1 4305\/5","zip":"932 01","city":"Ve\u013ek\u00fd Meder"},"location":{"lat":47.864088,"lon":17.7598738},"openingHours":[{"weekDay":1,"timeRanges":[{"opening":"09:00","closing":"20:00"}]},{"weekDay":2,"timeRanges":[{"opening":"09:00","closing":"20:00"}]},{"weekDay":3,"timeRanges":[{"opening":"09:00","closing":"20:00"}]},{"weekDay":4,"timeRanges":[{"opening":"09:00","closing":"20:00"}]},{"weekDay":5,"timeRanges":[{"opening":"09:00","closing":"20:00"}]},{"weekDay":6,"timeRanges":[{"opening":"09:00","closing":"20:00"}]},{"weekDay":7,"timeRanges":[{"opening":"09:00","closing":"20:00"}]}]},{"storeNumber":"334","address":{"name":"dm drogerie markt","street":"A Jedl\u00edka 5566\/5B","zip":"945 01","city":"Kom\u00e1rno"},"location":{"lat":47.763566,"lon":18.0939168},"openingHours":[{"weekDay":1,"timeRanges":[{"opening":"09:00","closing":"20:00"}]},{"weekDay":2,"timeRanges":[{"opening":"09:00","closing":"20:00"}]},{"weekDay":3,"timeRanges":[{"opening":"09:00","closing":"20:00"}]},{"weekDay":4,"timeRanges":[{"opening":"09:00","closing":"20:00"}]},{"weekDay":5,"timeRanges":[{"opening":"09:00","closing":"20:00"}]},{"weekDay":6,"timeRanges":[{"opening":"09:00","closing":"20:00"}]},{"weekDay":7,"timeRanges":[{"opening":"09:00","closing":"20:00"}]}]},{"storeNumber":"336","address":{"name":"dm drogerie markt","street":"Pan\u00f3nska cesta 3507\/25","zip":"851 04","city":"Bratislava"},"location":{"lat":48.108694,"lon":17.096722},"openingHours":[{"weekDay":1,"timeRanges":[{"opening":"09:00","closing":"21:00"}]},{"weekDay":2,"timeRanges":[{"opening":"09:00","closing":"21:00"}]},{"weekDay":3,"timeRanges":[{"opening":"09:00","closing":"21:00"}]},{"weekDay":4,"timeRanges":[{"opening":"09:00","closing":"21:00"}]},{"weekDay":5,"timeRanges":[{"opening":"09:00","closing":"21:00"}]},{"weekDay":6,"timeRanges":[{"opening":"09:00","closing":"21:00"}]},{"weekDay":7,"timeRanges":[{"opening":"09:00","closing":"21:00"}]}]},{"storeNumber":"337","address":{"name":"dm drogerie markt","street":"Kli\u0148ansk\u00e1 cesta 1311","zip":"029 01","city":"N\u00e1mestovo"},"location":{"lat":49.4216099,"lon":19.4984208},"openingHours":[{"weekDay":1,"timeRanges":[{"opening":"08:00","closing":"20:00"}]},{"weekDay":2,"timeRanges":[{"opening":"08:00","closing":"20:00"}]},{"weekDay":3,"timeRanges":[{"opening":"08:00","closing":"20:00"}]},{"weekDay":4,"timeRanges":[{"opening":"08:00","closing":"20:00"}]},{"weekDay":5,"timeRanges":[{"opening":"08:00","closing":"20:00"}]},{"weekDay":6,"timeRanges":[{"opening":"08:00","closing":"20:00"}]},{"weekDay":7,"timeRanges":[{"opening":"08:00","closing":"20:00"}]}]},{"storeNumber":"338","address":{"name":"dm drogerie markt","street":"Hlavn\u00e1 111","zip":"040 01","city":"Ko\u0161ice"},"location":{"lat":48.7254189,"lon":21.2558751},"openingHours":[{"weekDay":1,"timeRanges":[{"opening":"09:00","closing":"21:00"}]},{"weekDay":2,"timeRanges":[{"opening":"09:00","closing":"21:00"}]},{"weekDay":3,"timeRanges":[{"opening":"09:00","closing":"21:00"}]},{"weekDay":4,"timeRanges":[{"opening":"09:00","closing":"21:00"}]},{"weekDay":5,"timeRanges":[{"opening":"09:00","closing":"21:00"}]},{"weekDay":6,"timeRanges":[{"opening":"09:00","closing":"21:00"}]},{"weekDay":7,"timeRanges":[{"opening":"09:00","closing":"21:00"}]}]},{"storeNumber":"339","address":{"name":"dm drogerie markt","street":"N\u00e1mestie legion\u00e1rov 15267\/1","zip":"080 01","city":"Pre\u0161ov"},"location":{"lat":48.9929219,"lon":21.2437014},"openingHours":[{"weekDay":1,"timeRanges":[{"opening":"09:00","closing":"21:00"}]},{"weekDay":2,"timeRanges":[{"opening":"09:00","closing":"21:00"}]},{"weekDay":3,"timeRanges":[{"opening":"09:00","closing":"21:00"}]},{"weekDay":4,"timeRanges":[{"opening":"09:00","closing":"21:00"}]},{"weekDay":5,"timeRanges":[{"opening":"09:00","closing":"21:00"}]},{"weekDay":6,"timeRanges":[{"opening":"09:00","closing":"21:00"}]},{"weekDay":7,"timeRanges":[{"opening":"09:00","closing":"21:00"}]}]},{"storeNumber":"340","address":{"name":"dm drogerie markt","street":"Mlynsk\u00e9 Nivy 5","zip":"81109","city":"Bratislava"},"location":{"lat":48.1461474,"lon":17.1306305},"openingHours":[{"weekDay":1,"timeRanges":[{"opening":"09:00","closing":"21:00"}]},{"weekDay":2,"timeRanges":[{"opening":"09:00","closing":"21:00"}]},{"weekDay":3,"timeRanges":[{"opening":"09:00","closing":"21:00"}]},{"weekDay":4,"timeRanges":[{"opening":"09:00","closing":"21:00"}]},{"weekDay":5,"timeRanges":[{"opening":"09:00","closing":"21:00"}]},{"weekDay":6,"timeRanges":[{"opening":"09:00","closing":"21:00"}]},{"weekDay":7,"timeRanges":[{"opening":"09:00","closing":"21:00"}]}]},{"storeNumber":"343","address":{"name":"dm drogerie markt","street":"Sandrick\u00e1 521\/7","zip":"966 81","city":"\u017darnovica"},"location":{"lat":48.4768134,"lon":18.7230503},"openingHours":[{"weekDay":1,"timeRanges":[{"opening":"09:00","closing":"20:00"}]},{"weekDay":2,"timeRanges":[{"opening":"09:00","closing":"20:00"}]},{"weekDay":3,"timeRanges":[{"opening":"09:00","closing":"20:00"}]},{"weekDay":4,"timeRanges":[{"opening":"09:00","closing":"20:00"}]},{"weekDay":5,"timeRanges":[{"opening":"09:00","closing":"20:00"}]},{"weekDay":6,"timeRanges":[{"opening":"09:00","closing":"20:00"}]},{"weekDay":7,"timeRanges":[{"opening":"09:00","closing":"20:00"}]}]},{"storeNumber":"346","address":{"name":"dm-drogerie markt","street":"Bratislavsk\u00e1 2051\/130 B","zip":"90046","city":"Most pri Bratislave"},"location":{"lat":48.1434889,"lon":17.2824586},"openingHours":[{"weekDay":1,"timeRanges":[{"opening":"09:00","closing":"20:00"}]},{"weekDay":2,"timeRanges":[{"opening":"09:00","closing":"20:00"}]},{"weekDay":3,"timeRanges":[{"opening":"09:00","closing":"20:00"}]},{"weekDay":4,"timeRanges":[{"opening":"09:00","closing":"20:00"}]},{"weekDay":5,"timeRanges":[{"opening":"09:00","closing":"20:00"}]},{"weekDay":6,"timeRanges":[{"opening":"09:00","closing":"20:00"}]},{"weekDay":7,"timeRanges":[{"opening":"09:00","closing":"20:00"}]}]},{"storeNumber":"347","address":{"name":"dm-drogerie markt","street":"Nitrianska 7555\/18","zip":"92101","city":"Pie\u0161\u0165any"},"location":{"lat":48.5882802,"lon":17.8334875},"openingHours":[{"weekDay":1,"timeRanges":[{"opening":"09:00","closing":"21:00"}]},{"weekDay":2,"timeRanges":[{"opening":"09:00","closing":"21:00"}]},{"weekDay":3,"timeRanges":[{"opening":"09:00","closing":"21:00"}]},{"weekDay":4,"timeRanges":[{"opening":"09:00","closing":"21:00"}]},{"weekDay":5,"timeRanges":[{"opening":"09:00","closing":"21:00"}]},{"weekDay":6,"timeRanges":[{"opening":"09:00","closing":"21:00"}]},{"weekDay":7,"timeRanges":[{"opening":"09:00","closing":"21:00"}]}]}]