[{"storeNumber":"10","address":{"name":"GY\u0150R 010 SZ. BOLT","street":"Feh\u00e9rv\u00e1ri \u00fat 3.","zip":"9023","city":"Gy\u0151r"},"location":{"lat":47.68781,"lon":17.64859},"openingHours":[{"weekDay":1,"timeRanges":[{"opening":"08:00","closing":"20:00"}]},{"weekDay":2,"timeRanges":[{"opening":"08:00","closing":"20:00"}]},{"weekDay":3,"timeRanges":[{"opening":"08:00","closing":"20:00"}]},{"weekDay":4,"timeRanges":[{"opening":"08:00","closing":"20:00"}]},{"weekDay":5,"timeRanges":[{"opening":"08:00","closing":"20:00"}]},{"weekDay":6,"timeRanges":[{"opening":"08:00","closing":"20:00"}]},{"weekDay":7,"timeRanges":[{"opening":"08:00","closing":"18:00"}]}]},{"storeNumber":"100","address":{"name":"BUDAPEST 100 SZ. BOLT","street":"T\u00f6r\u00f6kv\u00e9sz \u00fat 87-91.","zip":"1025","city":"Budapest"},"location":{"lat":47.5290574,"lon":19.005256},"openingHours":[{"weekDay":1,"timeRanges":[{"opening":"08:00","closing":"20:00"}]},{"weekDay":2,"timeRanges":[{"opening":"08:00","closing":"20:00"}]},{"weekDay":3,"timeRanges":[{"opening":"08:00","closing":"20:00"}]},{"weekDay":4,"timeRanges":[{"opening":"08:00","closing":"20:00"}]},{"weekDay":5,"timeRanges":[{"opening":"08:00","closing":"20:00"}]},{"weekDay":6,"timeRanges":[{"opening":"09:00","closing":"18:00"}]},{"weekDay":7,"timeRanges":[{"opening":"09:00","closing":"16:00"}]}]},{"storeNumber":"101","address":{"name":"DUNAKESZI 101 SZ. BOLT","street":"Bar\u00e1ts\u00e1g utca 33.","zip":"2120","city":"Dunakeszi"},"location":{"lat":47.64208,"lon":19.12641},"openingHours":[{"weekDay":1,"timeRanges":[{"opening":"08:00","closing":"19:00"}]},{"weekDay":2,"timeRanges":[{"opening":"08:00","closing":"19:00"}]},{"weekDay":3,"timeRanges":[{"opening":"08:00","closing":"19:00"}]},{"weekDay":4,"timeRanges":[{"opening":"08:00","closing":"19:00"}]},{"weekDay":5,"timeRanges":[{"opening":"08:00","closing":"19:00"}]},{"weekDay":6,"timeRanges":[{"opening":"08:00","closing":"14:00"}]}]},{"storeNumber":"104","address":{"name":"HAJD\u00daB\u00d6SZ\u00d6RM\u00c9NY 104 SZ. BOLT","street":"Kossuth utca 10-16.","zip":"4220","city":"Hajd\u00fab\u00f6sz\u00f6rm\u00e9ny"},"location":{"lat":47.6708754,"lon":21.5093366},"openingHours":[{"weekDay":1,"timeRanges":[{"opening":"08:00","closing":"18:00"}]},{"weekDay":2,"timeRanges":[{"opening":"08:00","closing":"18:00"}]},{"weekDay":3,"timeRanges":[{"opening":"08:00","closing":"18:00"}]},{"weekDay":4,"timeRanges":[{"opening":"08:00","closing":"18:00"}]},{"weekDay":5,"timeRanges":[{"opening":"08:00","closing":"18:00"}]},{"weekDay":6,"timeRanges":[{"opening":"08:00","closing":"13:00"}]}]},{"storeNumber":"105","address":{"name":"CSONGR\u00c1D 105 SZ. BOLT","street":"F\u0151 utca 6-10.","zip":"6640","city":"Csongr\u00e1d"},"location":{"lat":46.71048,"lon":20.14869},"openingHours":[{"weekDay":1,"timeRanges":[{"opening":"08:00","closing":"18:00"}]},{"weekDay":2,"timeRanges":[{"opening":"08:00","closing":"18:00"}]},{"weekDay":3,"timeRanges":[{"opening":"08:00","closing":"18:00"}]},{"weekDay":4,"timeRanges":[{"opening":"08:00","closing":"18:00"}]},{"weekDay":5,"timeRanges":[{"opening":"08:00","closing":"18:00"}]},{"weekDay":6,"timeRanges":[{"opening":"08:00","closing":"13:00"}]}]},{"storeNumber":"107","address":{"name":"S\u00c1RV\u00c1R 107 SZ. BOLT","street":"Batthy\u00e1ny Lajos utca 16.","zip":"9600","city":"S\u00e1rv\u00e1r"},"location":{"lat":47.25341,"lon":16.93304},"openingHours":[{"weekDay":1,"timeRanges":[{"opening":"08:00","closing":"19:00"}]},{"weekDay":2,"timeRanges":[{"opening":"08:00","closing":"19:00"}]},{"weekDay":3,"timeRanges":[{"opening":"08:00","closing":"19:00"}]},{"weekDay":4,"timeRanges":[{"opening":"08:00","closing":"19:00"}]},{"weekDay":5,"timeRanges":[{"opening":"08:00","closing":"19:00"}]},{"weekDay":6,"timeRanges":[{"opening":"08:00","closing":"13:00"}]}]},{"storeNumber":"109","address":{"name":"KALOCSA 109 SZ. BOLT","street":"Szent Istv\u00e1n kir\u00e1ly utca 55\/a.","zip":"6300","city":"Kalocsa"},"location":{"lat":46.52539,"lon":18.97897},"openingHours":[{"weekDay":1,"timeRanges":[{"opening":"08:00","closing":"18:00"}]},{"weekDay":2,"timeRanges":[{"opening":"08:00","closing":"18:00"}]},{"weekDay":3,"timeRanges":[{"opening":"08:00","closing":"18:00"}]},{"weekDay":4,"timeRanges":[{"opening":"08:00","closing":"18:00"}]},{"weekDay":5,"timeRanges":[{"opening":"08:00","closing":"18:00"}]},{"weekDay":6,"timeRanges":[{"opening":"08:00","closing":"13:00"}]}]},{"storeNumber":"110","address":{"name":"BARCS 110 SZ. BOLT","street":"K\u00f6zt\u00e1rsas\u00e1g utca 25.","zip":"7570","city":"Barcs"},"location":{"lat":45.96128,"lon":17.46439},"openingHours":[{"weekDay":1,"timeRanges":[{"opening":"08:00","closing":"18:00"}]},{"weekDay":2,"timeRanges":[{"opening":"08:00","closing":"18:00"}]},{"weekDay":3,"timeRanges":[{"opening":"08:00","closing":"18:00"}]},{"weekDay":4,"timeRanges":[{"opening":"08:00","closing":"18:00"}]},{"weekDay":5,"timeRanges":[{"opening":"08:00","closing":"18:00"}]},{"weekDay":6,"timeRanges":[{"opening":"08:00","closing":"13:00"}]}]},{"storeNumber":"114","address":{"name":"BUDAPEST 114 SZ. BOLT","street":"Heltai Jen\u0151 t\u00e9r 1-3.","zip":"1039","city":"Budapest"},"location":{"lat":47.59827,"lon":19.0577},"openingHours":[{"weekDay":1,"timeRanges":[{"opening":"08:00","closing":"20:00"}]},{"weekDay":2,"timeRanges":[{"opening":"08:00","closing":"20:00"}]},{"weekDay":3,"timeRanges":[{"opening":"08:00","closing":"20:00"}]},{"weekDay":4,"timeRanges":[{"opening":"08:00","closing":"20:00"}]},{"weekDay":5,"timeRanges":[{"opening":"08:00","closing":"20:00"}]},{"weekDay":6,"timeRanges":[{"opening":"07:00","closing":"16:00"}]}]},{"storeNumber":"115","address":{"name":"BUDAPEST 115 SZ. BOLT","street":"Margit k\u00f6r\u00fat 50-52.","zip":"1027","city":"Budapest"},"location":{"lat":47.5109,"lon":19.03223},"openingHours":[{"weekDay":1,"timeRanges":[{"opening":"07:00","closing":"19:00"}]},{"weekDay":2,"timeRanges":[{"opening":"07:00","closing":"19:00"}]},{"weekDay":3,"timeRanges":[{"opening":"07:00","closing":"19:00"}]},{"weekDay":4,"timeRanges":[{"opening":"07:00","closing":"19:00"}]},{"weekDay":5,"timeRanges":[{"opening":"07:00","closing":"19:00"}]},{"weekDay":6,"timeRanges":[{"opening":"08:00","closing":"15:00"}]}]},{"storeNumber":"116","address":{"name":"SZOLNOK 116 SZ. BOLT","street":"Boldog S\u00e1ndor Istv\u00e1n krt. 2\/a.","zip":"5000","city":"Szolnok"},"location":{"lat":47.17597,"lon":20.19366},"openingHours":[{"weekDay":1,"timeRanges":[{"opening":"08:00","closing":"19:00"}]},{"weekDay":2,"timeRanges":[{"opening":"08:00","closing":"19:00"}]},{"weekDay":3,"timeRanges":[{"opening":"08:00","closing":"19:00"}]},{"weekDay":4,"timeRanges":[{"opening":"08:00","closing":"19:00"}]},{"weekDay":5,"timeRanges":[{"opening":"08:00","closing":"19:00"}]},{"weekDay":6,"timeRanges":[{"opening":"08:00","closing":"14:00"}]}]},{"storeNumber":"120","address":{"name":"DEBRECEN  120 SZ. BOLT","street":"P\u00e9terfia utca 18.","zip":"4026","city":"Debrecen"},"location":{"lat":47.5348922,"lon":21.625441},"openingHours":[{"weekDay":1,"timeRanges":[{"opening":"09:00","closing":"20:00"}]},{"weekDay":2,"timeRanges":[{"opening":"09:00","closing":"20:00"}]},{"weekDay":3,"timeRanges":[{"opening":"09:00","closing":"20:00"}]},{"weekDay":4,"timeRanges":[{"opening":"09:00","closing":"20:00"}]},{"weekDay":5,"timeRanges":[{"opening":"09:00","closing":"20:00"}]},{"weekDay":6,"timeRanges":[{"opening":"09:00","closing":"20:00"}]},{"weekDay":7,"timeRanges":[{"opening":"10:00","closing":"18:00"}]}]},{"storeNumber":"121","address":{"name":"SI\u00d3FOK 121 SZ. BOLT","street":"F\u0151 utca 188-190.","zip":"8600","city":"Si\u00f3fok"},"location":{"lat":46.90718,"lon":18.05558},"openingHours":[{"weekDay":1,"timeRanges":[{"opening":"08:00","closing":"20:00"}]},{"weekDay":2,"timeRanges":[{"opening":"08:00","closing":"20:00"}]},{"weekDay":3,"timeRanges":[{"opening":"08:00","closing":"20:00"}]},{"weekDay":4,"timeRanges":[{"opening":"08:00","closing":"20:00"}]},{"weekDay":5,"timeRanges":[{"opening":"08:00","closing":"20:00"}]},{"weekDay":6,"timeRanges":[{"opening":"08:00","closing":"16:00"}]}]},{"storeNumber":"123","address":{"name":"SZENTENDRE 123 SZ. BOLT","street":"Dunakanyar k\u00f6r\u00fat 2.","zip":"2000","city":"Szentendre"},"location":{"lat":47.66176,"lon":19.0755},"openingHours":[{"weekDay":1,"timeRanges":[{"opening":"07:00","closing":"19:00"}]},{"weekDay":2,"timeRanges":[{"opening":"07:00","closing":"19:00"}]},{"weekDay":3,"timeRanges":[{"opening":"07:00","closing":"19:00"}]},{"weekDay":4,"timeRanges":[{"opening":"07:00","closing":"19:00"}]},{"weekDay":5,"timeRanges":[{"opening":"07:00","closing":"19:00"}]},{"weekDay":6,"timeRanges":[{"opening":"07:00","closing":"15:00"}]}]},{"storeNumber":"125","address":{"name":"BUDAPEST 125 SZ. BOLT","street":"Alkot\u00e1s utca 53.","zip":"1123","city":"Budapest"},"location":{"lat":47.49033,"lon":19.02373},"openingHours":[{"weekDay":1,"timeRanges":[{"opening":"09:00","closing":"20:00"}]},{"weekDay":2,"timeRanges":[{"opening":"09:00","closing":"20:00"}]},{"weekDay":3,"timeRanges":[{"opening":"09:00","closing":"20:00"}]},{"weekDay":4,"timeRanges":[{"opening":"09:00","closing":"20:00"}]},{"weekDay":5,"timeRanges":[{"opening":"09:00","closing":"20:00"}]},{"weekDay":6,"timeRanges":[{"opening":"09:00","closing":"20:00"}]},{"weekDay":7,"timeRanges":[{"opening":"09:00","closing":"18:00"}]}]},{"storeNumber":"126","address":{"name":"NAGYK\u0150R\u00d6S 126 SZ. BOLT","street":"Kecskem\u00e9ti utca 1.","zip":"2750","city":"Nagyk\u0151r\u00f6s"},"location":{"lat":47.03303,"lon":19.78355},"openingHours":[{"weekDay":1,"timeRanges":[{"opening":"08:00","closing":"19:00"}]},{"weekDay":2,"timeRanges":[{"opening":"08:00","closing":"19:00"}]},{"weekDay":3,"timeRanges":[{"opening":"08:00","closing":"19:00"}]},{"weekDay":4,"timeRanges":[{"opening":"08:00","closing":"19:00"}]},{"weekDay":5,"timeRanges":[{"opening":"08:00","closing":"19:00"}]},{"weekDay":6,"timeRanges":[{"opening":"08:00","closing":"13:00"}]}]},{"storeNumber":"127","address":{"name":"BUDAPEST 127 SZ. BOLT","street":"Grassalkovich \u00fat 160.","zip":"1239","city":"Budapest"},"location":{"lat":47.39938,"lon":19.11436},"openingHours":[{"weekDay":1,"timeRanges":[{"opening":"08:00","closing":"19:00"}]},{"weekDay":2,"timeRanges":[{"opening":"08:00","closing":"19:00"}]},{"weekDay":3,"timeRanges":[{"opening":"08:00","closing":"19:00"}]},{"weekDay":4,"timeRanges":[{"opening":"08:00","closing":"19:00"}]},{"weekDay":5,"timeRanges":[{"opening":"08:00","closing":"19:00"}]},{"weekDay":6,"timeRanges":[{"opening":"08:00","closing":"16:00"}]}]},{"storeNumber":"130","address":{"name":"B\u00c9K\u00c9SCSABA 130 SZ. BOLT","street":"Andr\u00e1ssy \u00fat 37-43.","zip":"5600","city":"B\u00e9k\u00e9scsaba"},"location":{"lat":46.67691,"lon":21.09078},"openingHours":[{"weekDay":1,"timeRanges":[{"opening":"09:00","closing":"20:00"}]},{"weekDay":2,"timeRanges":[{"opening":"09:00","closing":"20:00"}]},{"weekDay":3,"timeRanges":[{"opening":"09:00","closing":"20:00"}]},{"weekDay":4,"timeRanges":[{"opening":"09:00","closing":"20:00"}]},{"weekDay":5,"timeRanges":[{"opening":"09:00","closing":"20:00"}]},{"weekDay":6,"timeRanges":[{"opening":"09:00","closing":"20:00"}]},{"weekDay":7,"timeRanges":[{"opening":"10:00","closing":"18:00"}]}]},{"storeNumber":"132","address":{"name":"BUDAPEST 132 SZ. BOLT","street":"\u00d6rs vez\u00e9r t\u00e9r 25.","zip":"1106","city":"Budapest"},"location":{"lat":47.50276,"lon":19.13995},"openingHours":[{"weekDay":1,"timeRanges":[{"opening":"09:00","closing":"21:00"}]},{"weekDay":2,"timeRanges":[{"opening":"09:00","closing":"21:00"}]},{"weekDay":3,"timeRanges":[{"opening":"09:00","closing":"21:00"}]},{"weekDay":4,"timeRanges":[{"opening":"09:00","closing":"21:00"}]},{"weekDay":5,"timeRanges":[{"opening":"09:00","closing":"21:00"}]},{"weekDay":6,"timeRanges":[{"opening":"09:00","closing":"21:00"}]},{"weekDay":7,"timeRanges":[{"opening":"10:00","closing":"19:00"}]}]},{"storeNumber":"133","address":{"name":"P\u00dcSP\u00d6KLAD\u00c1NY 133 SZ. BOLT","street":"Bocskai \u00fat 1.","zip":"4150","city":"P\u00fcsp\u00f6klad\u00e1ny"},"location":{"lat":47.31731,"lon":21.11798},"openingHours":[{"weekDay":1,"timeRanges":[{"opening":"08:00","closing":"18:00"}]},{"weekDay":2,"timeRanges":[{"opening":"08:00","closing":"18:00"}]},{"weekDay":3,"timeRanges":[{"opening":"08:00","closing":"18:00"}]},{"weekDay":4,"timeRanges":[{"opening":"08:00","closing":"18:00"}]},{"weekDay":5,"timeRanges":[{"opening":"08:00","closing":"18:00"}]},{"weekDay":6,"timeRanges":[{"opening":"08:00","closing":"13:00"}]}]},{"storeNumber":"134","address":{"name":"MARCALI 134. SZ. BOLT","street":"R\u00e1k\u00f3czi utca 19.","zip":"8700","city":"Marcali"},"location":{"lat":46.58094,"lon":17.41285},"openingHours":[{"weekDay":1,"timeRanges":[{"opening":"08:00","closing":"18:00"}]},{"weekDay":2,"timeRanges":[{"opening":"08:00","closing":"18:00"}]},{"weekDay":3,"timeRanges":[{"opening":"08:00","closing":"18:00"}]},{"weekDay":4,"timeRanges":[{"opening":"08:00","closing":"18:00"}]},{"weekDay":5,"timeRanges":[{"opening":"08:00","closing":"18:00"}]},{"weekDay":6,"timeRanges":[{"opening":"08:00","closing":"13:00"}]}]},{"storeNumber":"136","address":{"name":"GY\u0150R 136 SZ. BOLT","street":"R\u00e9vai Mikl\u00f3s utca 4-6.","zip":"9021","city":"Gy\u0151r"},"location":{"lat":47.68203,"lon":17.63338},"openingHours":[{"weekDay":1,"timeRanges":[{"opening":"07:00","closing":"19:00"}]},{"weekDay":2,"timeRanges":[{"opening":"07:00","closing":"19:00"}]},{"weekDay":3,"timeRanges":[{"opening":"07:00","closing":"19:00"}]},{"weekDay":4,"timeRanges":[{"opening":"07:00","closing":"19:00"}]},{"weekDay":5,"timeRanges":[{"opening":"07:00","closing":"19:00"}]},{"weekDay":6,"timeRanges":[{"opening":"08:00","closing":"18:00"}]}]},{"storeNumber":"137","address":{"name":"P\u00c9CS 137 SZ. BOLT","street":"Bajcsy-Zsilinszky utca 11.","zip":"7622","city":"P\u00e9cs"},"location":{"lat":46.07222,"lon":18.23147},"openingHours":[{"weekDay":1,"timeRanges":[{"opening":"08:00","closing":"20:00"}]},{"weekDay":2,"timeRanges":[{"opening":"08:00","closing":"20:00"}]},{"weekDay":3,"timeRanges":[{"opening":"08:00","closing":"20:00"}]},{"weekDay":4,"timeRanges":[{"opening":"08:00","closing":"20:00"}]},{"weekDay":5,"timeRanges":[{"opening":"08:00","closing":"20:00"}]},{"weekDay":6,"timeRanges":[{"opening":"08:00","closing":"20:00"}]},{"weekDay":7,"timeRanges":[{"opening":"10:00","closing":"18:00"}]}]},{"storeNumber":"138","address":{"name":"M\u00c1T\u00c9SZALKA 138 SZ. BOLT","street":"Bajcsy-Zsilinszky utca 23.","zip":"4700","city":"M\u00e1t\u00e9szalka"},"location":{"lat":47.95483,"lon":22.32395},"openingHours":[{"weekDay":1,"timeRanges":[{"opening":"08:00","closing":"18:00"}]},{"weekDay":2,"timeRanges":[{"opening":"08:00","closing":"18:00"}]},{"weekDay":3,"timeRanges":[{"opening":"08:00","closing":"18:00"}]},{"weekDay":4,"timeRanges":[{"opening":"08:00","closing":"18:00"}]},{"weekDay":5,"timeRanges":[{"opening":"08:00","closing":"18:00"}]},{"weekDay":6,"timeRanges":[{"opening":"08:00","closing":"13:00"}]}]},{"storeNumber":"139","address":{"name":"BUDAPEST 139 SZ. BOLT","street":"H\u0171v\u00f6sv\u00f6lgyi \u00fat 138.","zip":"1021","city":"Budapest"},"location":{"lat":47.53768,"lon":18.96638},"openingHours":[{"weekDay":1,"timeRanges":[{"opening":"08:00","closing":"20:00"}]},{"weekDay":2,"timeRanges":[{"opening":"08:00","closing":"20:00"}]},{"weekDay":3,"timeRanges":[{"opening":"08:00","closing":"20:00"}]},{"weekDay":4,"timeRanges":[{"opening":"08:00","closing":"20:00"}]},{"weekDay":5,"timeRanges":[{"opening":"08:00","closing":"20:00"}]},{"weekDay":6,"timeRanges":[{"opening":"08:00","closing":"18:00"}]},{"weekDay":7,"timeRanges":[{"opening":"08:00","closing":"16:00"}]}]},{"storeNumber":"140","address":{"name":"BUDAPEST 140 SZ. BOLT","street":"Damjanich utca 11-15.","zip":"1071","city":"Budapest"},"location":{"lat":47.50627,"lon":19.076},"openingHours":[{"weekDay":1,"timeRanges":[{"opening":"08:00","closing":"19:00"}]},{"weekDay":2,"timeRanges":[{"opening":"08:00","closing":"19:00"}]},{"weekDay":3,"timeRanges":[{"opening":"08:00","closing":"19:00"}]},{"weekDay":4,"timeRanges":[{"opening":"08:00","closing":"19:00"}]},{"weekDay":5,"timeRanges":[{"opening":"08:00","closing":"19:00"}]},{"weekDay":6,"timeRanges":[{"opening":"08:00","closing":"15:00"}]}]},{"storeNumber":"141","address":{"name":"J\u00c1SZBER\u00c9NY 141 SZ. BOLT","street":"Sz\u00f6vetkezet utca 1.","zip":"5100","city":"J\u00e1szber\u00e9ny"},"location":{"lat":47.50058,"lon":19.91395},"openingHours":[{"weekDay":1,"timeRanges":[{"opening":"08:00","closing":"18:00"}]},{"weekDay":2,"timeRanges":[{"opening":"08:00","closing":"18:00"}]},{"weekDay":3,"timeRanges":[{"opening":"08:00","closing":"18:00"}]},{"weekDay":4,"timeRanges":[{"opening":"08:00","closing":"18:00"}]},{"weekDay":5,"timeRanges":[{"opening":"08:00","closing":"18:00"}]},{"weekDay":6,"timeRanges":[{"opening":"08:00","closing":"13:00"}]}]},{"storeNumber":"143","address":{"name":"SZEGED  143 SZ. BOLT","street":"K\u00e1r\u00e1sz utca 8.","zip":"6720","city":"Szeged"},"location":{"lat":46.25172,"lon":20.14721},"openingHours":[{"weekDay":1,"timeRanges":[{"opening":"08:00","closing":"19:00"}]},{"weekDay":2,"timeRanges":[{"opening":"08:00","closing":"19:00"}]},{"weekDay":3,"timeRanges":[{"opening":"08:00","closing":"19:00"}]},{"weekDay":4,"timeRanges":[{"opening":"08:00","closing":"19:00"}]},{"weekDay":5,"timeRanges":[{"opening":"08:00","closing":"19:00"}]},{"weekDay":6,"timeRanges":[{"opening":"09:00","closing":"18:00"}]}]},{"storeNumber":"144","address":{"name":"BUDAPEST 144 SZ. BOLT","street":"Mester utca 40-44.","zip":"1094","city":"Budapest"},"location":{"lat":47.47913,"lon":19.073},"openingHours":[{"weekDay":1,"timeRanges":[{"opening":"08:00","closing":"20:00"}]},{"weekDay":2,"timeRanges":[{"opening":"08:00","closing":"20:00"}]},{"weekDay":3,"timeRanges":[{"opening":"08:00","closing":"20:00"}]},{"weekDay":4,"timeRanges":[{"opening":"08:00","closing":"20:00"}]},{"weekDay":5,"timeRanges":[{"opening":"08:00","closing":"20:00"}]},{"weekDay":6,"timeRanges":[{"opening":"08:00","closing":"18:00"}]}]},{"storeNumber":"145","address":{"name":"MISKOLC 145 SZ. BOLT","street":"Bajcsy-Zsilinszky utca 2-4.","zip":"3530","city":"Miskolc"},"location":{"lat":48.1027787,"lon":20.7923522},"openingHours":[{"weekDay":1,"timeRanges":[{"opening":"09:00","closing":"20:00"}]},{"weekDay":2,"timeRanges":[{"opening":"09:00","closing":"20:00"}]},{"weekDay":3,"timeRanges":[{"opening":"09:00","closing":"20:00"}]},{"weekDay":4,"timeRanges":[{"opening":"09:00","closing":"20:00"}]},{"weekDay":5,"timeRanges":[{"opening":"09:00","closing":"20:00"}]},{"weekDay":6,"timeRanges":[{"opening":"09:00","closing":"20:00"}]},{"weekDay":7,"timeRanges":[{"opening":"09:00","closing":"18:00"}]}]},{"storeNumber":"146","address":{"name":"HATVAN 146 SZ. BOLT","street":"Kossuth t\u00e9r 18.","zip":"3000","city":"Hatvan"},"location":{"lat":47.66709,"lon":19.68207},"openingHours":[{"weekDay":1,"timeRanges":[{"opening":"08:00","closing":"18:00"}]},{"weekDay":2,"timeRanges":[{"opening":"08:00","closing":"18:00"}]},{"weekDay":3,"timeRanges":[{"opening":"08:00","closing":"18:00"}]},{"weekDay":4,"timeRanges":[{"opening":"08:00","closing":"18:00"}]},{"weekDay":5,"timeRanges":[{"opening":"08:00","closing":"18:00"}]},{"weekDay":6,"timeRanges":[{"opening":"08:00","closing":"13:00"}]}]},{"storeNumber":"147","address":{"name":"BUDAPEST 147 SZ. BOLT","street":"N\u00e9psz\u00ednh\u00e1z utca 13.","zip":"1081","city":"Budapest"},"location":{"lat":47.49576,"lon":19.0723},"openingHours":[{"weekDay":1,"timeRanges":[{"opening":"08:00","closing":"20:00"}]},{"weekDay":2,"timeRanges":[{"opening":"08:00","closing":"20:00"}]},{"weekDay":3,"timeRanges":[{"opening":"08:00","closing":"20:00"}]},{"weekDay":4,"timeRanges":[{"opening":"08:00","closing":"20:00"}]},{"weekDay":5,"timeRanges":[{"opening":"08:00","closing":"20:00"}]},{"weekDay":6,"timeRanges":[{"opening":"09:00","closing":"18:00"}]}]},{"storeNumber":"148","address":{"name":"BUDAPEST 148 SZ. BOLT","street":"Krisztina k\u00f6r\u00fat 39\/b.","zip":"1013","city":"Budapest"},"location":{"lat":47.49998,"lon":19.02562},"openingHours":[{"weekDay":1,"timeRanges":[{"opening":"07:00","closing":"19:00"}]},{"weekDay":2,"timeRanges":[{"opening":"07:00","closing":"19:00"}]},{"weekDay":3,"timeRanges":[{"opening":"07:00","closing":"19:00"}]},{"weekDay":4,"timeRanges":[{"opening":"07:00","closing":"19:00"}]},{"weekDay":5,"timeRanges":[{"opening":"07:00","closing":"19:00"}]},{"weekDay":6,"timeRanges":[{"opening":"08:00","closing":"13:00"}]}]},{"storeNumber":"149","address":{"name":"SALG\u00d3TARJ\u00c1N 149 SZ. BOLT","street":"R\u00e1k\u00f3czi \u00fat 15.","zip":"3100","city":"Salg\u00f3tarj\u00e1n"},"location":{"lat":48.10589,"lon":19.8089},"openingHours":[{"weekDay":1,"timeRanges":[{"opening":"08:00","closing":"19:00"}]},{"weekDay":2,"timeRanges":[{"opening":"08:00","closing":"19:00"}]},{"weekDay":3,"timeRanges":[{"opening":"08:00","closing":"19:00"}]},{"weekDay":4,"timeRanges":[{"opening":"08:00","closing":"19:00"}]},{"weekDay":5,"timeRanges":[{"opening":"08:00","closing":"19:00"}]},{"weekDay":6,"timeRanges":[{"opening":"08:00","closing":"14:00"}]}]},{"storeNumber":"15","address":{"name":"OROSZL\u00c1NY 015 SZ. BOLT","street":"R\u00e1k\u00f3czi Ferenc \u00fat 48.","zip":"2840","city":"Oroszl\u00e1ny"},"location":{"lat":47.4861,"lon":18.31359},"openingHours":[{"weekDay":1,"timeRanges":[{"opening":"08:00","closing":"18:00"}]},{"weekDay":2,"timeRanges":[{"opening":"08:00","closing":"18:00"}]},{"weekDay":3,"timeRanges":[{"opening":"08:00","closing":"18:00"}]},{"weekDay":4,"timeRanges":[{"opening":"08:00","closing":"18:00"}]},{"weekDay":5,"timeRanges":[{"opening":"08:00","closing":"18:00"}]},{"weekDay":6,"timeRanges":[{"opening":"08:00","closing":"13:00"}]}]},{"storeNumber":"151","address":{"name":"SALG\u00d3TARJ\u00c1N 151 SZ. BOLT","street":"Bem J\u00f3zsef utca 14.","zip":"3100","city":"Salg\u00f3tarj\u00e1n"},"location":{"lat":48.1036,"lon":19.80218},"openingHours":[{"weekDay":1,"timeRanges":[{"opening":"07:00","closing":"19:00"}]},{"weekDay":2,"timeRanges":[{"opening":"07:00","closing":"19:00"}]},{"weekDay":3,"timeRanges":[{"opening":"07:00","closing":"19:00"}]},{"weekDay":4,"timeRanges":[{"opening":"07:00","closing":"19:00"}]},{"weekDay":5,"timeRanges":[{"opening":"07:00","closing":"19:00"}]},{"weekDay":6,"timeRanges":[{"opening":"07:00","closing":"15:00"}]}]},{"storeNumber":"153","address":{"name":"OROSH\u00c1ZA 153 SZ. BOLT","street":"Sz\u00e9chenyi t\u00e9r 1.","zip":"5900","city":"Orosh\u00e1za"},"location":{"lat":46.55822,"lon":20.66927},"openingHours":[{"weekDay":1,"timeRanges":[{"opening":"08:00","closing":"19:00"}]},{"weekDay":2,"timeRanges":[{"opening":"08:00","closing":"19:00"}]},{"weekDay":3,"timeRanges":[{"opening":"08:00","closing":"19:00"}]},{"weekDay":4,"timeRanges":[{"opening":"08:00","closing":"19:00"}]},{"weekDay":5,"timeRanges":[{"opening":"08:00","closing":"19:00"}]},{"weekDay":6,"timeRanges":[{"opening":"08:00","closing":"13:00"}]}]},{"storeNumber":"16","address":{"name":"KISKUNHALAS 016 SZ. BOLT","street":"J\u00f3sika utca 1-3.","zip":"6400","city":"Kiskunhalas"},"location":{"lat":46.42985,"lon":19.48226},"openingHours":[{"weekDay":1,"timeRanges":[{"opening":"08:00","closing":"18:00"}]},{"weekDay":2,"timeRanges":[{"opening":"08:00","closing":"18:00"}]},{"weekDay":3,"timeRanges":[{"opening":"08:00","closing":"18:00"}]},{"weekDay":4,"timeRanges":[{"opening":"08:00","closing":"18:00"}]},{"weekDay":5,"timeRanges":[{"opening":"08:00","closing":"18:00"}]},{"weekDay":6,"timeRanges":[{"opening":"08:00","closing":"13:00"}]}]},{"storeNumber":"161","address":{"name":"BUDAPEST 161. SZ. BOLT","street":"Bart\u00f3k B\u00e9la \u00fat 3-5.","zip":"1114","city":"Budapest"},"location":{"lat":47.48292,"lon":19.05271},"openingHours":[{"weekDay":1,"timeRanges":[{"opening":"08:00","closing":"20:00"}]},{"weekDay":2,"timeRanges":[{"opening":"08:00","closing":"20:00"}]},{"weekDay":3,"timeRanges":[{"opening":"08:00","closing":"20:00"}]},{"weekDay":4,"timeRanges":[{"opening":"08:00","closing":"20:00"}]},{"weekDay":5,"timeRanges":[{"opening":"08:00","closing":"20:00"}]},{"weekDay":6,"timeRanges":[{"opening":"08:00","closing":"17:00"}]}]},{"storeNumber":"162","address":{"name":"BUDAPEST 162. SZ. BOLT","street":"V\u00e1ci \u00fat 178.","zip":"1138","city":"Budapest"},"location":{"lat":47.5493498,"lon":19.0728936},"openingHours":[{"weekDay":1,"timeRanges":[{"opening":"09:00","closing":"21:00"}]},{"weekDay":2,"timeRanges":[{"opening":"09:00","closing":"21:00"}]},{"weekDay":3,"timeRanges":[{"opening":"09:00","closing":"21:00"}]},{"weekDay":4,"timeRanges":[{"opening":"09:00","closing":"21:00"}]},{"weekDay":5,"timeRanges":[{"opening":"09:00","closing":"21:00"}]},{"weekDay":6,"timeRanges":[{"opening":"09:00","closing":"21:00"}]},{"weekDay":7,"timeRanges":[{"opening":"09:00","closing":"19:00"}]}]},{"storeNumber":"163","address":{"name":"BUDAPEST 163. SZ. BOLT","street":"G\u00e1bor \u00c1ron utca 74-78\/a.","zip":"1026","city":"Budapest"},"location":{"lat":47.5225816,"lon":19.0147754},"openingHours":[{"weekDay":1,"timeRanges":[{"opening":"09:00","closing":"20:00"}]},{"weekDay":2,"timeRanges":[{"opening":"09:00","closing":"20:00"}]},{"weekDay":3,"timeRanges":[{"opening":"09:00","closing":"20:00"}]},{"weekDay":4,"timeRanges":[{"opening":"09:00","closing":"20:00"}]},{"weekDay":5,"timeRanges":[{"opening":"09:00","closing":"20:00"}]},{"weekDay":6,"timeRanges":[{"opening":"09:00","closing":"19:00"}]},{"weekDay":7,"timeRanges":[{"opening":"09:00","closing":"16:00"}]}]},{"storeNumber":"164","address":{"name":"SZOMBATHELY 164 SZ. BOLT","street":"Sz\u0171rcsap\u00f3 utca 23.","zip":"9700","city":"Szombathely"},"location":{"lat":47.2388,"lon":16.60606},"openingHours":[{"weekDay":1,"timeRanges":[{"opening":"08:00","closing":"19:00"}]},{"weekDay":2,"timeRanges":[{"opening":"08:00","closing":"19:00"}]},{"weekDay":3,"timeRanges":[{"opening":"08:00","closing":"19:00"}]},{"weekDay":4,"timeRanges":[{"opening":"08:00","closing":"19:00"}]},{"weekDay":5,"timeRanges":[{"opening":"08:00","closing":"19:00"}]},{"weekDay":6,"timeRanges":[{"opening":"08:00","closing":"14:00"}]}]},{"storeNumber":"165","address":{"name":"H\u00c9V\u00cdZ 165. SZ. BOLT","street":"Sz\u00e9chenyi utca HRSZ.902\/9","zip":"8380","city":"H\u00e9v\u00edz"},"location":{"lat":46.79169,"lon":17.19204},"openingHours":[{"weekDay":1,"timeRanges":[{"opening":"08:00","closing":"20:00"}]},{"weekDay":2,"timeRanges":[{"opening":"08:00","closing":"20:00"}]},{"weekDay":3,"timeRanges":[{"opening":"08:00","closing":"20:00"}]},{"weekDay":4,"timeRanges":[{"opening":"08:00","closing":"20:00"}]},{"weekDay":5,"timeRanges":[{"opening":"08:00","closing":"20:00"}]},{"weekDay":6,"timeRanges":[{"opening":"08:00","closing":"20:00"}]},{"weekDay":7,"timeRanges":[{"opening":"10:00","closing":"16:00"}]}]},{"storeNumber":"166","address":{"name":"BUDAPEST 166. SZ. BOLT","street":"Szab\u00f3 J\u00f3zsef utca 6.","zip":"1146","city":"Budapest"},"location":{"lat":47.50451,"lon":19.09284},"openingHours":[{"weekDay":1,"timeRanges":[{"opening":"09:00","closing":"20:00"}]},{"weekDay":2,"timeRanges":[{"opening":"09:00","closing":"20:00"}]},{"weekDay":3,"timeRanges":[{"opening":"09:00","closing":"20:00"}]},{"weekDay":4,"timeRanges":[{"opening":"09:00","closing":"20:00"}]},{"weekDay":5,"timeRanges":[{"opening":"09:00","closing":"20:00"}]},{"weekDay":6,"timeRanges":[{"opening":"09:00","closing":"18:00"}]},{"weekDay":7,"timeRanges":[{"opening":"09:00","closing":"16:00"}]}]},{"storeNumber":"167","address":{"name":"MEZ\u0150BER\u00c9NY 167. SZ BOLT","street":"Kossuth t\u00e9r 2.","zip":"5650","city":"Mez\u0151ber\u00e9ny"},"location":{"lat":46.82395,"lon":21.0285},"openingHours":[{"weekDay":1,"timeRanges":[{"opening":"08:00","closing":"18:00"}]},{"weekDay":2,"timeRanges":[{"opening":"08:00","closing":"18:00"}]},{"weekDay":3,"timeRanges":[{"opening":"08:00","closing":"18:00"}]},{"weekDay":4,"timeRanges":[{"opening":"08:00","closing":"18:00"}]},{"weekDay":5,"timeRanges":[{"opening":"08:00","closing":"18:00"}]},{"weekDay":6,"timeRanges":[{"opening":"08:00","closing":"13:00"}]}]},{"storeNumber":"17","address":{"name":"BUDAPEST 017 SZ. BOLT","street":"Kossuth Lajos utca 89.","zip":"1211","city":"Budapest"},"location":{"lat":47.426,"lon":19.06987},"openingHours":[{"weekDay":1,"timeRanges":[{"opening":"08:00","closing":"20:00"}]},{"weekDay":2,"timeRanges":[{"opening":"08:00","closing":"20:00"}]},{"weekDay":3,"timeRanges":[{"opening":"08:00","closing":"20:00"}]},{"weekDay":4,"timeRanges":[{"opening":"08:00","closing":"20:00"}]},{"weekDay":5,"timeRanges":[{"opening":"08:00","closing":"20:00"}]},{"weekDay":6,"timeRanges":[{"opening":"08:00","closing":"17:00"}]},{"weekDay":7,"timeRanges":[{"opening":"08:00","closing":"14:00"}]}]},{"storeNumber":"170","address":{"name":"Dunaharaszti 170. SZ. BOLT","street":"Baktay t\u00e9r 5.","zip":"2330","city":"Dunaharaszti"},"location":{"lat":47.35475,"lon":19.09187},"openingHours":[{"weekDay":1,"timeRanges":[{"opening":"08:00","closing":"19:00"}]},{"weekDay":2,"timeRanges":[{"opening":"08:00","closing":"19:00"}]},{"weekDay":3,"timeRanges":[{"opening":"08:00","closing":"19:00"}]},{"weekDay":4,"timeRanges":[{"opening":"08:00","closing":"19:00"}]},{"weekDay":5,"timeRanges":[{"opening":"08:00","closing":"19:00"}]},{"weekDay":6,"timeRanges":[{"opening":"08:00","closing":"14:00"}]}]},{"storeNumber":"172","address":{"name":"BUDAPEST 172. SZ. BOLT","street":"Hunyadi J\u00e1nos utca 19.","zip":"1117","city":"Budapest"},"location":{"lat":47.4358,"lon":19.04109},"openingHours":[{"weekDay":1,"timeRanges":[{"opening":"09:00","closing":"20:00"}]},{"weekDay":2,"timeRanges":[{"opening":"09:00","closing":"20:00"}]},{"weekDay":3,"timeRanges":[{"opening":"09:00","closing":"20:00"}]},{"weekDay":4,"timeRanges":[{"opening":"09:00","closing":"20:00"}]},{"weekDay":5,"timeRanges":[{"opening":"09:00","closing":"20:00"}]},{"weekDay":6,"timeRanges":[{"opening":"09:00","closing":"20:00"}]},{"weekDay":7,"timeRanges":[{"opening":"09:00","closing":"18:00"}]}]},{"storeNumber":"173","address":{"name":"\u00c9RD 173 SZ. BOLT","street":"Budai \u00fat 13.","zip":"2030","city":"\u00c9rd"},"location":{"lat":47.3790367,"lon":18.924943},"openingHours":[{"weekDay":1,"timeRanges":[{"opening":"08:30","closing":"19:30"}]},{"weekDay":2,"timeRanges":[{"opening":"08:30","closing":"19:30"}]},{"weekDay":3,"timeRanges":[{"opening":"08:30","closing":"19:30"}]},{"weekDay":4,"timeRanges":[{"opening":"08:30","closing":"19:30"}]},{"weekDay":5,"timeRanges":[{"opening":"08:30","closing":"19:30"}]},{"weekDay":6,"timeRanges":[{"opening":"09:00","closing":"18:00"}]},{"weekDay":7,"timeRanges":[{"opening":"09:00","closing":"16:00"}]}]},{"storeNumber":"175","address":{"name":"GY\u0150R 175 SZ. BOLT","street":"Budai \u00fat 1.","zip":"9023","city":"Gy\u0151r"},"location":{"lat":47.68921,"lon":17.64475},"openingHours":[{"weekDay":1,"timeRanges":[{"opening":"09:00","closing":"20:00"}]},{"weekDay":2,"timeRanges":[{"opening":"09:00","closing":"20:00"}]},{"weekDay":3,"timeRanges":[{"opening":"09:00","closing":"20:00"}]},{"weekDay":4,"timeRanges":[{"opening":"09:00","closing":"20:00"}]},{"weekDay":5,"timeRanges":[{"opening":"09:00","closing":"20:00"}]},{"weekDay":6,"timeRanges":[{"opening":"09:00","closing":"20:00"}]},{"weekDay":7,"timeRanges":[{"opening":"10:00","closing":"18:00"}]}]},{"storeNumber":"178","address":{"name":"BUDAPEST 178. SZ. BOLT","street":"Napf\u00e9ny utca 7.","zip":"1098","city":"Budapest"},"location":{"lat":47.46223,"lon":19.11476},"openingHours":[{"weekDay":1,"timeRanges":[{"opening":"08:00","closing":"19:00"}]},{"weekDay":2,"timeRanges":[{"opening":"08:00","closing":"19:00"}]},{"weekDay":3,"timeRanges":[{"opening":"08:00","closing":"19:00"}]},{"weekDay":4,"timeRanges":[{"opening":"08:00","closing":"19:00"}]},{"weekDay":5,"timeRanges":[{"opening":"08:00","closing":"19:00"}]},{"weekDay":6,"timeRanges":[{"opening":"08:00","closing":"17:00"}]}]},{"storeNumber":"18","address":{"name":"SZEKSZ\u00c1RD 018 SZ. BOLT","street":"Sz\u00e9chenyi utca 21.","zip":"7100","city":"Szeksz\u00e1rd"},"location":{"lat":46.34981,"lon":18.70187},"openingHours":[{"weekDay":1,"timeRanges":[{"opening":"07:30","closing":"18:30"}]},{"weekDay":2,"timeRanges":[{"opening":"07:30","closing":"18:30"}]},{"weekDay":3,"timeRanges":[{"opening":"07:30","closing":"18:30"}]},{"weekDay":4,"timeRanges":[{"opening":"07:30","closing":"18:30"}]},{"weekDay":5,"timeRanges":[{"opening":"07:30","closing":"18:30"}]},{"weekDay":6,"timeRanges":[{"opening":"07:30","closing":"12:30"}]}]},{"storeNumber":"181","address":{"name":"KECSKEM\u00c9T 181 SZ. BOLT","street":"Korona utca 2.","zip":"6000","city":"Kecskem\u00e9t"},"location":{"lat":46.90745,"lon":19.68946},"openingHours":[{"weekDay":1,"timeRanges":[{"opening":"08:00","closing":"20:00"}]},{"weekDay":2,"timeRanges":[{"opening":"08:00","closing":"20:00"}]},{"weekDay":3,"timeRanges":[{"opening":"08:00","closing":"20:00"}]},{"weekDay":4,"timeRanges":[{"opening":"08:00","closing":"20:00"}]},{"weekDay":5,"timeRanges":[{"opening":"08:00","closing":"20:00"}]},{"weekDay":6,"timeRanges":[{"opening":"08:00","closing":"20:00"}]},{"weekDay":7,"timeRanges":[{"opening":"10:00","closing":"18:00"}]}]},{"storeNumber":"185","address":{"name":"SZARVAS 185 SZ. BOLT","street":"Szabads\u00e1g \u00fat 32.","zip":"5540","city":"Szarvas"},"location":{"lat":46.86233,"lon":20.54928},"openingHours":[{"weekDay":1,"timeRanges":[{"opening":"08:00","closing":"18:00"}]},{"weekDay":2,"timeRanges":[{"opening":"08:00","closing":"18:00"}]},{"weekDay":3,"timeRanges":[{"opening":"08:00","closing":"18:00"}]},{"weekDay":4,"timeRanges":[{"opening":"08:00","closing":"18:00"}]},{"weekDay":5,"timeRanges":[{"opening":"08:00","closing":"18:00"}]},{"weekDay":6,"timeRanges":[{"opening":"08:00","closing":"13:00"}]}]},{"storeNumber":"186","address":{"name":"KESZTHELY 186 SZ. BOLT","street":"Bercs\u00e9nyi utca 65\/a.","zip":"8360","city":"Keszthely"},"location":{"lat":46.76591,"lon":17.23673},"openingHours":[{"weekDay":1,"timeRanges":[{"opening":"08:00","closing":"19:00"}]},{"weekDay":2,"timeRanges":[{"opening":"08:00","closing":"19:00"}]},{"weekDay":3,"timeRanges":[{"opening":"08:00","closing":"19:00"}]},{"weekDay":4,"timeRanges":[{"opening":"08:00","closing":"19:00"}]},{"weekDay":5,"timeRanges":[{"opening":"08:00","closing":"19:00"}]},{"weekDay":6,"timeRanges":[{"opening":"08:00","closing":"16:00"}]}]},{"storeNumber":"190","address":{"name":"NY\u00cdREGYH\u00c1ZA 190 SZ. BOLT","street":"Pazonyi \u00fat 39\/a.","streetAdditional":"Ny\u00edregyh\u00e1za, Stop-Shop","zip":"4400","city":"Ny\u00edregyh\u00e1za"},"location":{"lat":47.96911,"lon":21.73934},"openingHours":[{"weekDay":1,"timeRanges":[{"opening":"09:00","closing":"20:00"}]},{"weekDay":2,"timeRanges":[{"opening":"09:00","closing":"20:00"}]},{"weekDay":3,"timeRanges":[{"opening":"09:00","closing":"20:00"}]},{"weekDay":4,"timeRanges":[{"opening":"09:00","closing":"20:00"}]},{"weekDay":5,"timeRanges":[{"opening":"09:00","closing":"20:00"}]},{"weekDay":6,"timeRanges":[{"opening":"09:00","closing":"20:00"}]},{"weekDay":7,"timeRanges":[{"opening":"10:00","closing":"18:00"}]}]},{"storeNumber":"192","address":{"name":"SZ\u00c9KESFEH\u00c9RV\u00c1R 192 SZ. BOLT","street":"T\u00e1virda utca 1.","zip":"8000","city":"Sz\u00e9kesfeh\u00e9rv\u00e1r"},"location":{"lat":47.1920468,"lon":18.4128661},"openingHours":[{"weekDay":1,"timeRanges":[{"opening":"08:00","closing":"19:00"}]},{"weekDay":2,"timeRanges":[{"opening":"08:00","closing":"19:00"}]},{"weekDay":3,"timeRanges":[{"opening":"08:00","closing":"19:00"}]},{"weekDay":4,"timeRanges":[{"opening":"08:00","closing":"19:00"}]},{"weekDay":5,"timeRanges":[{"opening":"08:00","closing":"19:00"}]},{"weekDay":6,"timeRanges":[{"opening":"08:00","closing":"14:00"}]}]},{"storeNumber":"195","address":{"name":"SZOMBATHELY 195 SZ. BOLT","street":"Varasd utca 1.","zip":"9700","city":"Szombathely"},"location":{"lat":47.2362075,"lon":16.6543577},"openingHours":[{"weekDay":1,"timeRanges":[{"opening":"09:00","closing":"20:00"}]},{"weekDay":2,"timeRanges":[{"opening":"09:00","closing":"20:00"}]},{"weekDay":3,"timeRanges":[{"opening":"09:00","closing":"20:00"}]},{"weekDay":4,"timeRanges":[{"opening":"09:00","closing":"20:00"}]},{"weekDay":5,"timeRanges":[{"opening":"09:00","closing":"20:00"}]},{"weekDay":6,"timeRanges":[{"opening":"09:00","closing":"20:00"}]},{"weekDay":7,"timeRanges":[{"opening":"10:00","closing":"18:00"}]}]},{"storeNumber":"197","address":{"name":"SZENTENDRE 197 SZ. BOLT","street":"Dobog\u00f3k\u0151i \u00fat 1.","zip":"2000","city":"Szentendre"},"location":{"lat":47.64529,"lon":19.06801},"openingHours":[{"weekDay":1,"timeRanges":[{"opening":"08:00","closing":"19:00"}]},{"weekDay":2,"timeRanges":[{"opening":"08:00","closing":"19:00"}]},{"weekDay":3,"timeRanges":[{"opening":"08:00","closing":"19:00"}]},{"weekDay":4,"timeRanges":[{"opening":"08:00","closing":"19:00"}]},{"weekDay":5,"timeRanges":[{"opening":"08:00","closing":"19:00"}]},{"weekDay":6,"timeRanges":[{"opening":"08:00","closing":"15:00"}]}]},{"storeNumber":"2","address":{"name":"BUDAPEST 002 SZ. BOLT","street":"Csob\u00e1nka t\u00e9r 1.","zip":"1039","city":"Budapest"},"location":{"lat":47.59814,"lon":19.05152},"openingHours":[{"weekDay":1,"timeRanges":[{"opening":"08:00","closing":"19:00"}]},{"weekDay":2,"timeRanges":[{"opening":"08:00","closing":"19:00"}]},{"weekDay":3,"timeRanges":[{"opening":"08:00","closing":"19:00"}]},{"weekDay":4,"timeRanges":[{"opening":"08:00","closing":"19:00"}]},{"weekDay":5,"timeRanges":[{"opening":"08:00","closing":"19:00"}]},{"weekDay":6,"timeRanges":[{"opening":"08:00","closing":"15:00"}]}]},{"storeNumber":"20","address":{"name":"BUDAPEST 020 SZ. BOLT","street":"Ferenc k\u00f6r\u00fat 2-4.","zip":"1092","city":"Budapest"},"location":{"lat":47.48135,"lon":19.06757},"openingHours":[{"weekDay":1,"timeRanges":[{"opening":"08:00","closing":"20:00"}]},{"weekDay":2,"timeRanges":[{"opening":"08:00","closing":"20:00"}]},{"weekDay":3,"timeRanges":[{"opening":"08:00","closing":"20:00"}]},{"weekDay":4,"timeRanges":[{"opening":"08:00","closing":"20:00"}]},{"weekDay":5,"timeRanges":[{"opening":"08:00","closing":"20:00"}]},{"weekDay":6,"timeRanges":[{"opening":"09:00","closing":"18:00"}]}]},{"storeNumber":"200","address":{"name":"DUNAKESZI 200 SZ. BOLT","street":"N\u00e1das utca 8.","zip":"2120","city":"Dunakeszi"},"location":{"lat":47.60977,"lon":19.11937},"openingHours":[{"weekDay":1,"timeRanges":[{"opening":"09:00","closing":"20:00"}]},{"weekDay":2,"timeRanges":[{"opening":"09:00","closing":"20:00"}]},{"weekDay":3,"timeRanges":[{"opening":"09:00","closing":"20:00"}]},{"weekDay":4,"timeRanges":[{"opening":"09:00","closing":"20:00"}]},{"weekDay":5,"timeRanges":[{"opening":"09:00","closing":"20:00"}]},{"weekDay":6,"timeRanges":[{"opening":"09:00","closing":"20:00"}]},{"weekDay":7,"timeRanges":[{"opening":"09:00","closing":"16:00"}]}]},{"storeNumber":"201","address":{"name":"BALASSAGYARMAT 201 SZ. BOLT","street":"Zichy utca 2.","zip":"2660","city":"Balassagyarmat"},"location":{"lat":48.07855,"lon":19.29347},"openingHours":[{"weekDay":1,"timeRanges":[{"opening":"08:00","closing":"18:00"}]},{"weekDay":2,"timeRanges":[{"opening":"08:00","closing":"18:00"}]},{"weekDay":3,"timeRanges":[{"opening":"08:00","closing":"18:00"}]},{"weekDay":4,"timeRanges":[{"opening":"08:00","closing":"18:00"}]},{"weekDay":5,"timeRanges":[{"opening":"08:00","closing":"18:00"}]},{"weekDay":6,"timeRanges":[{"opening":"08:00","closing":"13:00"}]}]},{"storeNumber":"203","address":{"name":"ESZTERGOM 203 SZ. BOLT","street":"R\u00e1k\u00f3czi Ferenc t\u00e9r 4.","zip":"2500","city":"Esztergom"},"location":{"lat":47.79366,"lon":18.74224},"openingHours":[{"weekDay":1,"timeRanges":[{"opening":"08:00","closing":"19:00"}]},{"weekDay":2,"timeRanges":[{"opening":"08:00","closing":"19:00"}]},{"weekDay":3,"timeRanges":[{"opening":"08:00","closing":"19:00"}]},{"weekDay":4,"timeRanges":[{"opening":"08:00","closing":"19:00"}]},{"weekDay":5,"timeRanges":[{"opening":"08:00","closing":"19:00"}]},{"weekDay":6,"timeRanges":[{"opening":"08:00","closing":"14:00"}]}]},{"storeNumber":"204","address":{"name":"BUDAPEST 204. SZ. BOLT","street":"Feh\u00e9rv\u00e1ri \u00fat 170-176.","zip":"1116","city":"Budapest"},"location":{"lat":47.45045,"lon":19.03828},"openingHours":[{"weekDay":1,"timeRanges":[{"opening":"08:00","closing":"20:00"}]},{"weekDay":2,"timeRanges":[{"opening":"08:00","closing":"20:00"}]},{"weekDay":3,"timeRanges":[{"opening":"08:00","closing":"20:00"}]},{"weekDay":4,"timeRanges":[{"opening":"08:00","closing":"20:00"}]},{"weekDay":5,"timeRanges":[{"opening":"08:00","closing":"20:00"}]},{"weekDay":6,"timeRanges":[{"opening":"08:00","closing":"15:00"}]}]},{"storeNumber":"205","address":{"name":"BUDAPEST 205. SZ. BOLT","street":"Hengermalom \u00fat 19-21.","zip":"1117","city":"Budapest"},"location":{"lat":47.46074,"lon":19.05131},"openingHours":[{"weekDay":1,"timeRanges":[{"opening":"09:00","closing":"20:00"}]},{"weekDay":2,"timeRanges":[{"opening":"09:00","closing":"20:00"}]},{"weekDay":3,"timeRanges":[{"opening":"09:00","closing":"20:00"}]},{"weekDay":4,"timeRanges":[{"opening":"09:00","closing":"20:00"}]},{"weekDay":5,"timeRanges":[{"opening":"09:00","closing":"20:00"}]},{"weekDay":6,"timeRanges":[{"opening":"09:00","closing":"20:00"}]},{"weekDay":7,"timeRanges":[{"opening":"10:00","closing":"19:00"}]}]},{"storeNumber":"206","address":{"name":"SOLYM\u00c1R 206 SZ. BOLT","street":"Terszty\u00e1nszky \u00fat 100.","zip":"2083","city":"Solym\u00e1r"},"location":{"lat":47.59821,"lon":18.92808},"openingHours":[{"weekDay":1,"timeRanges":[{"opening":"08:00","closing":"19:00"}]},{"weekDay":2,"timeRanges":[{"opening":"08:00","closing":"19:00"}]},{"weekDay":3,"timeRanges":[{"opening":"08:00","closing":"19:00"}]},{"weekDay":4,"timeRanges":[{"opening":"08:00","closing":"19:00"}]},{"weekDay":5,"timeRanges":[{"opening":"08:00","closing":"19:00"}]},{"weekDay":6,"timeRanges":[{"opening":"08:00","closing":"17:00"}]},{"weekDay":7,"timeRanges":[{"opening":"09:00","closing":"15:00"}]}]},{"storeNumber":"207","address":{"name":"K\u00f6rmend 207. SZ. BOLT","street":"Vida J\u00f3zsef utca 1.","zip":"9900","city":"K\u00f6rmend"},"location":{"lat":47.00965,"lon":16.6039},"openingHours":[{"weekDay":1,"timeRanges":[{"opening":"08:00","closing":"18:00"}]},{"weekDay":2,"timeRanges":[{"opening":"08:00","closing":"18:00"}]},{"weekDay":3,"timeRanges":[{"opening":"08:00","closing":"18:00"}]},{"weekDay":4,"timeRanges":[{"opening":"08:00","closing":"18:00"}]},{"weekDay":5,"timeRanges":[{"opening":"08:00","closing":"18:00"}]},{"weekDay":6,"timeRanges":[{"opening":"08:00","closing":"13:00"}]}]},{"storeNumber":"208","address":{"name":"CELLD\u00d6M\u00d6LK 208 SZ. BOLT","street":"Dr. Gr\u00e9fin Lajos t\u00e9r 2.","zip":"9500","city":"Celld\u00f6m\u00f6lk"},"location":{"lat":47.25618,"lon":17.15307},"openingHours":[{"weekDay":1,"timeRanges":[{"opening":"08:00","closing":"18:00"}]},{"weekDay":2,"timeRanges":[{"opening":"08:00","closing":"18:00"}]},{"weekDay":3,"timeRanges":[{"opening":"08:00","closing":"18:00"}]},{"weekDay":4,"timeRanges":[{"opening":"08:00","closing":"18:00"}]},{"weekDay":5,"timeRanges":[{"opening":"08:00","closing":"18:00"}]},{"weekDay":6,"timeRanges":[{"opening":"08:00","closing":"13:00"}]}]},{"storeNumber":"21","address":{"name":"BUDAPEST 021 SZ. BOLT","street":"Kir\u00e1ly utca 34.","zip":"1061","city":"Budapest"},"location":{"lat":47.50009,"lon":19.05993},"openingHours":[{"weekDay":1,"timeRanges":[{"opening":"08:00","closing":"20:00"}]},{"weekDay":2,"timeRanges":[{"opening":"08:00","closing":"20:00"}]},{"weekDay":3,"timeRanges":[{"opening":"08:00","closing":"20:00"}]},{"weekDay":4,"timeRanges":[{"opening":"08:00","closing":"20:00"}]},{"weekDay":5,"timeRanges":[{"opening":"08:00","closing":"20:00"}]},{"weekDay":6,"timeRanges":[{"opening":"09:00","closing":"19:00"}]},{"weekDay":7,"timeRanges":[{"opening":"10:00","closing":"18:00"}]}]},{"storeNumber":"211","address":{"name":"TAM\u00c1SI 211 SZ. BOLT","street":"Szabads\u00e1g \u00fat 31.","zip":"7090","city":"Tam\u00e1si"},"location":{"lat":46.63255,"lon":18.28163},"openingHours":[{"weekDay":1,"timeRanges":[{"opening":"08:00","closing":"18:00"}]},{"weekDay":2,"timeRanges":[{"opening":"08:00","closing":"18:00"}]},{"weekDay":3,"timeRanges":[{"opening":"08:00","closing":"18:00"}]},{"weekDay":4,"timeRanges":[{"opening":"08:00","closing":"18:00"}]},{"weekDay":5,"timeRanges":[{"opening":"08:00","closing":"18:00"}]},{"weekDay":6,"timeRanges":[{"opening":"08:00","closing":"13:00"}]}]},{"storeNumber":"214","address":{"name":"G\u00d6D\u00d6LL\u0150 214 SZ. BOLT","street":"Kossuth Lajos utca 13.","zip":"2100","city":"G\u00f6d\u00f6ll\u0151"},"location":{"lat":47.59997,"lon":19.34636},"openingHours":[{"weekDay":1,"timeRanges":[{"opening":"08:00","closing":"18:00"}]},{"weekDay":2,"timeRanges":[{"opening":"08:00","closing":"18:00"}]},{"weekDay":3,"timeRanges":[{"opening":"08:00","closing":"18:00"}]},{"weekDay":4,"timeRanges":[{"opening":"08:00","closing":"18:00"}]},{"weekDay":5,"timeRanges":[{"opening":"08:00","closing":"18:00"}]},{"weekDay":6,"timeRanges":[{"opening":"08:00","closing":"14:00"}]}]},{"storeNumber":"215","address":{"name":"SZEKSZ\u00c1RD 215 SZ. BOLT","street":"Tartsay utca 42.","zip":"7100","city":"Szeksz\u00e1rd"},"location":{"lat":46.3308,"lon":18.70177},"openingHours":[{"weekDay":1,"timeRanges":[{"opening":"08:00","closing":"20:00"}]},{"weekDay":2,"timeRanges":[{"opening":"08:00","closing":"20:00"}]},{"weekDay":3,"timeRanges":[{"opening":"08:00","closing":"20:00"}]},{"weekDay":4,"timeRanges":[{"opening":"08:00","closing":"20:00"}]},{"weekDay":5,"timeRanges":[{"opening":"08:00","closing":"20:00"}]},{"weekDay":6,"timeRanges":[{"opening":"08:00","closing":"20:00"}]},{"weekDay":7,"timeRanges":[{"opening":"09:00","closing":"18:00"}]}]},{"storeNumber":"216","address":{"name":"GYULA 216 SZ. BOLT","street":"K\u00e9tegyh\u00e1zi \u00fat 4.","zip":"5700","city":"Gyula"},"location":{"lat":46.64027,"lon":21.26149},"openingHours":[{"weekDay":1,"timeRanges":[{"opening":"09:00","closing":"19:00"}]},{"weekDay":2,"timeRanges":[{"opening":"09:00","closing":"19:00"}]},{"weekDay":3,"timeRanges":[{"opening":"09:00","closing":"19:00"}]},{"weekDay":4,"timeRanges":[{"opening":"09:00","closing":"19:00"}]},{"weekDay":5,"timeRanges":[{"opening":"09:00","closing":"19:00"}]},{"weekDay":6,"timeRanges":[{"opening":"09:00","closing":"19:00"}]}]},{"storeNumber":"217","address":{"name":"P\u00c1PA 217 SZ. BOLT","street":"Celli utca 25.","zip":"8500","city":"P\u00e1pa"},"location":{"lat":47.32995,"lon":17.45738},"openingHours":[{"weekDay":1,"timeRanges":[{"opening":"08:00","closing":"19:00"}]},{"weekDay":2,"timeRanges":[{"opening":"08:00","closing":"19:00"}]},{"weekDay":3,"timeRanges":[{"opening":"08:00","closing":"19:00"}]},{"weekDay":4,"timeRanges":[{"opening":"08:00","closing":"19:00"}]},{"weekDay":5,"timeRanges":[{"opening":"08:00","closing":"19:00"}]},{"weekDay":6,"timeRanges":[{"opening":"08:00","closing":"19:00"}]},{"weekDay":7,"timeRanges":[{"opening":"09:00","closing":"17:00"}]}]},{"storeNumber":"219","address":{"name":"BALATONALM\u00c1DI 219 SZ. BOLT","street":"Baross utca 2.","zip":"8220","city":"Balatonalm\u00e1di"},"location":{"lat":47.02864,"lon":18.01431},"openingHours":[{"weekDay":1,"timeRanges":[{"opening":"08:00","closing":"20:00"}]},{"weekDay":2,"timeRanges":[{"opening":"08:00","closing":"20:00"}]},{"weekDay":3,"timeRanges":[{"opening":"08:00","closing":"20:00"}]},{"weekDay":4,"timeRanges":[{"opening":"08:00","closing":"20:00"}]},{"weekDay":5,"timeRanges":[{"opening":"08:00","closing":"20:00"}]},{"weekDay":6,"timeRanges":[{"opening":"08:00","closing":"20:00"}]},{"weekDay":7,"timeRanges":[{"opening":"08:00","closing":"16:00"}]}]},{"storeNumber":"220","address":{"name":"BUDAPEST 220. SZ. BOLT","street":"Batthy\u00e1ny t\u00e9r 5-6.","zip":"1011","city":"BUDAPEST"},"location":{"lat":47.50616,"lon":19.03808},"openingHours":[{"weekDay":1,"timeRanges":[{"opening":"08:00","closing":"19:00"}]},{"weekDay":2,"timeRanges":[{"opening":"08:00","closing":"19:00"}]},{"weekDay":3,"timeRanges":[{"opening":"08:00","closing":"19:00"}]},{"weekDay":4,"timeRanges":[{"opening":"08:00","closing":"19:00"}]},{"weekDay":5,"timeRanges":[{"opening":"08:00","closing":"19:00"}]},{"weekDay":6,"timeRanges":[{"opening":"08:00","closing":"15:00"}]}]},{"storeNumber":"221","address":{"name":"DEBRECEN 221 SZ. BOLT","street":"Szentgy\u00f6rgyfalvi u. 9.","zip":"4225","city":"Debrecen"},"location":{"lat":47.5977128,"lon":21.5787777},"openingHours":[{"weekDay":1,"timeRanges":[{"opening":"09:00","closing":"19:00"}]},{"weekDay":2,"timeRanges":[{"opening":"09:00","closing":"19:00"}]},{"weekDay":3,"timeRanges":[{"opening":"09:00","closing":"19:00"}]},{"weekDay":4,"timeRanges":[{"opening":"09:00","closing":"19:00"}]},{"weekDay":5,"timeRanges":[{"opening":"09:00","closing":"19:00"}]},{"weekDay":6,"timeRanges":[{"opening":"08:00","closing":"16:00"}]}]},{"storeNumber":"224","address":{"name":"BUDAPEST 224. SZ. BOLT","street":"Gy\u00f6mr\u0151i \u00fat 99.","zip":"1103","city":"Budapest"},"location":{"lat":47.46663,"lon":19.15753},"openingHours":[{"weekDay":1,"timeRanges":[{"opening":"08:00","closing":"20:00"}]},{"weekDay":2,"timeRanges":[{"opening":"08:00","closing":"20:00"}]},{"weekDay":3,"timeRanges":[{"opening":"08:00","closing":"20:00"}]},{"weekDay":4,"timeRanges":[{"opening":"08:00","closing":"20:00"}]},{"weekDay":5,"timeRanges":[{"opening":"08:00","closing":"20:00"}]},{"weekDay":6,"timeRanges":[{"opening":"08:00","closing":"20:00"}]},{"weekDay":7,"timeRanges":[{"opening":"08:00","closing":"19:00"}]}]},{"storeNumber":"227","address":{"name":"ISASZEG 227.SZ BOLT","street":"R\u00e1k\u00f3czi \u00fat 21.","zip":"2117","city":"Isaszeg"},"location":{"lat":47.52976,"lon":19.3966},"openingHours":[{"weekDay":1,"timeRanges":[{"opening":"08:00","closing":"18:00"}]},{"weekDay":2,"timeRanges":[{"opening":"08:00","closing":"18:00"}]},{"weekDay":3,"timeRanges":[{"opening":"08:00","closing":"18:00"}]},{"weekDay":4,"timeRanges":[{"opening":"08:00","closing":"18:00"}]},{"weekDay":5,"timeRanges":[{"opening":"08:00","closing":"18:00"}]},{"weekDay":6,"timeRanges":[{"opening":"08:00","closing":"13:00"}]}]},{"storeNumber":"231","address":{"name":"HAJD\u00daDOROG 231 SZ. BOLT","street":"Vasv\u00e1ri t\u00e9r 8.","zip":"4087","city":"Hajd\u00fadorog"},"location":{"lat":47.81583,"lon":21.50028},"openingHours":[{"weekDay":1,"timeRanges":[{"opening":"08:00","closing":"18:00"}]},{"weekDay":2,"timeRanges":[{"opening":"08:00","closing":"18:00"}]},{"weekDay":3,"timeRanges":[{"opening":"08:00","closing":"18:00"}]},{"weekDay":4,"timeRanges":[{"opening":"08:00","closing":"18:00"}]},{"weekDay":5,"timeRanges":[{"opening":"08:00","closing":"18:00"}]},{"weekDay":6,"timeRanges":[{"opening":"08:00","closing":"13:00"}]}]},{"storeNumber":"233","address":{"name":"BUDAPEST 233. SZ. BOLT","street":"Okt\u00f3ber huszonharmadika utca 8-10.","zip":"1117","city":"Budapest"},"location":{"lat":47.4742,"lon":19.04862},"openingHours":[{"weekDay":1,"timeRanges":[{"opening":"08:00","closing":"21:00"}]},{"weekDay":2,"timeRanges":[{"opening":"08:00","closing":"21:00"}]},{"weekDay":3,"timeRanges":[{"opening":"08:00","closing":"21:00"}]},{"weekDay":4,"timeRanges":[{"opening":"08:00","closing":"21:00"}]},{"weekDay":5,"timeRanges":[{"opening":"08:00","closing":"21:00"}]},{"weekDay":6,"timeRanges":[{"opening":"09:00","closing":"21:00"}]},{"weekDay":7,"timeRanges":[{"opening":"09:00","closing":"19:00"}]}]},{"storeNumber":"234","address":{"name":"KESZTHELY 234 SZ. BOLT","street":"Frech Mikl\u00f3s utca 2.","zip":"8360","city":"Keszthely"},"location":{"lat":46.7732658,"lon":17.2643167},"openingHours":[{"weekDay":1,"timeRanges":[{"opening":"09:00","closing":"20:00"}]},{"weekDay":2,"timeRanges":[{"opening":"09:00","closing":"20:00"}]},{"weekDay":3,"timeRanges":[{"opening":"09:00","closing":"20:00"}]},{"weekDay":4,"timeRanges":[{"opening":"09:00","closing":"20:00"}]},{"weekDay":5,"timeRanges":[{"opening":"09:00","closing":"20:00"}]},{"weekDay":6,"timeRanges":[{"opening":"09:00","closing":"20:00"}]},{"weekDay":7,"timeRanges":[{"opening":"09:00","closing":"18:00"}]}]},{"storeNumber":"236","address":{"name":"M\u00d3R 236 SZ. BOLT","street":"Szent Istv\u00e1n t\u00e9r 5\/a.","zip":"8060","city":"M\u00f3r"},"location":{"lat":47.37217,"lon":18.20975},"openingHours":[{"weekDay":1,"timeRanges":[{"opening":"08:00","closing":"18:30"}]},{"weekDay":2,"timeRanges":[{"opening":"08:00","closing":"18:30"}]},{"weekDay":3,"timeRanges":[{"opening":"08:00","closing":"18:30"}]},{"weekDay":4,"timeRanges":[{"opening":"08:00","closing":"18:30"}]},{"weekDay":5,"timeRanges":[{"opening":"08:00","closing":"18:30"}]},{"weekDay":6,"timeRanges":[{"opening":"08:00","closing":"13:00"}]}]},{"storeNumber":"237","address":{"name":"SZEGED 237 SZ. BOLT","street":"Szabadkai \u00fat 7.","zip":"6725","city":"Szeged"},"location":{"lat":46.2436819,"lon":20.119716},"openingHours":[{"weekDay":1,"timeRanges":[{"opening":"09:00","closing":"20:00"}]},{"weekDay":2,"timeRanges":[{"opening":"09:00","closing":"20:00"}]},{"weekDay":3,"timeRanges":[{"opening":"09:00","closing":"20:00"}]},{"weekDay":4,"timeRanges":[{"opening":"09:00","closing":"20:00"}]},{"weekDay":5,"timeRanges":[{"opening":"09:00","closing":"20:00"}]},{"weekDay":6,"timeRanges":[{"opening":"09:00","closing":"20:00"}]},{"weekDay":7,"timeRanges":[{"opening":"09:00","closing":"18:00"}]}]},{"storeNumber":"238","address":{"name":"TISZA\u00daJV\u00c1ROS 238 SZ. BOLT","street":"M\u00e1ty\u00e1s kir\u00e1ly \u00fat 3.","zip":"3580","city":"Tisza\u00fajv\u00e1ros"},"location":{"lat":47.9303066,"lon":21.0303967},"openingHours":[{"weekDay":1,"timeRanges":[{"opening":"09:00","closing":"19:00"}]},{"weekDay":2,"timeRanges":[{"opening":"09:00","closing":"19:00"}]},{"weekDay":3,"timeRanges":[{"opening":"09:00","closing":"19:00"}]},{"weekDay":4,"timeRanges":[{"opening":"09:00","closing":"19:00"}]},{"weekDay":5,"timeRanges":[{"opening":"09:00","closing":"19:00"}]},{"weekDay":6,"timeRanges":[{"opening":"09:00","closing":"19:00"}]}]},{"storeNumber":"24","address":{"name":"BUDAPEST 024 SZ. BOLT","street":"B\u00f6sz\u00f6rm\u00e9nyi \u00fat 36\/a.","zip":"1126","city":"Budapest"},"location":{"lat":47.49247,"lon":19.01677},"openingHours":[{"weekDay":1,"timeRanges":[{"opening":"08:00","closing":"19:00"}]},{"weekDay":2,"timeRanges":[{"opening":"08:00","closing":"19:00"}]},{"weekDay":3,"timeRanges":[{"opening":"08:00","closing":"19:00"}]},{"weekDay":4,"timeRanges":[{"opening":"08:00","closing":"19:00"}]},{"weekDay":5,"timeRanges":[{"opening":"08:00","closing":"19:00"}]},{"weekDay":6,"timeRanges":[{"opening":"08:00","closing":"14:00"}]}]},{"storeNumber":"240","address":{"name":"SZ\u00c1ZHALOMBATTA 240 SZ. BOLT","street":"V\u00f6r\u00f6smarty \u00fat 2.","zip":"2440","city":"Sz\u00e1zhalombatta"},"location":{"lat":47.32203,"lon":18.90091},"openingHours":[{"weekDay":1,"timeRanges":[{"opening":"08:00","closing":"19:00"}]},{"weekDay":2,"timeRanges":[{"opening":"08:00","closing":"19:00"}]},{"weekDay":3,"timeRanges":[{"opening":"08:00","closing":"19:00"}]},{"weekDay":4,"timeRanges":[{"opening":"08:00","closing":"19:00"}]},{"weekDay":5,"timeRanges":[{"opening":"08:00","closing":"19:00"}]},{"weekDay":6,"timeRanges":[{"opening":"08:00","closing":"15:00"}]},{"weekDay":7,"timeRanges":[{"opening":"09:00","closing":"13:00"}]}]},{"storeNumber":"242","address":{"name":"VECS\u00c9S 242. SZ. BOLT","street":"F\u0151 \u00fat 246-248.","zip":"2220","city":"Vecs\u00e9s"},"location":{"lat":47.41631,"lon":19.24911},"openingHours":[{"weekDay":1,"timeRanges":[{"opening":"09:00","closing":"20:00"}]},{"weekDay":2,"timeRanges":[{"opening":"09:00","closing":"20:00"}]},{"weekDay":3,"timeRanges":[{"opening":"09:00","closing":"20:00"}]},{"weekDay":4,"timeRanges":[{"opening":"09:00","closing":"20:00"}]},{"weekDay":5,"timeRanges":[{"opening":"09:00","closing":"20:00"}]},{"weekDay":6,"timeRanges":[{"opening":"09:00","closing":"20:00"}]},{"weekDay":7,"timeRanges":[{"opening":"09:00","closing":"18:00"}]}]},{"storeNumber":"243","address":{"name":"DI\u00d3SD 243 SZ. BOLT","street":"Balatoni \u00fat 2\/a.","zip":"2049","city":"Di\u00f3sd"},"location":{"lat":47.40415,"lon":18.94672},"openingHours":[{"weekDay":1,"timeRanges":[{"opening":"09:00","closing":"20:00"}]},{"weekDay":2,"timeRanges":[{"opening":"09:00","closing":"20:00"}]},{"weekDay":3,"timeRanges":[{"opening":"09:00","closing":"20:00"}]},{"weekDay":4,"timeRanges":[{"opening":"09:00","closing":"20:00"}]},{"weekDay":5,"timeRanges":[{"opening":"09:00","closing":"20:00"}]},{"weekDay":6,"timeRanges":[{"opening":"09:00","closing":"20:00"}]},{"weekDay":7,"timeRanges":[{"opening":"09:00","closing":"18:00"}]}]},{"storeNumber":"244","address":{"name":"ALBERTIRSA 244 SZ. BOLT","street":"Vas\u00fat utca 4-11.","zip":"2730","city":"Albertirsa"},"location":{"lat":47.24392,"lon":19.61224},"openingHours":[{"weekDay":1,"timeRanges":[{"opening":"08:00","closing":"18:00"}]},{"weekDay":2,"timeRanges":[{"opening":"08:00","closing":"18:00"}]},{"weekDay":3,"timeRanges":[{"opening":"08:00","closing":"18:00"}]},{"weekDay":4,"timeRanges":[{"opening":"08:00","closing":"18:00"}]},{"weekDay":5,"timeRanges":[{"opening":"08:00","closing":"18:00"}]},{"weekDay":6,"timeRanges":[{"opening":"08:00","closing":"14:00"}]}]},{"storeNumber":"245","address":{"name":"NY\u00cdREGYH\u00c1ZA 245 SZ. BOLT","street":"Nagy Imre t\u00e9r 1.","zip":"4400","city":"Ny\u00edregyh\u00e1za"},"location":{"lat":47.9579157,"lon":21.7177754},"openingHours":[{"weekDay":1,"timeRanges":[{"opening":"09:00","closing":"20:00"}]},{"weekDay":2,"timeRanges":[{"opening":"09:00","closing":"20:00"}]},{"weekDay":3,"timeRanges":[{"opening":"09:00","closing":"20:00"}]},{"weekDay":4,"timeRanges":[{"opening":"09:00","closing":"20:00"}]},{"weekDay":5,"timeRanges":[{"opening":"09:00","closing":"20:00"}]},{"weekDay":6,"timeRanges":[{"opening":"09:00","closing":"20:00"}]},{"weekDay":7,"timeRanges":[{"opening":"10:00","closing":"18:00"}]}]},{"storeNumber":"248","address":{"name":"SZIGETSZENTMIKL\u00d3S 248 SZ. BOLT","street":"Szent Mikl\u00f3s \u00fatja 7.","zip":"2310","city":"Szigetszentmikl\u00f3s"},"location":{"lat":47.33891,"lon":19.03491},"openingHours":[{"weekDay":1,"timeRanges":[{"opening":"08:00","closing":"19:00"}]},{"weekDay":2,"timeRanges":[{"opening":"08:00","closing":"19:00"}]},{"weekDay":3,"timeRanges":[{"opening":"08:00","closing":"19:00"}]},{"weekDay":4,"timeRanges":[{"opening":"08:00","closing":"19:00"}]},{"weekDay":5,"timeRanges":[{"opening":"08:00","closing":"19:00"}]},{"weekDay":6,"timeRanges":[{"opening":"08:00","closing":"15:00"}]}]},{"storeNumber":"249","address":{"name":"TATAB\u00c1NYA 249 SZ. BOLT","street":"Vad\u00e1sz \u00fat 34.","zip":"2800","city":"Tatab\u00e1nya"},"location":{"lat":47.58359,"lon":18.3878},"openingHours":[{"weekDay":1,"timeRanges":[{"opening":"08:00","closing":"19:00"}]},{"weekDay":2,"timeRanges":[{"opening":"08:00","closing":"19:00"}]},{"weekDay":3,"timeRanges":[{"opening":"08:00","closing":"19:00"}]},{"weekDay":4,"timeRanges":[{"opening":"08:00","closing":"19:00"}]},{"weekDay":5,"timeRanges":[{"opening":"08:00","closing":"19:00"}]},{"weekDay":6,"timeRanges":[{"opening":"08:00","closing":"14:00"}]}]},{"storeNumber":"25","address":{"name":"GY\u0150R 025 SZ. BOLT","street":"Baross G\u00e1bor utca 24.","zip":"9021","city":"Gy\u0151r"},"location":{"lat":47.68554,"lon":17.63359},"openingHours":[{"weekDay":1,"timeRanges":[{"opening":"08:00","closing":"19:00"}]},{"weekDay":2,"timeRanges":[{"opening":"08:00","closing":"19:00"}]},{"weekDay":3,"timeRanges":[{"opening":"08:00","closing":"19:00"}]},{"weekDay":4,"timeRanges":[{"opening":"08:00","closing":"19:00"}]},{"weekDay":5,"timeRanges":[{"opening":"08:00","closing":"19:00"}]},{"weekDay":6,"timeRanges":[{"opening":"08:00","closing":"14:00"}]}]},{"storeNumber":"250","address":{"name":"S\u00c1TORALJA\u00daJHELY 250 SZ. BOLT","street":"Kazinczy Ferenc \u00fat 156.","zip":"3980","city":"S\u00e1toralja\u00fajhely"},"location":{"lat":48.41353,"lon":21.6488},"openingHours":[{"weekDay":1,"timeRanges":[{"opening":"09:00","closing":"19:00"}]},{"weekDay":2,"timeRanges":[{"opening":"09:00","closing":"19:00"}]},{"weekDay":3,"timeRanges":[{"opening":"09:00","closing":"19:00"}]},{"weekDay":4,"timeRanges":[{"opening":"09:00","closing":"19:00"}]},{"weekDay":5,"timeRanges":[{"opening":"09:00","closing":"19:00"}]},{"weekDay":6,"timeRanges":[{"opening":"09:00","closing":"17:00"}]},{"weekDay":7,"timeRanges":[{"opening":"10:00","closing":"17:00"}]}]},{"storeNumber":"251","address":{"name":"SZ\u00c1NT\u00d3D 251 SZ. BOLT","street":"Si\u00f3foki \u00fat 3.","zip":"8622","city":"Sz\u00e1nt\u00f3d"},"location":{"lat":46.86081,"lon":17.90378},"openingHours":[{"weekDay":1,"timeRanges":[{"opening":"08:00","closing":"20:00"}]},{"weekDay":2,"timeRanges":[{"opening":"08:00","closing":"20:00"}]},{"weekDay":3,"timeRanges":[{"opening":"08:00","closing":"20:00"}]},{"weekDay":4,"timeRanges":[{"opening":"08:00","closing":"20:00"}]},{"weekDay":5,"timeRanges":[{"opening":"08:00","closing":"20:00"}]},{"weekDay":6,"timeRanges":[{"opening":"08:00","closing":"20:00"}]},{"weekDay":7,"timeRanges":[{"opening":"08:00","closing":"18:00"}]}]},{"storeNumber":"252","address":{"name":"NAGYKANIZSA 252 SZ. BOLT","street":"T\u00e1borhely utca 4.","zip":"8800","city":"Nagykanizsa"},"location":{"lat":46.4535008,"lon":17.0126337},"openingHours":[{"weekDay":1,"timeRanges":[{"opening":"08:30","closing":"19:30"}]},{"weekDay":2,"timeRanges":[{"opening":"08:30","closing":"19:30"}]},{"weekDay":3,"timeRanges":[{"opening":"08:30","closing":"19:30"}]},{"weekDay":4,"timeRanges":[{"opening":"08:30","closing":"19:30"}]},{"weekDay":5,"timeRanges":[{"opening":"08:30","closing":"19:30"}]},{"weekDay":6,"timeRanges":[{"opening":"08:30","closing":"19:30"}]},{"weekDay":7,"timeRanges":[{"opening":"09:00","closing":"17:00"}]}]},{"storeNumber":"253","address":{"name":"EGER 253 SZ. BOLT","street":"T\u00f6rv\u00e9nyh\u00e1z utca 4.","zip":"3300","city":"Eger"},"location":{"lat":47.9007057,"lon":20.3680731},"openingHours":[{"weekDay":1,"timeRanges":[{"opening":"09:00","closing":"20:00"}]},{"weekDay":2,"timeRanges":[{"opening":"09:00","closing":"20:00"}]},{"weekDay":3,"timeRanges":[{"opening":"09:00","closing":"20:00"}]},{"weekDay":4,"timeRanges":[{"opening":"09:00","closing":"20:00"}]},{"weekDay":5,"timeRanges":[{"opening":"09:00","closing":"20:00"}]},{"weekDay":6,"timeRanges":[{"opening":"09:00","closing":"20:00"}]},{"weekDay":7,"timeRanges":[{"opening":"09:00","closing":"19:00"}]}]},{"storeNumber":"254","address":{"name":"DEBRECEN 254 SZ. BOLT","street":"Kishat\u00e1r utca 9.","zip":"4031","city":"Debrecen"},"location":{"lat":47.54322,"lon":21.58129},"openingHours":[{"weekDay":1,"timeRanges":[{"opening":"09:00","closing":"19:00"}]},{"weekDay":2,"timeRanges":[{"opening":"09:00","closing":"19:00"}]},{"weekDay":3,"timeRanges":[{"opening":"09:00","closing":"19:00"}]},{"weekDay":4,"timeRanges":[{"opening":"09:00","closing":"19:00"}]},{"weekDay":5,"timeRanges":[{"opening":"09:00","closing":"20:00"}]},{"weekDay":6,"timeRanges":[{"opening":"09:00","closing":"20:00"}]},{"weekDay":7,"timeRanges":[{"opening":"09:00","closing":"16:00"}]}]},{"storeNumber":"257","address":{"name":"SOPRON 257 SZ. BOLT","street":"Hat\u00e1rdomb \u00fat 2.","zip":"9400","city":"Sopron"},"location":{"lat":47.67229,"lon":16.61305},"openingHours":[{"weekDay":1,"timeRanges":[{"opening":"09:00","closing":"20:00"}]},{"weekDay":2,"timeRanges":[{"opening":"09:00","closing":"20:00"}]},{"weekDay":3,"timeRanges":[{"opening":"09:00","closing":"20:00"}]},{"weekDay":4,"timeRanges":[{"opening":"09:00","closing":"20:00"}]},{"weekDay":5,"timeRanges":[{"opening":"09:00","closing":"20:00"}]},{"weekDay":6,"timeRanges":[{"opening":"09:00","closing":"20:00"}]},{"weekDay":7,"timeRanges":[{"opening":"09:00","closing":"18:00"}]}]},{"storeNumber":"258","address":{"name":"\u00daJFEH\u00c9RT\u00d3 258 SZ. BOLT","street":"F\u0151 t\u00e9r 15.","zip":"4244","city":"\u00dajfeh\u00e9rt\u00f3"},"location":{"lat":47.79863,"lon":21.68218},"openingHours":[{"weekDay":1,"timeRanges":[{"opening":"08:00","closing":"18:00"}]},{"weekDay":2,"timeRanges":[{"opening":"08:00","closing":"18:00"}]},{"weekDay":3,"timeRanges":[{"opening":"08:00","closing":"18:00"}]},{"weekDay":4,"timeRanges":[{"opening":"08:00","closing":"18:00"}]},{"weekDay":5,"timeRanges":[{"opening":"08:00","closing":"18:00"}]},{"weekDay":6,"timeRanges":[{"opening":"08:00","closing":"13:00"}]}]},{"storeNumber":"26","address":{"name":"P\u00c9CS 026 SZ. BOLT","street":"Kir\u00e1ly utca 9.","zip":"7624","city":"P\u00e9cs"},"location":{"lat":46.07639,"lon":18.22988},"openingHours":[{"weekDay":1,"timeRanges":[{"opening":"08:00","closing":"19:00"}]},{"weekDay":2,"timeRanges":[{"opening":"08:00","closing":"19:00"}]},{"weekDay":3,"timeRanges":[{"opening":"08:00","closing":"19:00"}]},{"weekDay":4,"timeRanges":[{"opening":"08:00","closing":"19:00"}]},{"weekDay":5,"timeRanges":[{"opening":"08:00","closing":"19:00"}]},{"weekDay":6,"timeRanges":[{"opening":"08:00","closing":"14:00"}]}]},{"storeNumber":"260","address":{"name":"PET\u0150H\u00c1ZA 260 SZ. BOLT","street":"Spar \u00fat (hrsz.269\/109) 1.","zip":"9443","city":"Pet\u0151h\u00e1za"},"location":{"lat":47.5899078,"lon":16.8896676},"openingHours":[{"weekDay":1,"timeRanges":[{"opening":"08:00","closing":"19:00"}]},{"weekDay":2,"timeRanges":[{"opening":"08:00","closing":"19:00"}]},{"weekDay":3,"timeRanges":[{"opening":"08:00","closing":"19:00"}]},{"weekDay":4,"timeRanges":[{"opening":"08:00","closing":"19:00"}]},{"weekDay":5,"timeRanges":[{"opening":"08:00","closing":"19:00"}]},{"weekDay":6,"timeRanges":[{"opening":"08:00","closing":"17:00"}]}]},{"storeNumber":"261","address":{"name":"BUDAPEST 261 SZ BOLT","street":"Garay t\u00e9r 20.","zip":"1076","city":"Budapest"},"location":{"lat":47.5038325,"lon":19.0853581},"openingHours":[{"weekDay":1,"timeRanges":[{"opening":"08:00","closing":"19:00"}]},{"weekDay":2,"timeRanges":[{"opening":"08:00","closing":"19:00"}]},{"weekDay":3,"timeRanges":[{"opening":"08:00","closing":"19:00"}]},{"weekDay":4,"timeRanges":[{"opening":"08:00","closing":"19:00"}]},{"weekDay":5,"timeRanges":[{"opening":"08:00","closing":"19:00"}]},{"weekDay":6,"timeRanges":[{"opening":"08:00","closing":"15:00"}]},{"weekDay":7,"timeRanges":[{"opening":"08:00","closing":"13:00"}]}]},{"storeNumber":"262","address":{"name":"AJKA 262 SZ. BOLT","street":"Csingeri \u00fat 2.","zip":"8400","city":"Ajka"},"location":{"lat":47.10626,"lon":17.56411},"openingHours":[{"weekDay":1,"timeRanges":[{"opening":"08:00","closing":"18:30"}]},{"weekDay":2,"timeRanges":[{"opening":"08:00","closing":"18:30"}]},{"weekDay":3,"timeRanges":[{"opening":"08:00","closing":"18:30"}]},{"weekDay":4,"timeRanges":[{"opening":"08:00","closing":"18:30"}]},{"weekDay":5,"timeRanges":[{"opening":"08:00","closing":"18:30"}]},{"weekDay":6,"timeRanges":[{"opening":"08:00","closing":"13:00"}]}]},{"storeNumber":"265","address":{"name":"PAKS 265 SZ. BOLT","street":"D\u00f3zsa Gy\u00f6rgy \u00fat 30.","streetAdditional":"Paks, D\u00f3zsa Gy\u00f6rgy \u00fat 30.","zip":"7030","city":"Paks"},"location":{"lat":46.62465,"lon":18.86127},"openingHours":[{"weekDay":1,"timeRanges":[{"opening":"08:00","closing":"18:00"}]},{"weekDay":2,"timeRanges":[{"opening":"08:00","closing":"18:00"}]},{"weekDay":3,"timeRanges":[{"opening":"08:00","closing":"18:00"}]},{"weekDay":4,"timeRanges":[{"opening":"08:00","closing":"18:00"}]},{"weekDay":5,"timeRanges":[{"opening":"08:00","closing":"18:00"}]},{"weekDay":6,"timeRanges":[{"opening":"08:00","closing":"13:00"}]}]},{"storeNumber":"268","address":{"name":"BALATONBOGL\u00c1R 268 SZ. BOLT","street":"Klapka utca 4.","zip":"8630","city":"Balatonbogl\u00e1r"},"location":{"lat":46.77642,"lon":17.6499},"openingHours":[{"weekDay":1,"timeRanges":[{"opening":"08:00","closing":"20:00"}]},{"weekDay":2,"timeRanges":[{"opening":"08:00","closing":"20:00"}]},{"weekDay":3,"timeRanges":[{"opening":"08:00","closing":"20:00"}]},{"weekDay":4,"timeRanges":[{"opening":"08:00","closing":"20:00"}]},{"weekDay":5,"timeRanges":[{"opening":"08:00","closing":"20:00"}]},{"weekDay":6,"timeRanges":[{"opening":"08:00","closing":"20:00"}]},{"weekDay":7,"timeRanges":[{"opening":"08:00","closing":"18:00"}]}]},{"storeNumber":"269","address":{"name":"BONYH\u00c1D 269 SZ. BOLT","street":"V\u00f6lgys\u00e9g utca 8.","zip":"7150","city":"Bonyh\u00e1d"},"location":{"lat":46.2999,"lon":18.5387},"openingHours":[{"weekDay":1,"timeRanges":[{"opening":"08:00","closing":"20:00"}]},{"weekDay":2,"timeRanges":[{"opening":"08:00","closing":"20:00"}]},{"weekDay":3,"timeRanges":[{"opening":"08:00","closing":"20:00"}]},{"weekDay":4,"timeRanges":[{"opening":"08:00","closing":"20:00"}]},{"weekDay":5,"timeRanges":[{"opening":"08:00","closing":"20:00"}]},{"weekDay":6,"timeRanges":[{"opening":"08:00","closing":"20:00"}]},{"weekDay":7,"timeRanges":[{"opening":"09:00","closing":"17:00"}]}]},{"storeNumber":"27","address":{"name":"P\u00c9CS 027 SZ. BOLT","street":"R\u00f3kus utca 1.","zip":"7624","city":"P\u00e9cs"},"location":{"lat":46.07377,"lon":18.21181},"openingHours":[{"weekDay":1,"timeRanges":[{"opening":"08:00","closing":"19:00"}]},{"weekDay":2,"timeRanges":[{"opening":"08:00","closing":"19:00"}]},{"weekDay":3,"timeRanges":[{"opening":"08:00","closing":"19:00"}]},{"weekDay":4,"timeRanges":[{"opening":"08:00","closing":"19:00"}]},{"weekDay":5,"timeRanges":[{"opening":"08:00","closing":"19:00"}]},{"weekDay":6,"timeRanges":[{"opening":"08:00","closing":"14:00"}]}]},{"storeNumber":"271","address":{"name":"S\u00c1ROSPATAK 002 SZ. BOLT","street":"B\u00e9la kir\u00e1ly t\u00e9r 2.","zip":"3950","city":"S\u00e1rospatak"},"location":{"lat":48.31909,"lon":21.56682},"openingHours":[{"weekDay":1,"timeRanges":[{"opening":"08:00","closing":"18:00"}]},{"weekDay":2,"timeRanges":[{"opening":"08:00","closing":"18:00"}]},{"weekDay":3,"timeRanges":[{"opening":"08:00","closing":"18:00"}]},{"weekDay":4,"timeRanges":[{"opening":"08:00","closing":"18:00"}]},{"weekDay":5,"timeRanges":[{"opening":"08:00","closing":"18:00"}]},{"weekDay":6,"timeRanges":[{"opening":"08:00","closing":"13:00"}]}]},{"storeNumber":"272","address":{"name":"DOMB\u00d3V\u00c1R 272 SZ. BOLT","street":"Hunyadi t\u00e9r 42.","zip":"7200","city":"Domb\u00f3v\u00e1r"},"location":{"lat":46.37794,"lon":18.13017},"openingHours":[{"weekDay":1,"timeRanges":[{"opening":"08:00","closing":"19:00"}]},{"weekDay":2,"timeRanges":[{"opening":"08:00","closing":"19:00"}]},{"weekDay":3,"timeRanges":[{"opening":"08:00","closing":"19:00"}]},{"weekDay":4,"timeRanges":[{"opening":"08:00","closing":"19:00"}]},{"weekDay":5,"timeRanges":[{"opening":"08:00","closing":"19:00"}]},{"weekDay":6,"timeRanges":[{"opening":"08:00","closing":"15:00"}]}]},{"storeNumber":"274","address":{"name":"POM\u00c1Z 274 SZ. BOLT","street":"Husz\u00e1r utca 25.","zip":"2013","city":"Pom\u00e1z"},"location":{"lat":47.64582,"lon":19.02069},"openingHours":[{"weekDay":1,"timeRanges":[{"opening":"08:00","closing":"19:00"}]},{"weekDay":2,"timeRanges":[{"opening":"08:00","closing":"19:00"}]},{"weekDay":3,"timeRanges":[{"opening":"08:00","closing":"19:00"}]},{"weekDay":4,"timeRanges":[{"opening":"08:00","closing":"19:00"}]},{"weekDay":5,"timeRanges":[{"opening":"08:00","closing":"19:00"}]},{"weekDay":6,"timeRanges":[{"opening":"08:00","closing":"18:00"}]},{"weekDay":7,"timeRanges":[{"opening":"09:00","closing":"13:00"}]}]},{"storeNumber":"275","address":{"name":"DUNA\u00daJV\u00c1ROS 275 SZ. BOLT","street":"B\u00e9ke k\u00f6r\u00fat 1.","zip":"2400","city":"Duna\u00fajv\u00e1ros"},"location":{"lat":46.96093,"lon":18.91964},"openingHours":[{"weekDay":1,"timeRanges":[{"opening":"08:00","closing":"19:00"}]},{"weekDay":2,"timeRanges":[{"opening":"08:00","closing":"19:00"}]},{"weekDay":3,"timeRanges":[{"opening":"08:00","closing":"19:00"}]},{"weekDay":4,"timeRanges":[{"opening":"08:00","closing":"19:00"}]},{"weekDay":5,"timeRanges":[{"opening":"08:00","closing":"19:00"}]},{"weekDay":6,"timeRanges":[{"opening":"08:00","closing":"19:00"}]},{"weekDay":7,"timeRanges":[{"opening":"09:00","closing":"17:00"}]}]},{"storeNumber":"276","address":{"name":"SZOLNOK 276 SZ. BOLT","street":"Ady Endre \u00fat 15.","zip":"5000","city":"Szolnok"},"location":{"lat":47.17771,"lon":20.19255},"openingHours":[{"weekDay":1,"timeRanges":[{"opening":"07:00","closing":"19:00"}]},{"weekDay":2,"timeRanges":[{"opening":"07:00","closing":"19:00"}]},{"weekDay":3,"timeRanges":[{"opening":"07:00","closing":"19:00"}]},{"weekDay":4,"timeRanges":[{"opening":"07:00","closing":"19:00"}]},{"weekDay":5,"timeRanges":[{"opening":"07:00","closing":"19:00"}]},{"weekDay":6,"timeRanges":[{"opening":"08:00","closing":"19:00"}]},{"weekDay":7,"timeRanges":[{"opening":"09:00","closing":"13:00"}]}]},{"storeNumber":"277","address":{"name":"DEBRECEN 277 SZ. BOLT","street":"Csap\u00f3 utca 30.","zip":"4024","city":"Debrecen"},"location":{"lat":47.5326399,"lon":21.628941},"openingHours":[{"weekDay":1,"timeRanges":[{"opening":"09:00","closing":"20:00"}]},{"weekDay":2,"timeRanges":[{"opening":"09:00","closing":"20:00"}]},{"weekDay":3,"timeRanges":[{"opening":"09:00","closing":"20:00"}]},{"weekDay":4,"timeRanges":[{"opening":"09:00","closing":"20:00"}]},{"weekDay":5,"timeRanges":[{"opening":"09:00","closing":"20:00"}]},{"weekDay":6,"timeRanges":[{"opening":"09:00","closing":"20:00"}]},{"weekDay":7,"timeRanges":[{"opening":"10:00","closing":"18:00"}]}]},{"storeNumber":"278","address":{"name":"ZALASZENTGR\u00d3T 278 SZ. BOLT","street":"E\u00f6tv\u00f6s K\u00e1roly utca 1.","zip":"8790","city":"Zalaszentgr\u00f3t"},"location":{"lat":46.9433316,"lon":17.0766872},"openingHours":[{"weekDay":1,"timeRanges":[{"opening":"08:00","closing":"18:00"}]},{"weekDay":2,"timeRanges":[{"opening":"08:00","closing":"18:00"}]},{"weekDay":3,"timeRanges":[{"opening":"08:00","closing":"18:00"}]},{"weekDay":4,"timeRanges":[{"opening":"08:00","closing":"18:00"}]},{"weekDay":5,"timeRanges":[{"opening":"08:00","closing":"18:00"}]},{"weekDay":6,"timeRanges":[{"opening":"08:00","closing":"13:00"}]}]},{"storeNumber":"279","address":{"name":"DUNAHARASZTI 279 SZ. BOLT","street":"Als\u00f3n\u00e9medi \u00fat 69.","zip":"2330","city":"Dunaharaszti"},"location":{"lat":47.34442,"lon":19.11919},"openingHours":[{"weekDay":1,"timeRanges":[{"opening":"09:00","closing":"20:00"}]},{"weekDay":2,"timeRanges":[{"opening":"09:00","closing":"20:00"}]},{"weekDay":3,"timeRanges":[{"opening":"09:00","closing":"20:00"}]},{"weekDay":4,"timeRanges":[{"opening":"09:00","closing":"20:00"}]},{"weekDay":5,"timeRanges":[{"opening":"09:00","closing":"20:00"}]},{"weekDay":6,"timeRanges":[{"opening":"09:00","closing":"20:00"}]},{"weekDay":7,"timeRanges":[{"opening":"09:00","closing":"18:00"}]}]},{"storeNumber":"281","address":{"name":"Tapolca 281. SZ. BOLT","street":"F\u0151 t\u00e9r 4.","zip":"8300","city":"Tapolca"},"location":{"lat":46.88259,"lon":17.43995},"openingHours":[{"weekDay":1,"timeRanges":[{"opening":"08:00","closing":"18:00"}]},{"weekDay":2,"timeRanges":[{"opening":"08:00","closing":"18:00"}]},{"weekDay":3,"timeRanges":[{"opening":"08:00","closing":"18:00"}]},{"weekDay":4,"timeRanges":[{"opening":"08:00","closing":"18:00"}]},{"weekDay":5,"timeRanges":[{"opening":"08:00","closing":"18:00"}]},{"weekDay":6,"timeRanges":[{"opening":"08:00","closing":"15:00"}]}]},{"storeNumber":"282","address":{"name":"MISKOLC 282 SZ. BOLT","street":"M\u00e9sztelep utca 1\/a.","zip":"3508","city":"Miskolc"},"location":{"lat":48.07327,"lon":20.77839},"openingHours":[{"weekDay":1,"timeRanges":[{"opening":"09:00","closing":"19:00"}]},{"weekDay":2,"timeRanges":[{"opening":"09:00","closing":"19:00"}]},{"weekDay":3,"timeRanges":[{"opening":"09:00","closing":"19:00"}]},{"weekDay":4,"timeRanges":[{"opening":"09:00","closing":"19:00"}]},{"weekDay":5,"timeRanges":[{"opening":"09:00","closing":"19:00"}]},{"weekDay":6,"timeRanges":[{"opening":"09:00","closing":"19:00"}]},{"weekDay":7,"timeRanges":[{"opening":"10:00","closing":"17:00"}]}]},{"storeNumber":"285","address":{"name":"J\u00c1SZBER\u00c9NY 285 SZ. BOLT","street":"Nagyk\u00e1tai \u00fat 24\/A","zip":"5100","city":"J\u00e1szber\u00e9ny"},"location":{"lat":47.4883849,"lon":19.8863768},"openingHours":[{"weekDay":1,"timeRanges":[{"opening":"09:00","closing":"19:00"}]},{"weekDay":2,"timeRanges":[{"opening":"09:00","closing":"19:00"}]},{"weekDay":3,"timeRanges":[{"opening":"09:00","closing":"19:00"}]},{"weekDay":4,"timeRanges":[{"opening":"09:00","closing":"19:00"}]},{"weekDay":5,"timeRanges":[{"opening":"09:00","closing":"19:00"}]},{"weekDay":6,"timeRanges":[{"opening":"09:00","closing":"18:00"}]},{"weekDay":7,"timeRanges":[{"opening":"09:00","closing":"14:00"}]}]},{"storeNumber":"286","address":{"name":"ZALAEGERSZEG 286 SZ. BOLT","street":"Balatoni \u00fat 5-7.","zip":"8900","city":"Zalaegerszeg"},"location":{"lat":46.8407567,"lon":16.8673517},"openingHours":[{"weekDay":1,"timeRanges":[{"opening":"09:00","closing":"20:00"}]},{"weekDay":2,"timeRanges":[{"opening":"09:00","closing":"20:00"}]},{"weekDay":3,"timeRanges":[{"opening":"09:00","closing":"20:00"}]},{"weekDay":4,"timeRanges":[{"opening":"09:00","closing":"20:00"}]},{"weekDay":5,"timeRanges":[{"opening":"09:00","closing":"20:00"}]},{"weekDay":6,"timeRanges":[{"opening":"09:00","closing":"20:00"}]},{"weekDay":7,"timeRanges":[{"opening":"10:00","closing":"18:00"}]}]},{"storeNumber":"289","address":{"name":"\u00c9RD 289 SZ. BOLT","street":"Budafoki \u00fat 2-4.","zip":"2030","city":"\u00c9rd"},"location":{"lat":47.37756,"lon":18.93766},"openingHours":[{"weekDay":1,"timeRanges":[{"opening":"09:00","closing":"20:00"}]},{"weekDay":2,"timeRanges":[{"opening":"09:00","closing":"20:00"}]},{"weekDay":3,"timeRanges":[{"opening":"09:00","closing":"20:00"}]},{"weekDay":4,"timeRanges":[{"opening":"09:00","closing":"20:00"}]},{"weekDay":5,"timeRanges":[{"opening":"09:00","closing":"20:00"}]},{"weekDay":6,"timeRanges":[{"opening":"09:00","closing":"20:00"}]},{"weekDay":7,"timeRanges":[{"opening":"09:00","closing":"18:00"}]}]},{"storeNumber":"290","address":{"name":"BUDAPEST 290 SZ. BOLT","street":"Cziffra Gy\u00f6rgy utca 15\/b.","zip":"1186","city":"Budapest"},"location":{"lat":47.43273,"lon":19.17798},"openingHours":[{"weekDay":1,"timeRanges":[{"opening":"08:00","closing":"20:00"}]},{"weekDay":2,"timeRanges":[{"opening":"08:00","closing":"20:00"}]},{"weekDay":3,"timeRanges":[{"opening":"08:00","closing":"20:00"}]},{"weekDay":4,"timeRanges":[{"opening":"08:00","closing":"20:00"}]},{"weekDay":5,"timeRanges":[{"opening":"08:00","closing":"20:00"}]},{"weekDay":6,"timeRanges":[{"opening":"08:00","closing":"20:00"}]},{"weekDay":7,"timeRanges":[{"opening":"08:00","closing":"16:00"}]}]},{"storeNumber":"291","address":{"name":"MOH\u00c1CS 291 SZ. BOLT","street":"P\u00e9csi \u00fat 61.","zip":"7700","city":"Moh\u00e1cs"},"location":{"lat":45.99616,"lon":18.65842},"openingHours":[{"weekDay":1,"timeRanges":[{"opening":"08:00","closing":"20:00"}]},{"weekDay":2,"timeRanges":[{"opening":"08:00","closing":"20:00"}]},{"weekDay":3,"timeRanges":[{"opening":"08:00","closing":"20:00"}]},{"weekDay":4,"timeRanges":[{"opening":"08:00","closing":"20:00"}]},{"weekDay":5,"timeRanges":[{"opening":"08:00","closing":"20:00"}]},{"weekDay":6,"timeRanges":[{"opening":"08:00","closing":"20:00"}]},{"weekDay":7,"timeRanges":[{"opening":"09:00","closing":"17:00"}]}]},{"storeNumber":"292","address":{"name":"SZENTES 292 SZ. BOLT","street":"Kossuth utca 14.","zip":"6600","city":"Szentes"},"location":{"lat":46.65173,"lon":20.26103},"openingHours":[{"weekDay":1,"timeRanges":[{"opening":"08:00","closing":"18:00"}]},{"weekDay":2,"timeRanges":[{"opening":"08:00","closing":"18:00"}]},{"weekDay":3,"timeRanges":[{"opening":"08:00","closing":"18:00"}]},{"weekDay":4,"timeRanges":[{"opening":"08:00","closing":"18:00"}]},{"weekDay":5,"timeRanges":[{"opening":"08:00","closing":"18:00"}]},{"weekDay":6,"timeRanges":[{"opening":"08:00","closing":"13:00"}]}]},{"storeNumber":"293","address":{"name":"GY\u0150R 293 SZ. BOLT","street":"Csipkegy\u00e1ri utca 11.","zip":"9025","city":"Gy\u0151r"},"location":{"lat":47.67744,"lon":17.61743},"openingHours":[{"weekDay":1,"timeRanges":[{"opening":"09:00","closing":"20:00"}]},{"weekDay":2,"timeRanges":[{"opening":"09:00","closing":"20:00"}]},{"weekDay":3,"timeRanges":[{"opening":"09:00","closing":"20:00"}]},{"weekDay":4,"timeRanges":[{"opening":"09:00","closing":"20:00"}]},{"weekDay":5,"timeRanges":[{"opening":"09:00","closing":"20:00"}]},{"weekDay":6,"timeRanges":[{"opening":"08:00","closing":"20:00"}]},{"weekDay":7,"timeRanges":[{"opening":"09:00","closing":"18:00"}]}]},{"storeNumber":"294","address":{"name":"SZOLNOK 294 SZ. BOLT","street":"M\u00e1ty\u00e1s kir\u00e1ly \u00fat 29.","zip":"5000","city":"Szolnok"},"location":{"lat":47.1802771,"lon":20.182412},"openingHours":[{"weekDay":1,"timeRanges":[{"opening":"08:00","closing":"20:00"}]},{"weekDay":2,"timeRanges":[{"opening":"08:00","closing":"20:00"}]},{"weekDay":3,"timeRanges":[{"opening":"08:00","closing":"20:00"}]},{"weekDay":4,"timeRanges":[{"opening":"08:00","closing":"20:00"}]},{"weekDay":5,"timeRanges":[{"opening":"08:00","closing":"20:00"}]},{"weekDay":6,"timeRanges":[{"opening":"08:00","closing":"20:00"}]},{"weekDay":7,"timeRanges":[{"opening":"08:00","closing":"17:00"}]}]},{"storeNumber":"295","address":{"name":"SZERENCS 295 SZ. BOLT","street":"Gy\u00e1r utca 40.","zip":"3900","city":"Szerencs"},"location":{"lat":48.15356,"lon":21.19246},"openingHours":[{"weekDay":1,"timeRanges":[{"opening":"09:00","closing":"19:00"}]},{"weekDay":2,"timeRanges":[{"opening":"09:00","closing":"19:00"}]},{"weekDay":3,"timeRanges":[{"opening":"09:00","closing":"19:00"}]},{"weekDay":4,"timeRanges":[{"opening":"09:00","closing":"19:00"}]},{"weekDay":5,"timeRanges":[{"opening":"09:00","closing":"19:00"}]},{"weekDay":6,"timeRanges":[{"opening":"09:00","closing":"19:00"}]},{"weekDay":7,"timeRanges":[{"opening":"09:00","closing":"17:00"}]}]},{"storeNumber":"296","address":{"name":"GY\u00d6NGY\u00d6S 296 SZ. BOLT","street":"V\u00e1s\u00e1r utca 2.","zip":"3200","city":"Gy\u00f6ngy\u00f6s"},"location":{"lat":47.76943,"lon":19.91317},"openingHours":[{"weekDay":1,"timeRanges":[{"opening":"08:00","closing":"20:00"}]},{"weekDay":2,"timeRanges":[{"opening":"08:00","closing":"20:00"}]},{"weekDay":3,"timeRanges":[{"opening":"08:00","closing":"20:00"}]},{"weekDay":4,"timeRanges":[{"opening":"08:00","closing":"20:00"}]},{"weekDay":5,"timeRanges":[{"opening":"08:00","closing":"20:00"}]},{"weekDay":6,"timeRanges":[{"opening":"08:00","closing":"20:00"}]},{"weekDay":7,"timeRanges":[{"opening":"08:00","closing":"19:00"}]}]},{"storeNumber":"297","address":{"name":"KECSKEM\u00c9T 297 SZ. BOLT","street":"Izs\u00e1ki \u00fat 12.","zip":"6000","city":"Kecskem\u00e9t"},"location":{"lat":46.89344,"lon":19.66617},"openingHours":[{"weekDay":1,"timeRanges":[{"opening":"08:00","closing":"20:00"}]},{"weekDay":2,"timeRanges":[{"opening":"08:00","closing":"20:00"}]},{"weekDay":3,"timeRanges":[{"opening":"08:00","closing":"20:00"}]},{"weekDay":4,"timeRanges":[{"opening":"08:00","closing":"20:00"}]},{"weekDay":5,"timeRanges":[{"opening":"08:00","closing":"20:00"}]},{"weekDay":6,"timeRanges":[{"opening":"08:00","closing":"20:00"}]},{"weekDay":7,"timeRanges":[{"opening":"10:00","closing":"18:00"}]}]},{"storeNumber":"298","address":{"name":"T\u00d6K\u00d6L 298 SZ. BOLT","street":"Hermina utca 3.","zip":"2316","city":"T\u00f6k\u00f6l"},"location":{"lat":47.33807,"lon":18.9959},"openingHours":[{"weekDay":1,"timeRanges":[{"opening":"09:00","closing":"20:00"}]},{"weekDay":2,"timeRanges":[{"opening":"09:00","closing":"20:00"}]},{"weekDay":3,"timeRanges":[{"opening":"09:00","closing":"20:00"}]},{"weekDay":4,"timeRanges":[{"opening":"09:00","closing":"20:00"}]},{"weekDay":5,"timeRanges":[{"opening":"09:00","closing":"20:00"}]},{"weekDay":6,"timeRanges":[{"opening":"09:00","closing":"20:00"}]},{"weekDay":7,"timeRanges":[{"opening":"09:00","closing":"18:00"}]}]},{"storeNumber":"299","address":{"name":"\u00d3CSA 299 SZ. BOLT","street":"Szabads\u00e1g t\u00e9r 3.","zip":"2364","city":"\u00d3csa"},"location":{"lat":47.29329,"lon":19.22729},"openingHours":[{"weekDay":1,"timeRanges":[{"opening":"08:00","closing":"19:00"}]},{"weekDay":2,"timeRanges":[{"opening":"08:00","closing":"19:00"}]},{"weekDay":3,"timeRanges":[{"opening":"08:00","closing":"19:00"}]},{"weekDay":4,"timeRanges":[{"opening":"08:00","closing":"19:00"}]},{"weekDay":5,"timeRanges":[{"opening":"08:00","closing":"19:00"}]},{"weekDay":6,"timeRanges":[{"opening":"08:00","closing":"14:00"}]}]},{"storeNumber":"30","address":{"name":"BUDAPEST 030 SZ. BOLT","street":"J\u00f3zsef k\u00f6r\u00fat 46.","zip":"1085","city":"Budapest"},"location":{"lat":47.49047,"lon":19.07091},"openingHours":[{"weekDay":1,"timeRanges":[{"opening":"08:00","closing":"20:00"}]},{"weekDay":2,"timeRanges":[{"opening":"08:00","closing":"20:00"}]},{"weekDay":3,"timeRanges":[{"opening":"08:00","closing":"20:00"}]},{"weekDay":4,"timeRanges":[{"opening":"08:00","closing":"20:00"}]},{"weekDay":5,"timeRanges":[{"opening":"08:00","closing":"20:00"}]},{"weekDay":6,"timeRanges":[{"opening":"09:00","closing":"18:00"}]}]},{"storeNumber":"300","address":{"name":"CEGL\u00c9D 300 SZ. BOLT","street":"Kossuth Ferenc utca 6.","zip":"2700","city":"Cegl\u00e9d"},"location":{"lat":47.17207,"lon":19.79677},"openingHours":[{"weekDay":1,"timeRanges":[{"opening":"08:00","closing":"19:00"}]},{"weekDay":2,"timeRanges":[{"opening":"08:00","closing":"19:00"}]},{"weekDay":3,"timeRanges":[{"opening":"08:00","closing":"19:00"}]},{"weekDay":4,"timeRanges":[{"opening":"08:00","closing":"19:00"}]},{"weekDay":5,"timeRanges":[{"opening":"08:00","closing":"19:00"}]},{"weekDay":6,"timeRanges":[{"opening":"08:00","closing":"15:00"}]}]},{"storeNumber":"301","address":{"name":"B\u00dcK 301 SZ. BOLT","street":"Kossuth Lajos utca 127\/a.","zip":"9737","city":"B\u00fck"},"location":{"lat":47.3749782,"lon":16.7707072},"openingHours":[{"weekDay":1,"timeRanges":[{"opening":"08:00","closing":"19:00"}]},{"weekDay":2,"timeRanges":[{"opening":"08:00","closing":"19:00"}]},{"weekDay":3,"timeRanges":[{"opening":"08:00","closing":"19:00"}]},{"weekDay":4,"timeRanges":[{"opening":"08:00","closing":"19:00"}]},{"weekDay":5,"timeRanges":[{"opening":"08:00","closing":"19:00"}]},{"weekDay":6,"timeRanges":[{"opening":"08:00","closing":"18:00"}]}]},{"storeNumber":"302","address":{"name":"NAGYKANIZSA 302 SZ. BOLT","street":"Kir\u00e1ly utca 36.","zip":"8800","city":"Nagykanizsa"},"location":{"lat":46.45509,"lon":16.98747},"openingHours":[{"weekDay":1,"timeRanges":[{"opening":"08:00","closing":"19:00"}]},{"weekDay":2,"timeRanges":[{"opening":"08:00","closing":"19:00"}]},{"weekDay":3,"timeRanges":[{"opening":"08:00","closing":"19:00"}]},{"weekDay":4,"timeRanges":[{"opening":"08:00","closing":"19:00"}]},{"weekDay":5,"timeRanges":[{"opening":"08:00","closing":"19:00"}]},{"weekDay":6,"timeRanges":[{"opening":"08:00","closing":"13:00"}]}]},{"storeNumber":"303","address":{"name":"BUDAPEST 303. SZ. BOLT","street":"Kisfaludy utca 32-38.","zip":"1082","city":"Budapest"},"location":{"lat":47.4862591,"lon":19.0738342},"openingHours":[{"weekDay":1,"timeRanges":[{"opening":"09:00","closing":"21:00"}]},{"weekDay":2,"timeRanges":[{"opening":"09:00","closing":"21:00"}]},{"weekDay":3,"timeRanges":[{"opening":"09:00","closing":"21:00"}]},{"weekDay":4,"timeRanges":[{"opening":"09:00","closing":"21:00"}]},{"weekDay":5,"timeRanges":[{"opening":"09:00","closing":"21:00"}]},{"weekDay":6,"timeRanges":[{"opening":"09:00","closing":"21:00"}]},{"weekDay":7,"timeRanges":[{"opening":"10:00","closing":"19:00"}]}]},{"storeNumber":"304","address":{"name":"SZEGED 304 SZ. BOLT","street":"Londoni k\u00f6r\u00fat 3.","zip":"6724","city":"Szeged"},"location":{"lat":46.2547691,"lon":20.1377251},"openingHours":[{"weekDay":1,"timeRanges":[{"opening":"09:00","closing":"20:00"}]},{"weekDay":2,"timeRanges":[{"opening":"09:00","closing":"20:00"}]},{"weekDay":3,"timeRanges":[{"opening":"09:00","closing":"20:00"}]},{"weekDay":4,"timeRanges":[{"opening":"09:00","closing":"20:00"}]},{"weekDay":5,"timeRanges":[{"opening":"09:00","closing":"20:00"}]},{"weekDay":6,"timeRanges":[{"opening":"09:00","closing":"20:00"}]},{"weekDay":7,"timeRanges":[{"opening":"10:00","closing":"18:00"}]}]},{"storeNumber":"306","address":{"name":"DUNAKESZI 306 SZ. BOLT","street":"F\u0151 \u00fat 190.","zip":"2120","city":"Dunakeszi"},"location":{"lat":47.65558,"lon":19.12972},"openingHours":[{"weekDay":1,"timeRanges":[{"opening":"08:00","closing":"20:00"}]},{"weekDay":2,"timeRanges":[{"opening":"08:00","closing":"20:00"}]},{"weekDay":3,"timeRanges":[{"opening":"08:00","closing":"20:00"}]},{"weekDay":4,"timeRanges":[{"opening":"08:00","closing":"20:00"}]},{"weekDay":5,"timeRanges":[{"opening":"08:00","closing":"20:00"}]},{"weekDay":6,"timeRanges":[{"opening":"08:00","closing":"19:00"}]},{"weekDay":7,"timeRanges":[{"opening":"08:00","closing":"15:00"}]}]},{"storeNumber":"307","address":{"name":"V\u00c1C 307 SZ. BOLT","street":"Deres utca 2.","zip":"2600","city":"V\u00e1c"},"location":{"lat":47.7551812,"lon":19.1455689},"openingHours":[{"weekDay":1,"timeRanges":[{"opening":"08:00","closing":"20:00"}]},{"weekDay":2,"timeRanges":[{"opening":"08:00","closing":"20:00"}]},{"weekDay":3,"timeRanges":[{"opening":"08:00","closing":"20:00"}]},{"weekDay":4,"timeRanges":[{"opening":"08:00","closing":"20:00"}]},{"weekDay":5,"timeRanges":[{"opening":"08:00","closing":"20:00"}]},{"weekDay":6,"timeRanges":[{"opening":"08:00","closing":"19:00"}]},{"weekDay":7,"timeRanges":[{"opening":"08:00","closing":"15:00"}]}]},{"storeNumber":"308","address":{"name":"BUDAPEST 308. SZ. BOLT","street":"B\u00e9csi \u00fat 33-35.","zip":"1023","city":"Budapest"},"location":{"lat":47.52717,"lon":19.03827},"openingHours":[{"weekDay":1,"timeRanges":[{"opening":"08:00","closing":"19:00"}]},{"weekDay":2,"timeRanges":[{"opening":"08:00","closing":"19:00"}]},{"weekDay":3,"timeRanges":[{"opening":"08:00","closing":"19:00"}]},{"weekDay":4,"timeRanges":[{"opening":"08:00","closing":"19:00"}]},{"weekDay":5,"timeRanges":[{"opening":"08:00","closing":"19:00"}]},{"weekDay":6,"timeRanges":[{"opening":"09:00","closing":"15:00"}]}]},{"storeNumber":"31","address":{"name":"DUNA\u00daJV\u00c1ROS 031 SZ. BOLT","street":"D\u00f3zsa Gy\u00f6rgy utca 4\/b.","zip":"2400","city":"Duna\u00fajv\u00e1ros"},"location":{"lat":46.96344,"lon":18.9364},"openingHours":[{"weekDay":1,"timeRanges":[{"opening":"08:00","closing":"19:00"}]},{"weekDay":2,"timeRanges":[{"opening":"08:00","closing":"19:00"}]},{"weekDay":3,"timeRanges":[{"opening":"08:00","closing":"19:00"}]},{"weekDay":4,"timeRanges":[{"opening":"08:00","closing":"19:00"}]},{"weekDay":5,"timeRanges":[{"opening":"08:00","closing":"19:00"}]},{"weekDay":6,"timeRanges":[{"opening":"08:00","closing":"14:00"}]}]},{"storeNumber":"311","address":{"name":"BUDA\u00d6RS 311 SZ. BOLT","street":"Malomk\u0151 utca 7.","zip":"2040","city":"Buda\u00f6rs"},"location":{"lat":47.45429,"lon":18.97466},"openingHours":[{"weekDay":1,"timeRanges":[{"opening":"09:00","closing":"20:00"}]},{"weekDay":2,"timeRanges":[{"opening":"09:00","closing":"20:00"}]},{"weekDay":3,"timeRanges":[{"opening":"09:00","closing":"20:00"}]},{"weekDay":4,"timeRanges":[{"opening":"09:00","closing":"20:00"}]},{"weekDay":5,"timeRanges":[{"opening":"09:00","closing":"20:00"}]},{"weekDay":6,"timeRanges":[{"opening":"09:00","closing":"20:00"}]},{"weekDay":7,"timeRanges":[{"opening":"09:00","closing":"19:00"}]}]},{"storeNumber":"312","address":{"name":"DUNAF\u00d6LDV\u00c1R 312 SZ. BOLT","street":"B\u00e9ke t\u00e9r 14.","zip":"7020","city":"Dunaf\u00f6ldv\u00e1r"},"location":{"lat":46.80628,"lon":18.92488},"openingHours":[{"weekDay":1,"timeRanges":[{"opening":"08:00","closing":"18:00"}]},{"weekDay":2,"timeRanges":[{"opening":"08:00","closing":"18:00"}]},{"weekDay":3,"timeRanges":[{"opening":"08:00","closing":"18:00"}]},{"weekDay":4,"timeRanges":[{"opening":"08:00","closing":"18:00"}]},{"weekDay":5,"timeRanges":[{"opening":"08:00","closing":"18:00"}]},{"weekDay":6,"timeRanges":[{"opening":"08:00","closing":"13:00"}]}]},{"storeNumber":"313","address":{"name":"SZ\u00c9KESFEH\u00c9RV\u00c1R 313 SZ. BOLT","street":"Budai \u00fat 41.","zip":"8000","city":"Sz\u00e9kesfeh\u00e9rv\u00e1r"},"location":{"lat":47.19157,"lon":18.42424},"openingHours":[{"weekDay":1,"timeRanges":[{"opening":"08:00","closing":"19:00"}]},{"weekDay":2,"timeRanges":[{"opening":"08:00","closing":"19:00"}]},{"weekDay":3,"timeRanges":[{"opening":"08:00","closing":"19:00"}]},{"weekDay":4,"timeRanges":[{"opening":"08:00","closing":"19:00"}]},{"weekDay":5,"timeRanges":[{"opening":"08:00","closing":"19:00"}]},{"weekDay":6,"timeRanges":[{"opening":"08:00","closing":"19:00"}]},{"weekDay":7,"timeRanges":[{"opening":"09:00","closing":"17:00"}]}]},{"storeNumber":"314","address":{"name":"BUDAPEST 314. SZ. BOLT","street":"K\u00f6nyves K\u00e1lm\u00e1n k\u00f6r\u00fat 12-14","zip":"1097","city":"Budapest"},"location":{"lat":47.4701036,"lon":19.0846317},"openingHours":[{"weekDay":1,"timeRanges":[{"opening":"09:00","closing":"20:00"}]},{"weekDay":2,"timeRanges":[{"opening":"09:00","closing":"20:00"}]},{"weekDay":3,"timeRanges":[{"opening":"09:00","closing":"20:00"}]},{"weekDay":4,"timeRanges":[{"opening":"09:00","closing":"20:00"}]},{"weekDay":5,"timeRanges":[{"opening":"09:00","closing":"20:00"}]},{"weekDay":6,"timeRanges":[{"opening":"09:00","closing":"20:00"}]},{"weekDay":7,"timeRanges":[{"opening":"09:00","closing":"19:00"}]}]},{"storeNumber":"315","address":{"name":"NAGYAT\u00c1D 315 SZ. BOLT","street":"Kor\u00e1nyi S\u00e1ndor utca 21-23.","zip":"7500","city":"Nagyat\u00e1d"},"location":{"lat":46.23076,"lon":17.36153},"openingHours":[{"weekDay":1,"timeRanges":[{"opening":"08:00","closing":"18:00"}]},{"weekDay":2,"timeRanges":[{"opening":"08:00","closing":"18:00"}]},{"weekDay":3,"timeRanges":[{"opening":"08:00","closing":"18:00"}]},{"weekDay":4,"timeRanges":[{"opening":"08:00","closing":"18:00"}]},{"weekDay":5,"timeRanges":[{"opening":"08:00","closing":"18:00"}]},{"weekDay":6,"timeRanges":[{"opening":"08:00","closing":"14:00"}]}]},{"storeNumber":"316","address":{"name":"G\u00c1RDONY 316 SZ. BOLT","street":"Szabads\u00e1g \u00fat 10.","zip":"2483","city":"G\u00e1rdony"},"location":{"lat":47.20756,"lon":18.62923},"openingHours":[{"weekDay":1,"timeRanges":[{"opening":"08:00","closing":"19:00"}]},{"weekDay":2,"timeRanges":[{"opening":"08:00","closing":"19:00"}]},{"weekDay":3,"timeRanges":[{"opening":"08:00","closing":"19:00"}]},{"weekDay":4,"timeRanges":[{"opening":"08:00","closing":"19:00"}]},{"weekDay":5,"timeRanges":[{"opening":"08:00","closing":"19:00"}]},{"weekDay":6,"timeRanges":[{"opening":"08:00","closing":"19:00"}]},{"weekDay":7,"timeRanges":[{"opening":"09:00","closing":"17:00"}]}]},{"storeNumber":"317","address":{"name":"H\u00f3dmez\u0151v\u00e1s\u00e1rhely 317. SZ. BOLT","street":"Kaszap utca 20.","zip":"6800","city":"H\u00f3dmez\u0151v\u00e1s\u00e1rhely"},"location":{"lat":46.4099,"lon":20.32195},"openingHours":[{"weekDay":1,"timeRanges":[{"opening":"09:00","closing":"19:00"}]},{"weekDay":2,"timeRanges":[{"opening":"09:00","closing":"19:00"}]},{"weekDay":3,"timeRanges":[{"opening":"09:00","closing":"19:00"}]},{"weekDay":4,"timeRanges":[{"opening":"09:00","closing":"19:00"}]},{"weekDay":5,"timeRanges":[{"opening":"09:00","closing":"19:00"}]},{"weekDay":6,"timeRanges":[{"opening":"09:00","closing":"19:00"}]}]},{"storeNumber":"318","address":{"name":"BUDAPEST 318. SZ. BOLT","street":"P\u00e1zsit utca 2.","zip":"1026","city":"Budapest"},"location":{"lat":47.51631,"lon":18.9999},"openingHours":[{"weekDay":1,"timeRanges":[{"opening":"09:00","closing":"19:00"}]},{"weekDay":2,"timeRanges":[{"opening":"09:00","closing":"19:00"}]},{"weekDay":3,"timeRanges":[{"opening":"09:00","closing":"19:00"}]},{"weekDay":4,"timeRanges":[{"opening":"09:00","closing":"19:00"}]},{"weekDay":5,"timeRanges":[{"opening":"09:00","closing":"19:00"}]},{"weekDay":6,"timeRanges":[{"opening":"09:00","closing":"17:00"}]}]},{"storeNumber":"319","address":{"name":"BUDAPEST 319. SZ. BOLT","street":"\u00d6rs vez\u00e9r t\u00e9r 24.","zip":"1148","city":"Budapest"},"location":{"lat":47.504326,"lon":19.1379327},"openingHours":[{"weekDay":1,"timeRanges":[{"opening":"08:00","closing":"20:00"}]},{"weekDay":2,"timeRanges":[{"opening":"08:00","closing":"20:00"}]},{"weekDay":3,"timeRanges":[{"opening":"08:00","closing":"20:00"}]},{"weekDay":4,"timeRanges":[{"opening":"08:00","closing":"20:00"}]},{"weekDay":5,"timeRanges":[{"opening":"08:00","closing":"20:00"}]},{"weekDay":6,"timeRanges":[{"opening":"08:00","closing":"20:00"}]},{"weekDay":7,"timeRanges":[{"opening":"10:00","closing":"18:00"}]}]},{"storeNumber":"32","address":{"name":"SZ\u00c9KESFEH\u00c9RV\u00c1R 032 SZ. BOLT","street":"Dr. Koch L\u00e1szl\u00f3 utca 2.","zip":"8000","city":"Sz\u00e9kesfeh\u00e9rv\u00e1r"},"location":{"lat":47.19447,"lon":18.40914},"openingHours":[{"weekDay":1,"timeRanges":[{"opening":"08:00","closing":"19:00"}]},{"weekDay":2,"timeRanges":[{"opening":"08:00","closing":"19:00"}]},{"weekDay":3,"timeRanges":[{"opening":"08:00","closing":"19:00"}]},{"weekDay":4,"timeRanges":[{"opening":"08:00","closing":"19:00"}]},{"weekDay":5,"timeRanges":[{"opening":"08:00","closing":"19:00"}]},{"weekDay":6,"timeRanges":[{"opening":"08:00","closing":"14:00"}]}]},{"storeNumber":"320","address":{"name":"EGER 320. SZ. BOLT","street":"Dob\u00f3 t\u00e9r 1.","zip":"3300","city":"Eger"},"location":{"lat":47.90275,"lon":20.37604},"openingHours":[{"weekDay":1,"timeRanges":[{"opening":"09:00","closing":"19:00"}]},{"weekDay":2,"timeRanges":[{"opening":"09:00","closing":"19:00"}]},{"weekDay":3,"timeRanges":[{"opening":"09:00","closing":"19:00"}]},{"weekDay":4,"timeRanges":[{"opening":"09:00","closing":"19:00"}]},{"weekDay":5,"timeRanges":[{"opening":"09:00","closing":"19:00"}]},{"weekDay":6,"timeRanges":[{"opening":"08:00","closing":"14:00"}]}]},{"storeNumber":"321","address":{"name":"BUDAPEST 321 SZ. BOLT","street":"G\u00e1cs utca 3.","zip":"1138","city":"Budapest"},"location":{"lat":47.5548714,"lon":19.0797415},"openingHours":[{"weekDay":1,"timeRanges":[{"opening":"08:00","closing":"20:00"}]},{"weekDay":2,"timeRanges":[{"opening":"08:00","closing":"20:00"}]},{"weekDay":3,"timeRanges":[{"opening":"08:00","closing":"20:00"}]},{"weekDay":4,"timeRanges":[{"opening":"08:00","closing":"20:00"}]},{"weekDay":5,"timeRanges":[{"opening":"08:00","closing":"20:00"}]},{"weekDay":6,"timeRanges":[{"opening":"08:00","closing":"20:00"}]},{"weekDay":7,"timeRanges":[{"opening":"09:00","closing":"19:00"}]}]},{"storeNumber":"322","address":{"name":"MAK\u00d3 322 SZ. BOLT","street":"Sz\u00e9chenyi t\u00e9r 21-23.","zip":"6900","city":"Mak\u00f3"},"location":{"lat":46.21471,"lon":20.4773},"openingHours":[{"weekDay":1,"timeRanges":[{"opening":"08:00","closing":"18:00"}]},{"weekDay":2,"timeRanges":[{"opening":"08:00","closing":"18:00"}]},{"weekDay":3,"timeRanges":[{"opening":"08:00","closing":"18:00"}]},{"weekDay":4,"timeRanges":[{"opening":"08:00","closing":"18:00"}]},{"weekDay":5,"timeRanges":[{"opening":"08:00","closing":"18:00"}]},{"weekDay":6,"timeRanges":[{"opening":"08:00","closing":"13:00"}]}]},{"storeNumber":"323","address":{"name":"ZALAEGERSZEG 323.SZ. BOLT","street":"Kossuth utca 21-23.","zip":"8900","city":"Zalaegerszeg"},"location":{"lat":46.8411154,"lon":16.8456827},"openingHours":[{"weekDay":1,"timeRanges":[{"opening":"08:00","closing":"19:00"}]},{"weekDay":2,"timeRanges":[{"opening":"08:00","closing":"19:00"}]},{"weekDay":3,"timeRanges":[{"opening":"08:00","closing":"19:00"}]},{"weekDay":4,"timeRanges":[{"opening":"08:00","closing":"19:00"}]},{"weekDay":5,"timeRanges":[{"opening":"08:00","closing":"19:00"}]},{"weekDay":6,"timeRanges":[{"opening":"08:00","closing":"14:00"}]}]},{"storeNumber":"324","address":{"name":"BICSKE 324.SZ. BOLT","street":"Kossuth t\u00e9r 1.","zip":"2060","city":"Bicske"},"location":{"lat":47.49131,"lon":18.63528},"openingHours":[{"weekDay":1,"timeRanges":[{"opening":"08:00","closing":"19:00"}]},{"weekDay":2,"timeRanges":[{"opening":"08:00","closing":"19:00"}]},{"weekDay":3,"timeRanges":[{"opening":"08:00","closing":"19:00"}]},{"weekDay":4,"timeRanges":[{"opening":"08:00","closing":"19:00"}]},{"weekDay":5,"timeRanges":[{"opening":"08:00","closing":"19:00"}]},{"weekDay":6,"timeRanges":[{"opening":"08:00","closing":"14:00"}]}]},{"storeNumber":"325","address":{"name":"BUDAPEST 325 SZ. BOLT","street":"V\u00e1ci \u00fat 20-26.","zip":"1132","city":"Budapest"},"location":{"lat":47.51459,"lon":19.05853},"openingHours":[{"weekDay":1,"timeRanges":[{"opening":"07:00","closing":"19:00"}]},{"weekDay":2,"timeRanges":[{"opening":"07:00","closing":"19:00"}]},{"weekDay":3,"timeRanges":[{"opening":"07:00","closing":"19:00"}]},{"weekDay":4,"timeRanges":[{"opening":"07:00","closing":"19:00"}]},{"weekDay":5,"timeRanges":[{"opening":"07:00","closing":"19:00"}]},{"weekDay":6,"timeRanges":[{"opening":"08:00","closing":"16:00"}]}]},{"storeNumber":"326","address":{"name":"BUDAPEST 326 SZ. BOLT","street":"Vak Botty\u00e1n utca 75\/a-c.","zip":"1191","city":"Budapest"},"location":{"lat":47.46242,"lon":19.14787},"openingHours":[{"weekDay":1,"timeRanges":[{"opening":"09:00","closing":"20:00"}]},{"weekDay":2,"timeRanges":[{"opening":"09:00","closing":"20:00"}]},{"weekDay":3,"timeRanges":[{"opening":"09:00","closing":"20:00"}]},{"weekDay":4,"timeRanges":[{"opening":"09:00","closing":"20:00"}]},{"weekDay":5,"timeRanges":[{"opening":"09:00","closing":"20:00"}]},{"weekDay":6,"timeRanges":[{"opening":"09:00","closing":"20:00"}]},{"weekDay":7,"timeRanges":[{"opening":"09:00","closing":"18:00"}]}]},{"storeNumber":"328","address":{"name":"PILISV\u00d6R\u00d6SV\u00c1R 328. SZ. BOLT","street":"F\u0151 \u00fat 33.","zip":"2085","city":"Pilisv\u00f6r\u00f6sv\u00e1r"},"location":{"lat":47.61832,"lon":18.91354},"openingHours":[{"weekDay":1,"timeRanges":[{"opening":"08:00","closing":"19:00"}]},{"weekDay":2,"timeRanges":[{"opening":"08:00","closing":"19:00"}]},{"weekDay":3,"timeRanges":[{"opening":"08:00","closing":"19:00"}]},{"weekDay":4,"timeRanges":[{"opening":"08:00","closing":"19:00"}]},{"weekDay":5,"timeRanges":[{"opening":"08:00","closing":"19:00"}]},{"weekDay":6,"timeRanges":[{"opening":"08:00","closing":"15:00"}]}]},{"storeNumber":"33","address":{"name":"V\u00c1C 033 SZ. BOLT","street":"Sz\u00e9chenyi utca 15-17.","zip":"2600","city":"V\u00e1c"},"location":{"lat":47.77961,"lon":19.12954},"openingHours":[{"weekDay":1,"timeRanges":[{"opening":"08:00","closing":"19:00"}]},{"weekDay":2,"timeRanges":[{"opening":"08:00","closing":"19:00"}]},{"weekDay":3,"timeRanges":[{"opening":"08:00","closing":"19:00"}]},{"weekDay":4,"timeRanges":[{"opening":"08:00","closing":"19:00"}]},{"weekDay":5,"timeRanges":[{"opening":"08:00","closing":"19:00"}]},{"weekDay":6,"timeRanges":[{"opening":"08:00","closing":"14:00"}]}]},{"storeNumber":"330","address":{"name":"SI\u00d3FOK 330 SZ. BOLT","street":"F\u0151 t\u00e9r 6.","zip":"8600","city":"Si\u00f3fok"},"location":{"lat":46.90611,"lon":18.05194},"openingHours":[{"weekDay":1,"timeRanges":[{"opening":"08:00","closing":"20:00"}]},{"weekDay":2,"timeRanges":[{"opening":"08:00","closing":"20:00"}]},{"weekDay":3,"timeRanges":[{"opening":"08:00","closing":"20:00"}]},{"weekDay":4,"timeRanges":[{"opening":"08:00","closing":"20:00"}]},{"weekDay":5,"timeRanges":[{"opening":"08:00","closing":"20:00"}]},{"weekDay":6,"timeRanges":[{"opening":"08:00","closing":"20:00"}]},{"weekDay":7,"timeRanges":[{"opening":"09:00","closing":"20:00"}]}]},{"storeNumber":"331","address":{"name":"BUDAPEST 331. SZ. BOLT","street":"L\u00f3verseny t\u00e9r 3\/b.","zip":"1048","city":"Budapest"},"location":{"lat":47.58048,"lon":19.1146},"openingHours":[{"weekDay":1,"timeRanges":[{"opening":"08:00","closing":"19:00"}]},{"weekDay":2,"timeRanges":[{"opening":"08:00","closing":"19:00"}]},{"weekDay":3,"timeRanges":[{"opening":"08:00","closing":"19:00"}]},{"weekDay":4,"timeRanges":[{"opening":"08:00","closing":"19:00"}]},{"weekDay":5,"timeRanges":[{"opening":"08:00","closing":"19:00"}]},{"weekDay":6,"timeRanges":[{"opening":"08:00","closing":"16:00"}]}]},{"storeNumber":"332","address":{"name":"BUDAPEST 332 SZ. BOLT","street":"Andr\u00e1ssy \u00fat 35.","zip":"1061","city":"Budapest"},"location":{"lat":47.50338,"lon":19.06081},"openingHours":[{"weekDay":1,"timeRanges":[{"opening":"08:00","closing":"20:00"}]},{"weekDay":2,"timeRanges":[{"opening":"08:00","closing":"20:00"}]},{"weekDay":3,"timeRanges":[{"opening":"08:00","closing":"20:00"}]},{"weekDay":4,"timeRanges":[{"opening":"08:00","closing":"20:00"}]},{"weekDay":5,"timeRanges":[{"opening":"08:00","closing":"20:00"}]},{"weekDay":6,"timeRanges":[{"opening":"09:00","closing":"18:00"}]},{"weekDay":7,"timeRanges":[{"opening":"09:00","closing":"18:00"}]}]},{"storeNumber":"333","address":{"name":"BUDAPEST 333. SZ. BOLT","street":"Apor Vilmos t\u00e9r 11.","zip":"1124","city":"Budapest"},"location":{"lat":47.49123,"lon":19.01212},"openingHours":[{"weekDay":1,"timeRanges":[{"opening":"09:00","closing":"20:00"}]},{"weekDay":2,"timeRanges":[{"opening":"09:00","closing":"20:00"}]},{"weekDay":3,"timeRanges":[{"opening":"09:00","closing":"20:00"}]},{"weekDay":4,"timeRanges":[{"opening":"09:00","closing":"20:00"}]},{"weekDay":5,"timeRanges":[{"opening":"09:00","closing":"20:00"}]},{"weekDay":6,"timeRanges":[{"opening":"09:00","closing":"20:00"}]},{"weekDay":7,"timeRanges":[{"opening":"09:00","closing":"14:00"}]}]},{"storeNumber":"334","address":{"name":"BUDAPEST 334. SZ. BOLT","street":"S\u00fct\u0151 utca 2.","zip":"1052","city":"Budapest"},"location":{"lat":47.49671,"lon":19.05386},"openingHours":[{"weekDay":1,"timeRanges":[{"opening":"08:00","closing":"20:00"}]},{"weekDay":2,"timeRanges":[{"opening":"08:00","closing":"20:00"}]},{"weekDay":3,"timeRanges":[{"opening":"08:00","closing":"20:00"}]},{"weekDay":4,"timeRanges":[{"opening":"08:00","closing":"20:00"}]},{"weekDay":5,"timeRanges":[{"opening":"08:00","closing":"20:00"}]},{"weekDay":6,"timeRanges":[{"opening":"09:00","closing":"20:00"}]},{"weekDay":7,"timeRanges":[{"opening":"09:00","closing":"19:00"}]}]},{"storeNumber":"335","address":{"name":"VESZPR\u00c9M 335.SZ. BOLT","street":"D\u00f3zsa Gy\u00f6rgy t\u00e9r 1.","zip":"8200","city":"Veszpr\u00e9m"},"location":{"lat":47.1027,"lon":17.89879},"openingHours":[{"weekDay":1,"timeRanges":[{"opening":"08:00","closing":"19:00"}]},{"weekDay":2,"timeRanges":[{"opening":"08:00","closing":"19:00"}]},{"weekDay":3,"timeRanges":[{"opening":"08:00","closing":"19:00"}]},{"weekDay":4,"timeRanges":[{"opening":"08:00","closing":"19:00"}]},{"weekDay":5,"timeRanges":[{"opening":"08:00","closing":"19:00"}]},{"weekDay":6,"timeRanges":[{"opening":"08:00","closing":"15:00"}]}]},{"storeNumber":"338","address":{"name":"K\u0150SZEG 338. SZ. BOLT","street":"Pog\u00e1nyi \u00fat 7.","zip":"9730","city":"K\u0151szeg"},"location":{"lat":47.38015,"lon":16.55451},"openingHours":[{"weekDay":1,"timeRanges":[{"opening":"08:00","closing":"19:00"}]},{"weekDay":2,"timeRanges":[{"opening":"08:00","closing":"19:00"}]},{"weekDay":3,"timeRanges":[{"opening":"08:00","closing":"19:00"}]},{"weekDay":4,"timeRanges":[{"opening":"08:00","closing":"19:00"}]},{"weekDay":5,"timeRanges":[{"opening":"08:00","closing":"19:00"}]},{"weekDay":6,"timeRanges":[{"opening":"08:00","closing":"19:00"}]}]},{"storeNumber":"340","address":{"name":"BUDAPEST 340. SZ. BOLT","street":"Bev\u00e1s\u00e1rl\u00f3 utca 4.","zip":"1239","city":"Budapest"},"location":{"lat":47.4149388,"lon":19.1598579},"openingHours":[{"weekDay":1,"timeRanges":[{"opening":"08:00","closing":"20:00"}]},{"weekDay":2,"timeRanges":[{"opening":"08:00","closing":"20:00"}]},{"weekDay":3,"timeRanges":[{"opening":"08:00","closing":"20:00"}]},{"weekDay":4,"timeRanges":[{"opening":"08:00","closing":"20:00"}]},{"weekDay":5,"timeRanges":[{"opening":"08:00","closing":"20:00"}]},{"weekDay":6,"timeRanges":[{"opening":"08:00","closing":"20:00"}]},{"weekDay":7,"timeRanges":[{"opening":"08:00","closing":"19:00"}]}]},{"storeNumber":"341","address":{"name":"SOPRON 341. SZ. BOLT","street":"V\u00e1rker\u00fclet 100-102.","zip":"9400","city":"Sopron"},"location":{"lat":47.68409,"lon":16.59222},"openingHours":[{"weekDay":1,"timeRanges":[{"opening":"08:00","closing":"19:00"}]},{"weekDay":2,"timeRanges":[{"opening":"08:00","closing":"19:00"}]},{"weekDay":3,"timeRanges":[{"opening":"08:00","closing":"19:00"}]},{"weekDay":4,"timeRanges":[{"opening":"08:00","closing":"19:00"}]},{"weekDay":5,"timeRanges":[{"opening":"08:00","closing":"19:00"}]},{"weekDay":6,"timeRanges":[{"opening":"08:00","closing":"14:00"}]}]},{"storeNumber":"343","address":{"name":"BUDAPEST 343 SZ. BOLT","street":"V\u00e1ci \u00fat 1-3.","zip":"1062","city":"Budapest"},"location":{"lat":47.51362,"lon":19.0595},"openingHours":[{"weekDay":1,"timeRanges":[{"opening":"08:00","closing":"21:00"}]},{"weekDay":2,"timeRanges":[{"opening":"08:00","closing":"21:00"}]},{"weekDay":3,"timeRanges":[{"opening":"08:00","closing":"21:00"}]},{"weekDay":4,"timeRanges":[{"opening":"08:00","closing":"21:00"}]},{"weekDay":5,"timeRanges":[{"opening":"08:00","closing":"21:00"}]},{"weekDay":6,"timeRanges":[{"opening":"09:00","closing":"21:00"}]},{"weekDay":7,"timeRanges":[{"opening":"09:00","closing":"19:00"}]}]},{"storeNumber":"344","address":{"name":"Dorog 344. SZ BOLT","street":"Ella k\u00f6z 5.","zip":"2510","city":"Dorog"},"location":{"lat":47.72081,"lon":18.72927},"openingHours":[{"weekDay":1,"timeRanges":[{"opening":"08:00","closing":"19:00"}]},{"weekDay":2,"timeRanges":[{"opening":"08:00","closing":"19:00"}]},{"weekDay":3,"timeRanges":[{"opening":"08:00","closing":"19:00"}]},{"weekDay":4,"timeRanges":[{"opening":"08:00","closing":"19:00"}]},{"weekDay":5,"timeRanges":[{"opening":"08:00","closing":"19:00"}]},{"weekDay":6,"timeRanges":[{"opening":"08:00","closing":"13:00"}]}]},{"storeNumber":"345","address":{"name":"G\u00d6D\u00d6LL\u0150 345 SZ. BOLT","street":"Boss\u00e1nyi Krisztina u. 2.","zip":"2100","city":"G\u00f6d\u00f6ll\u0151"},"location":{"lat":47.60772,"lon":19.3393},"openingHours":[{"weekDay":1,"timeRanges":[{"opening":"09:00","closing":"20:00"}]},{"weekDay":2,"timeRanges":[{"opening":"09:00","closing":"20:00"}]},{"weekDay":3,"timeRanges":[{"opening":"09:00","closing":"20:00"}]},{"weekDay":4,"timeRanges":[{"opening":"09:00","closing":"20:00"}]},{"weekDay":5,"timeRanges":[{"opening":"09:00","closing":"20:00"}]},{"weekDay":6,"timeRanges":[{"opening":"08:00","closing":"19:00"}]},{"weekDay":7,"timeRanges":[{"opening":"09:00","closing":"18:00"}]}]},{"storeNumber":"346","address":{"name":"B\u00c9K\u00c9SCSABA 346 SZ. BOLT","street":"Szarvasi \u00fat 68\/2.","zip":"5600","city":"B\u00e9k\u00e9scsaba"},"location":{"lat":46.6806683,"lon":21.071252},"openingHours":[{"weekDay":1,"timeRanges":[{"opening":"09:00","closing":"20:00"}]},{"weekDay":2,"timeRanges":[{"opening":"09:00","closing":"20:00"}]},{"weekDay":3,"timeRanges":[{"opening":"09:00","closing":"20:00"}]},{"weekDay":4,"timeRanges":[{"opening":"09:00","closing":"20:00"}]},{"weekDay":5,"timeRanges":[{"opening":"09:00","closing":"20:00"}]},{"weekDay":6,"timeRanges":[{"opening":"09:00","closing":"20:00"}]},{"weekDay":7,"timeRanges":[{"opening":"10:00","closing":"18:00"}]}]},{"storeNumber":"347","address":{"name":"KOM\u00c1ROM 347. SZ. BOLT","street":"Klapka Gy\u00f6rgy \u00fat 1-3.","zip":"2900","city":"Kom\u00e1rom"},"location":{"lat":47.74372,"lon":18.11845},"openingHours":[{"weekDay":1,"timeRanges":[{"opening":"08:00","closing":"19:00"}]},{"weekDay":2,"timeRanges":[{"opening":"08:00","closing":"19:00"}]},{"weekDay":3,"timeRanges":[{"opening":"08:00","closing":"19:00"}]},{"weekDay":4,"timeRanges":[{"opening":"08:00","closing":"19:00"}]},{"weekDay":5,"timeRanges":[{"opening":"08:00","closing":"19:00"}]},{"weekDay":6,"timeRanges":[{"opening":"08:00","closing":"14:00"}]}]},{"storeNumber":"349","address":{"name":"NY\u00cdREGYH\u00c1ZA 349. SZ. BOLT","street":"Szegf\u0171 utca 75.","zip":"4400","city":"Ny\u00edregyh\u00e1za"},"location":{"lat":47.955263,"lon":21.732125},"openingHours":[{"weekDay":1,"timeRanges":[{"opening":"09:00","closing":"20:00"}]},{"weekDay":2,"timeRanges":[{"opening":"09:00","closing":"20:00"}]},{"weekDay":3,"timeRanges":[{"opening":"09:00","closing":"20:00"}]},{"weekDay":4,"timeRanges":[{"opening":"09:00","closing":"20:00"}]},{"weekDay":5,"timeRanges":[{"opening":"09:00","closing":"20:00"}]},{"weekDay":6,"timeRanges":[{"opening":"09:00","closing":"20:00"}]},{"weekDay":7,"timeRanges":[{"opening":"10:00","closing":"18:00"}]}]},{"storeNumber":"35","address":{"name":"KECSKEM\u00c9T 035 SZ. BOLT","street":"M\u00e1rcius 15. \u00fat 5\/a.","zip":"6000","city":"Kecskem\u00e9t"},"location":{"lat":46.91891,"lon":19.67423},"openingHours":[{"weekDay":1,"timeRanges":[{"opening":"08:00","closing":"19:00"}]},{"weekDay":2,"timeRanges":[{"opening":"08:00","closing":"19:00"}]},{"weekDay":3,"timeRanges":[{"opening":"08:00","closing":"19:00"}]},{"weekDay":4,"timeRanges":[{"opening":"08:00","closing":"19:00"}]},{"weekDay":5,"timeRanges":[{"opening":"08:00","closing":"19:00"}]},{"weekDay":6,"timeRanges":[{"opening":"08:00","closing":"17:00"}]},{"weekDay":7,"timeRanges":[{"opening":"08:00","closing":"13:00"}]}]},{"storeNumber":"350","address":{"name":"BUDA\u00d6RS 350. SZ BOLT","street":"Szabads\u00e1g \u00fat 40.","zip":"2040","city":"Buda\u00f6rs"},"location":{"lat":47.46111,"lon":18.95892},"openingHours":[{"weekDay":1,"timeRanges":[{"opening":"08:00","closing":"19:00"}]},{"weekDay":2,"timeRanges":[{"opening":"08:00","closing":"19:00"}]},{"weekDay":3,"timeRanges":[{"opening":"08:00","closing":"19:00"}]},{"weekDay":4,"timeRanges":[{"opening":"08:00","closing":"19:00"}]},{"weekDay":5,"timeRanges":[{"opening":"08:00","closing":"19:00"}]},{"weekDay":6,"timeRanges":[{"opening":"08:00","closing":"14:00"}]}]},{"storeNumber":"351","address":{"name":"BIATORB\u00c1GY 351. SZ BOLT","street":"Buda\u00f6rsi \u00fat 4.","zip":"2051","city":"Biatorb\u00e1gy"},"location":{"lat":47.4647246,"lon":18.8882917},"openingHours":[{"weekDay":1,"timeRanges":[{"opening":"10:00","closing":"20:00"}]},{"weekDay":2,"timeRanges":[{"opening":"10:00","closing":"20:00"}]},{"weekDay":3,"timeRanges":[{"opening":"10:00","closing":"20:00"}]},{"weekDay":4,"timeRanges":[{"opening":"10:00","closing":"20:00"}]},{"weekDay":5,"timeRanges":[{"opening":"10:00","closing":"20:00"}]},{"weekDay":6,"timeRanges":[{"opening":"10:00","closing":"20:00"}]},{"weekDay":7,"timeRanges":[{"opening":"10:00","closing":"20:00"}]}]},{"storeNumber":"352","address":{"name":"VESZPR\u00c9M 352. SZ BOLT","street":"Kossuth Lajos utca 6.","zip":"8200","city":"Veszpr\u00e9m"},"location":{"lat":47.09327,"lon":17.91157},"openingHours":[{"weekDay":1,"timeRanges":[{"opening":"08:00","closing":"19:00"}]},{"weekDay":2,"timeRanges":[{"opening":"08:00","closing":"19:00"}]},{"weekDay":3,"timeRanges":[{"opening":"08:00","closing":"19:00"}]},{"weekDay":4,"timeRanges":[{"opening":"08:00","closing":"19:00"}]},{"weekDay":5,"timeRanges":[{"opening":"08:00","closing":"19:00"}]},{"weekDay":6,"timeRanges":[{"opening":"08:00","closing":"15:00"}]}]},{"storeNumber":"353","address":{"name":"KAPOSV\u00c1R 353. SZ BOLT","street":"Ir\u00e1nyi D\u00e1niel utca 5.","zip":"7400","city":"Kaposv\u00e1r"},"location":{"lat":46.3560737,"lon":17.7925861},"openingHours":[{"weekDay":1,"timeRanges":[{"opening":"08:00","closing":"19:00"}]},{"weekDay":2,"timeRanges":[{"opening":"08:00","closing":"19:00"}]},{"weekDay":3,"timeRanges":[{"opening":"08:00","closing":"19:00"}]},{"weekDay":4,"timeRanges":[{"opening":"08:00","closing":"19:00"}]},{"weekDay":5,"timeRanges":[{"opening":"08:00","closing":"19:00"}]},{"weekDay":6,"timeRanges":[{"opening":"08:00","closing":"13:00"}]}]},{"storeNumber":"354","address":{"name":"BUDAPEST 354. SZ. BOLT","street":"B\u00e9csi \u00fat 136.","zip":"1036","city":"Budapest"},"location":{"lat":47.5438008,"lon":19.028565},"openingHours":[{"weekDay":1,"timeRanges":[{"opening":"08:00","closing":"20:00"}]},{"weekDay":2,"timeRanges":[{"opening":"08:00","closing":"20:00"}]},{"weekDay":3,"timeRanges":[{"opening":"08:00","closing":"20:00"}]},{"weekDay":4,"timeRanges":[{"opening":"08:00","closing":"20:00"}]},{"weekDay":5,"timeRanges":[{"opening":"08:00","closing":"20:00"}]},{"weekDay":6,"timeRanges":[{"opening":"08:00","closing":"20:00"}]},{"weekDay":7,"timeRanges":[{"opening":"08:00","closing":"20:00"}]}]},{"storeNumber":"355","address":{"name":"SZ\u00c9KESFEH\u00c9RV\u00c1R, 355. SZ. BOLT","street":"Holland fasor 1.","zip":"8000","city":"Sz\u00e9kesfeh\u00e9rv\u00e1r"},"location":{"lat":47.1511862,"lon":18.4313419},"openingHours":[{"weekDay":1,"timeRanges":[{"opening":"09:00","closing":"19:00"}]},{"weekDay":2,"timeRanges":[{"opening":"09:00","closing":"19:00"}]},{"weekDay":3,"timeRanges":[{"opening":"09:00","closing":"19:00"}]},{"weekDay":4,"timeRanges":[{"opening":"09:00","closing":"19:00"}]},{"weekDay":5,"timeRanges":[{"opening":"09:00","closing":"19:00"}]},{"weekDay":6,"timeRanges":[{"opening":"09:00","closing":"19:00"}]},{"weekDay":7,"timeRanges":[{"opening":"09:00","closing":"17:00"}]}]},{"storeNumber":"356","address":{"name":"TATAB\u00c1NYA 356. SZ. BOLT","street":"Gy\u0151ri \u00fat 7-9.","zip":"2800","city":"Tatab\u00e1nya"},"location":{"lat":47.5867214,"lon":18.3940868},"openingHours":[{"weekDay":1,"timeRanges":[{"opening":"09:00","closing":"20:00"}]},{"weekDay":2,"timeRanges":[{"opening":"09:00","closing":"20:00"}]},{"weekDay":3,"timeRanges":[{"opening":"09:00","closing":"20:00"}]},{"weekDay":4,"timeRanges":[{"opening":"09:00","closing":"20:00"}]},{"weekDay":5,"timeRanges":[{"opening":"09:00","closing":"20:00"}]},{"weekDay":6,"timeRanges":[{"opening":"09:00","closing":"20:00"}]},{"weekDay":7,"timeRanges":[{"opening":"09:00","closing":"18:00"}]}]},{"storeNumber":"357","address":{"name":"dm-drogerie markt","street":"Andr\u00e1ssy Gyula utca 32.","zip":"3530","city":"Miskolc"},"location":{"lat":48.1021476,"lon":20.7312838},"openingHours":[{"weekDay":1,"timeRanges":[{"opening":"08:00","closing":"19:00"}]},{"weekDay":2,"timeRanges":[{"opening":"08:00","closing":"19:00"}]},{"weekDay":3,"timeRanges":[{"opening":"08:00","closing":"19:00"}]},{"weekDay":4,"timeRanges":[{"opening":"08:00","closing":"19:00"}]},{"weekDay":5,"timeRanges":[{"opening":"08:00","closing":"19:00"}]},{"weekDay":6,"timeRanges":[{"opening":"08:00","closing":"14:00"}]}]},{"storeNumber":"358","address":{"name":"KISKUNF\u00c9LEGYH\u00c1ZA 358. sz. BOLT","street":"M\u00e1rt\u00edrok \u00fatja 2.","zip":"6100","city":"Kiskunf\u00e9legyh\u00e1za"},"location":{"lat":46.7117037,"lon":19.8485743},"openingHours":[{"weekDay":1,"timeRanges":[{"opening":"08:00","closing":"18:00"}]},{"weekDay":2,"timeRanges":[{"opening":"08:00","closing":"18:00"}]},{"weekDay":3,"timeRanges":[{"opening":"08:00","closing":"18:00"}]},{"weekDay":4,"timeRanges":[{"opening":"08:00","closing":"18:00"}]},{"weekDay":5,"timeRanges":[{"opening":"08:00","closing":"18:00"}]},{"weekDay":6,"timeRanges":[{"opening":"08:00","closing":"13:00"}]}]},{"storeNumber":"359","address":{"name":"dm-drogerie markt","street":"Feketer\u00e9t u. 2.","zip":"2045","city":"T\u00f6r\u00f6kb\u00e1lint"},"location":{"lat":47.4511419,"lon":18.9036884},"openingHours":[{"weekDay":1,"timeRanges":[{"opening":"08:00","closing":"20:00"}]},{"weekDay":2,"timeRanges":[{"opening":"08:00","closing":"20:00"}]},{"weekDay":3,"timeRanges":[{"opening":"08:00","closing":"20:00"}]},{"weekDay":4,"timeRanges":[{"opening":"08:00","closing":"20:00"}]},{"weekDay":5,"timeRanges":[{"opening":"08:00","closing":"20:00"}]},{"weekDay":6,"timeRanges":[{"opening":"08:00","closing":"19:00"}]},{"weekDay":7,"timeRanges":[{"opening":"08:00","closing":"17:00"}]}]},{"storeNumber":"360","address":{"name":"VESZPR\u00c9M 360. SZ. BOLT","street":"Dornyai B\u00e9la utca 4.","zip":"8200","city":"Veszpr\u00e9m"},"location":{"lat":47.0849472,"lon":17.9265076},"openingHours":[{"weekDay":1,"timeRanges":[{"opening":"08:00","closing":"20:00"}]},{"weekDay":2,"timeRanges":[{"opening":"08:00","closing":"20:00"}]},{"weekDay":3,"timeRanges":[{"opening":"08:00","closing":"20:00"}]},{"weekDay":4,"timeRanges":[{"opening":"08:00","closing":"20:00"}]},{"weekDay":5,"timeRanges":[{"opening":"08:00","closing":"20:00"}]},{"weekDay":6,"timeRanges":[{"opening":"08:00","closing":"20:00"}]},{"weekDay":7,"timeRanges":[{"opening":"09:00","closing":"18:00"}]}]},{"storeNumber":"361","address":{"name":"BUDAPEST 361. SZ\u00c1M\u00da BOLT","street":"\u00c1rp\u00e1d \u00fat 183-185.","zip":"1042","city":"Budapest"},"location":{"lat":47.5610646,"lon":19.1068556},"openingHours":[{"weekDay":1,"timeRanges":[{"opening":"08:00","closing":"20:00"}]},{"weekDay":2,"timeRanges":[{"opening":"08:00","closing":"20:00"}]},{"weekDay":3,"timeRanges":[{"opening":"08:00","closing":"20:00"}]},{"weekDay":4,"timeRanges":[{"opening":"08:00","closing":"20:00"}]},{"weekDay":5,"timeRanges":[{"opening":"08:00","closing":"20:00"}]},{"weekDay":6,"timeRanges":[{"opening":"08:00","closing":"19:00"}]},{"weekDay":7,"timeRanges":[{"opening":"08:00","closing":"15:00"}]}]},{"storeNumber":"362","address":{"name":"BUDAPEST 362. SZ. BOLT","street":"Pet\u0151fi S\u00e1ndor utca 3.","zip":"1052","city":"Budapest"},"location":{"lat":47.4936041,"lon":19.0552508},"openingHours":[{"weekDay":1,"timeRanges":[{"opening":"08:00","closing":"20:00"}]},{"weekDay":2,"timeRanges":[{"opening":"08:00","closing":"20:00"}]},{"weekDay":3,"timeRanges":[{"opening":"08:00","closing":"20:00"}]},{"weekDay":4,"timeRanges":[{"opening":"08:00","closing":"20:00"}]},{"weekDay":5,"timeRanges":[{"opening":"08:00","closing":"20:00"}]},{"weekDay":6,"timeRanges":[{"opening":"09:00","closing":"20:00"}]},{"weekDay":7,"timeRanges":[{"opening":"09:00","closing":"19:00"}]}]},{"storeNumber":"363","address":{"name":"BUDAPEST 363. SZ. BOLT","street":"Krisztina krt. 65-67.","zip":"1016","city":"Budapest"},"location":{"lat":47.4967653,"lon":19.0317985},"openingHours":[{"weekDay":1,"timeRanges":[{"opening":"07:00","closing":"19:00"}]},{"weekDay":2,"timeRanges":[{"opening":"07:00","closing":"19:00"}]},{"weekDay":3,"timeRanges":[{"opening":"07:00","closing":"19:00"}]},{"weekDay":4,"timeRanges":[{"opening":"07:00","closing":"19:00"}]},{"weekDay":5,"timeRanges":[{"opening":"07:00","closing":"19:00"}]},{"weekDay":6,"timeRanges":[{"opening":"07:00","closing":"15:00"}]}]},{"storeNumber":"364","address":{"name":"DEBRECEN 364.SZ.BOLT","street":"Kishegyesi \u00fat 1-11.","zip":"4031","city":"Debrecen"},"location":{"lat":47.5306476,"lon":21.6077487},"openingHours":[{"weekDay":1,"timeRanges":[{"opening":"09:00","closing":"20:00"}]},{"weekDay":2,"timeRanges":[{"opening":"09:00","closing":"20:00"}]},{"weekDay":3,"timeRanges":[{"opening":"09:00","closing":"20:00"}]},{"weekDay":4,"timeRanges":[{"opening":"09:00","closing":"20:00"}]},{"weekDay":5,"timeRanges":[{"opening":"09:00","closing":"20:00"}]},{"weekDay":6,"timeRanges":[{"opening":"09:00","closing":"20:00"}]},{"weekDay":7,"timeRanges":[{"opening":"09:00","closing":"19:00"}]}]},{"storeNumber":"365","address":{"name":"BUDAPEST 365. SZ. BOLT","street":"\u00dcll\u0151i \u00fat 661.","zip":"1182","city":"Budapest"},"location":{"lat":47.4332335,"lon":19.2017797},"openingHours":[{"weekDay":1,"timeRanges":[{"opening":"08:00","closing":"20:00"}]},{"weekDay":2,"timeRanges":[{"opening":"08:00","closing":"20:00"}]},{"weekDay":3,"timeRanges":[{"opening":"08:00","closing":"20:00"}]},{"weekDay":4,"timeRanges":[{"opening":"08:00","closing":"20:00"}]},{"weekDay":5,"timeRanges":[{"opening":"08:00","closing":"20:00"}]},{"weekDay":6,"timeRanges":[{"opening":"08:00","closing":"20:00"}]},{"weekDay":7,"timeRanges":[{"opening":"08:00","closing":"18:00"}]}]},{"storeNumber":"366","address":{"name":"BUDAPEST 366. SZ. BOLT","street":"Ady Endre \u00fat. 1.","streetAdditional":"Monor, Ady Endre \u00fat 1.","zip":"2200","city":"Monor"},"location":{"lat":47.3521243,"lon":19.4446129},"openingHours":[{"weekDay":1,"timeRanges":[{"opening":"08:00","closing":"19:00"}]},{"weekDay":2,"timeRanges":[{"opening":"08:00","closing":"19:00"}]},{"weekDay":3,"timeRanges":[{"opening":"08:00","closing":"19:00"}]},{"weekDay":4,"timeRanges":[{"opening":"08:00","closing":"19:00"}]},{"weekDay":5,"timeRanges":[{"opening":"08:00","closing":"19:00"}]},{"weekDay":6,"timeRanges":[{"opening":"08:00","closing":"14:00"}]}]},{"storeNumber":"367","address":{"name":"\u00c9rd 367 sz. bolt","street":"Iparos utca 5.","zip":"2030","city":"\u00c9rd"},"location":{"lat":47.4138281,"lon":18.8828425},"openingHours":[{"weekDay":1,"timeRanges":[{"opening":"08:00","closing":"20:00"}]},{"weekDay":2,"timeRanges":[{"opening":"08:00","closing":"20:00"}]},{"weekDay":3,"timeRanges":[{"opening":"08:00","closing":"20:00"}]},{"weekDay":4,"timeRanges":[{"opening":"08:00","closing":"20:00"}]},{"weekDay":5,"timeRanges":[{"opening":"08:00","closing":"20:00"}]},{"weekDay":6,"timeRanges":[{"opening":"08:00","closing":"20:00"}]},{"weekDay":7,"timeRanges":[{"opening":"09:00","closing":"18:00"}]}]},{"storeNumber":"368","address":{"name":"MISKOLC 368. SZ. BOLT","street":"Szentp\u00e9teri kapu 103.","zip":"3526","city":"Miskolc"},"location":{"lat":48.1260498,"lon":20.7828295},"openingHours":[{"weekDay":1,"timeRanges":[{"opening":"09:00","closing":"20:00"}]},{"weekDay":2,"timeRanges":[{"opening":"09:00","closing":"20:00"}]},{"weekDay":3,"timeRanges":[{"opening":"09:00","closing":"20:00"}]},{"weekDay":4,"timeRanges":[{"opening":"09:00","closing":"20:00"}]},{"weekDay":5,"timeRanges":[{"opening":"09:00","closing":"20:00"}]},{"weekDay":6,"timeRanges":[{"opening":"09:00","closing":"20:00"}]},{"weekDay":7,"timeRanges":[{"opening":"09:00","closing":"19:00"}]}]},{"storeNumber":"369","address":{"name":"V\u00c1RPALOTA 369. SZ. BOLT","street":"Szent Istv\u00e1n utca 2.","zip":"8100","city":"V\u00e1rpalota"},"location":{"lat":47.2010498,"lon":18.14062},"openingHours":[{"weekDay":1,"timeRanges":[{"opening":"08:00","closing":"18:00"}]},{"weekDay":2,"timeRanges":[{"opening":"08:00","closing":"18:00"}]},{"weekDay":3,"timeRanges":[{"opening":"08:00","closing":"18:00"}]},{"weekDay":4,"timeRanges":[{"opening":"08:00","closing":"18:00"}]},{"weekDay":5,"timeRanges":[{"opening":"08:00","closing":"18:00"}]},{"weekDay":6,"timeRanges":[{"opening":"08:00","closing":"13:00"}]}]},{"storeNumber":"37","address":{"name":"P\u00c9CS 037 SZ. BOLT","street":"Ybl Mikl\u00f3s \u00fat 12.","zip":"7624","city":"P\u00e9cs"},"location":{"lat":46.06429,"lon":18.19788},"openingHours":[{"weekDay":1,"timeRanges":[{"opening":"08:00","closing":"19:00"}]},{"weekDay":2,"timeRanges":[{"opening":"08:00","closing":"19:00"}]},{"weekDay":3,"timeRanges":[{"opening":"08:00","closing":"19:00"}]},{"weekDay":4,"timeRanges":[{"opening":"08:00","closing":"19:00"}]},{"weekDay":5,"timeRanges":[{"opening":"08:00","closing":"19:00"}]},{"weekDay":6,"timeRanges":[{"opening":"08:00","closing":"15:00"}]}]},{"storeNumber":"370","address":{"name":"Sopron 370. bolt.","street":"\u00c1gfalvi \u00fat 4.","streetAdditional":"Sopron, Beseny\u0151 utca 19\/a.","zip":"9400","city":"Sopron"},"location":{"lat":47.6866646,"lon":16.5635568},"openingHours":[{"weekDay":1,"timeRanges":[{"opening":"08:00","closing":"19:00"}]},{"weekDay":2,"timeRanges":[{"opening":"08:00","closing":"19:00"}]},{"weekDay":3,"timeRanges":[{"opening":"08:00","closing":"19:00"}]},{"weekDay":4,"timeRanges":[{"opening":"08:00","closing":"19:00"}]},{"weekDay":5,"timeRanges":[{"opening":"08:00","closing":"19:00"}]},{"weekDay":6,"timeRanges":[{"opening":"08:00","closing":"17:00"}]},{"weekDay":7,"timeRanges":[{"opening":"09:00","closing":"13:00"}]}]},{"storeNumber":"371","address":{"name":"Kistarcsa 371. SZ. BOLT","street":"Semmelweis t\u00e9r 2.","zip":"2143","city":"Kistarcsa"},"location":{"lat":47.5408332,"lon":19.2535981},"openingHours":[{"weekDay":1,"timeRanges":[{"opening":"08:00","closing":"20:00"}]},{"weekDay":2,"timeRanges":[{"opening":"08:00","closing":"20:00"}]},{"weekDay":3,"timeRanges":[{"opening":"08:00","closing":"20:00"}]},{"weekDay":4,"timeRanges":[{"opening":"08:00","closing":"20:00"}]},{"weekDay":5,"timeRanges":[{"opening":"08:00","closing":"20:00"}]},{"weekDay":6,"timeRanges":[{"opening":"08:00","closing":"19:00"}]},{"weekDay":7,"timeRanges":[{"opening":"08:00","closing":"17:00"}]}]},{"storeNumber":"373","address":{"name":"KECSKEM\u00c9T 373. SZ. BOLT","street":"Dunaf\u00f6ldv\u00e1ri \u00fat 2.","zip":"6000","city":"Kecskem\u00e9t"},"location":{"lat":46.8873852,"lon":19.63533},"openingHours":[{"weekDay":1,"timeRanges":[{"opening":"09:00","closing":"20:00"}]},{"weekDay":2,"timeRanges":[{"opening":"09:00","closing":"20:00"}]},{"weekDay":3,"timeRanges":[{"opening":"09:00","closing":"20:00"}]},{"weekDay":4,"timeRanges":[{"opening":"09:00","closing":"20:00"}]},{"weekDay":5,"timeRanges":[{"opening":"09:00","closing":"20:00"}]},{"weekDay":6,"timeRanges":[{"opening":"09:00","closing":"20:00"}]},{"weekDay":7,"timeRanges":[{"opening":"10:00","closing":"18:00"}]}]},{"storeNumber":"374","address":{"name":"BUDAPEST 374. SZ. BOLT","street":"Kerepesi \u00fat 9.","zip":"1087","city":"Budapest"},"location":{"lat":47.498083,"lon":19.093535},"openingHours":[{"weekDay":1,"timeRanges":[{"opening":"10:00","closing":"21:00"}]},{"weekDay":2,"timeRanges":[{"opening":"10:00","closing":"21:00"}]},{"weekDay":3,"timeRanges":[{"opening":"10:00","closing":"21:00"}]},{"weekDay":4,"timeRanges":[{"opening":"10:00","closing":"21:00"}]},{"weekDay":5,"timeRanges":[{"opening":"10:00","closing":"21:00"}]},{"weekDay":6,"timeRanges":[{"opening":"10:00","closing":"21:00"}]},{"weekDay":7,"timeRanges":[{"opening":"10:00","closing":"19:00"}]}]},{"storeNumber":"375","address":{"name":"SZENTGOTTH\u00c1RD 375 SZ. BOLT","street":"F\u00fczesi \u00fat 5\/a.","zip":"9970","city":"Szentgotth\u00e1rd"},"location":{"lat":46.9582504,"lon":16.2760818},"openingHours":[{"weekDay":1,"timeRanges":[{"opening":"08:00","closing":"19:00"}]},{"weekDay":2,"timeRanges":[{"opening":"08:00","closing":"19:00"}]},{"weekDay":3,"timeRanges":[{"opening":"08:00","closing":"19:00"}]},{"weekDay":4,"timeRanges":[{"opening":"08:00","closing":"19:00"}]},{"weekDay":5,"timeRanges":[{"opening":"08:00","closing":"19:00"}]},{"weekDay":6,"timeRanges":[{"opening":"08:00","closing":"18:00"}]}]},{"storeNumber":"376","address":{"name":"MISKOLC 376. SZ. BOLT","street":"J\u00f3zsef Attila utca 87.","zip":"3527","city":"Miskolc"},"location":{"lat":48.1085373,"lon":20.8361739},"openingHours":[{"weekDay":1,"timeRanges":[{"opening":"09:00","closing":"20:00"}]},{"weekDay":2,"timeRanges":[{"opening":"09:00","closing":"20:00"}]},{"weekDay":3,"timeRanges":[{"opening":"09:00","closing":"20:00"}]},{"weekDay":4,"timeRanges":[{"opening":"09:00","closing":"20:00"}]},{"weekDay":5,"timeRanges":[{"opening":"09:00","closing":"20:00"}]},{"weekDay":6,"timeRanges":[{"opening":"09:00","closing":"20:00"}]},{"weekDay":7,"timeRanges":[{"opening":"10:00","closing":"18:00"}]}]},{"storeNumber":"377","address":{"name":"MEZ\u0150K\u00d6VESD 377. SZ. BOLT","street":"M\u00c1TY\u00c1S KIR\u00c1LY \u00daT 60-64","streetAdditional":"Mez\u0151k\u00f6vesd, M\u00e1ty\u00e1s kir\u00e1ly \u00fat 60-64","zip":"3400","city":"Mez\u0151k\u00f6vesd"},"location":{"lat":47.8077253,"lon":20.5662867},"openingHours":[{"weekDay":1,"timeRanges":[{"opening":"08:00","closing":"18:00"}]},{"weekDay":2,"timeRanges":[{"opening":"08:00","closing":"18:00"}]},{"weekDay":3,"timeRanges":[{"opening":"08:00","closing":"18:00"}]},{"weekDay":4,"timeRanges":[{"opening":"08:00","closing":"18:00"}]},{"weekDay":5,"timeRanges":[{"opening":"08:00","closing":"18:00"}]},{"weekDay":6,"timeRanges":[{"opening":"08:00","closing":"13:00"}]}]},{"storeNumber":"378","address":{"name":"dm-drogerie markt","street":"K\u00fcls\u0151-K\u00e1d\u00e1rtai u. 3.","zip":"8200","city":"Veszpr\u00e9m"},"location":{"lat":47.1028484,"lon":17.9333574},"openingHours":[{"weekDay":1,"timeRanges":[{"opening":"09:00","closing":"20:00"}]},{"weekDay":2,"timeRanges":[{"opening":"09:00","closing":"20:00"}]},{"weekDay":3,"timeRanges":[{"opening":"09:00","closing":"20:00"}]},{"weekDay":4,"timeRanges":[{"opening":"09:00","closing":"20:00"}]},{"weekDay":5,"timeRanges":[{"opening":"08:00","closing":"20:00"}]},{"weekDay":6,"timeRanges":[{"opening":"08:00","closing":"20:00"}]},{"weekDay":7,"timeRanges":[{"opening":"09:00","closing":"18:00"}]}]},{"storeNumber":"379","address":{"name":"dm-drogerie markt","street":"Soroks\u00e1ri \u00fat 138-142.","zip":"1095","city":"Budapest"},"location":{"lat":47.453767,"lon":19.0885113},"openingHours":[{"weekDay":1,"timeRanges":[{"opening":"09:00","closing":"20:00"}]},{"weekDay":2,"timeRanges":[{"opening":"09:00","closing":"20:00"}]},{"weekDay":3,"timeRanges":[{"opening":"09:00","closing":"20:00"}]},{"weekDay":4,"timeRanges":[{"opening":"09:00","closing":"20:00"}]},{"weekDay":5,"timeRanges":[{"opening":"09:00","closing":"20:00"}]},{"weekDay":6,"timeRanges":[{"opening":"09:00","closing":"20:00"}]},{"weekDay":7,"timeRanges":[{"opening":"09:00","closing":"18:00"}]}]},{"storeNumber":"38","address":{"name":"EGER 038, SZ. BOLT","street":"Sas utca 1.","zip":"3300","city":"Eger"},"location":{"lat":47.88991,"lon":20.38116},"openingHours":[{"weekDay":1,"timeRanges":[{"opening":"09:00","closing":"19:00"}]},{"weekDay":2,"timeRanges":[{"opening":"09:00","closing":"19:00"}]},{"weekDay":3,"timeRanges":[{"opening":"09:00","closing":"19:00"}]},{"weekDay":4,"timeRanges":[{"opening":"09:00","closing":"19:00"}]},{"weekDay":5,"timeRanges":[{"opening":"09:00","closing":"19:00"}]},{"weekDay":6,"timeRanges":[{"opening":"08:00","closing":"17:00"}]},{"weekDay":7,"timeRanges":[{"opening":"08:00","closing":"15:00"}]}]},{"storeNumber":"380","address":{"name":"BUDAPEST 380.SZ. BOLT","street":"Nyugati t\u00e9r 1-2.","zip":"1066","city":"Budapest"},"location":{"lat":47.5099116,"lon":19.0556612},"openingHours":[{"weekDay":1,"timeRanges":[{"opening":"08:00","closing":"20:00"}]},{"weekDay":2,"timeRanges":[{"opening":"08:00","closing":"20:00"}]},{"weekDay":3,"timeRanges":[{"opening":"08:00","closing":"20:00"}]},{"weekDay":4,"timeRanges":[{"opening":"08:00","closing":"20:00"}]},{"weekDay":5,"timeRanges":[{"opening":"08:00","closing":"20:00"}]},{"weekDay":6,"timeRanges":[{"opening":"08:00","closing":"20:00"}]},{"weekDay":7,"timeRanges":[{"opening":"08:00","closing":"19:00"}]}]},{"storeNumber":"381","address":{"name":"dm-drogerie markt","street":"Kabai \u00fatf\u00e9l HRSZ.0228","zip":"4200","city":"Hajd\u00faszoboszl\u00f3"},"location":{"lat":47.4337163,"lon":21.3767736},"openingHours":[{"weekDay":1,"timeRanges":[{"opening":"09:00","closing":"19:00"}]},{"weekDay":2,"timeRanges":[{"opening":"09:00","closing":"19:00"}]},{"weekDay":3,"timeRanges":[{"opening":"09:00","closing":"19:00"}]},{"weekDay":4,"timeRanges":[{"opening":"09:00","closing":"19:00"}]},{"weekDay":5,"timeRanges":[{"opening":"09:00","closing":"19:00"}]},{"weekDay":6,"timeRanges":[{"opening":"09:00","closing":"19:00"}]},{"weekDay":7,"timeRanges":[{"opening":"09:00","closing":"14:00"}]}]},{"storeNumber":"382","address":{"name":"TOLNA 382. sz. bolt","street":"De\u00e1k Ferenc utca 81.","zip":"7131","city":"Tolna"},"location":{"lat":46.4221991,"lon":18.7829039},"openingHours":[{"weekDay":1,"timeRanges":[{"opening":"08:00","closing":"19:00"}]},{"weekDay":2,"timeRanges":[{"opening":"08:00","closing":"19:00"}]},{"weekDay":3,"timeRanges":[{"opening":"08:00","closing":"19:00"}]},{"weekDay":4,"timeRanges":[{"opening":"08:00","closing":"19:00"}]},{"weekDay":5,"timeRanges":[{"opening":"08:00","closing":"19:00"}]},{"weekDay":6,"timeRanges":[{"opening":"08:00","closing":"14:00"}]}]},{"storeNumber":"383","address":{"name":"dm-drogerie markt","street":"F\u0151 t\u00e9r 1.","zip":"3700","city":"Kazincbarcika"},"location":{"lat":48.2522066,"lon":20.62188},"openingHours":[{"weekDay":1,"timeRanges":[{"opening":"08:00","closing":"18:00"}]},{"weekDay":2,"timeRanges":[{"opening":"08:00","closing":"18:00"}]},{"weekDay":3,"timeRanges":[{"opening":"08:00","closing":"18:00"}]},{"weekDay":4,"timeRanges":[{"opening":"08:00","closing":"18:00"}]},{"weekDay":5,"timeRanges":[{"opening":"08:00","closing":"18:00"}]},{"weekDay":6,"timeRanges":[{"opening":"08:00","closing":"13:00"}]}]},{"storeNumber":"384","address":{"name":"dm-drogerie markt","street":"II. R\u00e1k\u00f3czi Ferenc utca 191.","zip":"1214","city":"Budapest"},"location":{"lat":47.4145499,"lon":19.0545999},"openingHours":[{"weekDay":1,"timeRanges":[{"opening":"08:00","closing":"20:00"}]},{"weekDay":2,"timeRanges":[{"opening":"08:00","closing":"20:00"}]},{"weekDay":3,"timeRanges":[{"opening":"08:00","closing":"20:00"}]},{"weekDay":4,"timeRanges":[{"opening":"08:00","closing":"20:00"}]},{"weekDay":5,"timeRanges":[{"opening":"08:00","closing":"20:00"}]},{"weekDay":6,"timeRanges":[{"opening":"08:00","closing":"20:00"}]},{"weekDay":7,"timeRanges":[{"opening":"09:00","closing":"19:00"}]}]},{"storeNumber":"385","address":{"name":"dm-drogerie markt","street":"\u00dcll\u0151i \u00fat 201.","zip":"1193","city":"Budapest"},"location":{"lat":47.4637657,"lon":19.1280422},"openingHours":[{"weekDay":1,"timeRanges":[{"opening":"08:00","closing":"20:00"}]},{"weekDay":2,"timeRanges":[{"opening":"08:00","closing":"20:00"}]},{"weekDay":3,"timeRanges":[{"opening":"08:00","closing":"20:00"}]},{"weekDay":4,"timeRanges":[{"opening":"08:00","closing":"20:00"}]},{"weekDay":5,"timeRanges":[{"opening":"08:00","closing":"20:00"}]},{"weekDay":6,"timeRanges":[{"opening":"08:00","closing":"20:00"}]},{"weekDay":7,"timeRanges":[{"opening":"08:30","closing":"19:00"}]}]},{"storeNumber":"386","address":{"name":"dm-drogerie markt","street":"V\u00e1ci \u00fat 35.","zip":"1134","city":"Budapest"},"location":{"lat":47.5256682,"lon":19.0639934},"openingHours":[{"weekDay":1,"timeRanges":[{"opening":"07:00","closing":"19:00"}]},{"weekDay":2,"timeRanges":[{"opening":"07:00","closing":"19:00"}]},{"weekDay":3,"timeRanges":[{"opening":"07:00","closing":"19:00"}]},{"weekDay":4,"timeRanges":[{"opening":"07:00","closing":"19:00"}]},{"weekDay":5,"timeRanges":[{"opening":"07:00","closing":"19:00"}]},{"weekDay":6,"timeRanges":[{"opening":"08:00","closing":"15:00"}]}]},{"storeNumber":"387","address":{"name":"dm-drogerie markt","street":"Lackner Krist\u00f3f utca 35.","zip":"9400","city":"Sopron"},"location":{"lat":47.6976822,"lon":16.5800206},"openingHours":[{"weekDay":1,"timeRanges":[{"opening":"09:00","closing":"20:00"}]},{"weekDay":2,"timeRanges":[{"opening":"09:00","closing":"20:00"}]},{"weekDay":3,"timeRanges":[{"opening":"09:00","closing":"20:00"}]},{"weekDay":4,"timeRanges":[{"opening":"09:00","closing":"20:00"}]},{"weekDay":5,"timeRanges":[{"opening":"09:00","closing":"20:00"}]},{"weekDay":6,"timeRanges":[{"opening":"09:00","closing":"20:00"}]},{"weekDay":7,"timeRanges":[{"opening":"09:00","closing":"20:00"}]}]},{"storeNumber":"389","address":{"name":"dm-drogerie markt","street":"Vak Botty\u00e1n u. 68","zip":"2360","city":"Gy\u00e1l"},"location":{"lat":47.3871314,"lon":19.2144088},"openingHours":[{"weekDay":1,"timeRanges":[{"opening":"08:00","closing":"19:00"}]},{"weekDay":2,"timeRanges":[{"opening":"08:00","closing":"19:00"}]},{"weekDay":3,"timeRanges":[{"opening":"08:00","closing":"19:00"}]},{"weekDay":4,"timeRanges":[{"opening":"08:00","closing":"19:00"}]},{"weekDay":5,"timeRanges":[{"opening":"08:00","closing":"19:00"}]},{"weekDay":6,"timeRanges":[{"opening":"08:00","closing":"15:00"}]},{"weekDay":7,"timeRanges":[{"opening":"08:00","closing":"13:00"}]}]},{"storeNumber":"390","address":{"name":"dm-drogerie markt","street":"Hidegk\u00fati \u00fat 1.","zip":"1028","city":"Budapest"},"location":{"lat":47.544591,"lon":18.9609646},"openingHours":[{"weekDay":1,"timeRanges":[{"opening":"08:00","closing":"19:00"}]},{"weekDay":2,"timeRanges":[{"opening":"08:00","closing":"19:00"}]},{"weekDay":3,"timeRanges":[{"opening":"08:00","closing":"19:00"}]},{"weekDay":4,"timeRanges":[{"opening":"08:00","closing":"19:00"}]},{"weekDay":5,"timeRanges":[{"opening":"08:00","closing":"19:00"}]},{"weekDay":6,"timeRanges":[{"opening":"08:00","closing":"15:00"}]}]},{"storeNumber":"392","address":{"name":"dm-drogerie markt","street":"Megyeri \u00fat 76.","zip":"7631","city":"P\u00e9cs"},"location":{"lat":46.0499133,"lon":18.2116735},"openingHours":[{"weekDay":1,"timeRanges":[{"opening":"09:00","closing":"20:00"}]},{"weekDay":2,"timeRanges":[{"opening":"09:00","closing":"20:00"}]},{"weekDay":3,"timeRanges":[{"opening":"09:00","closing":"20:00"}]},{"weekDay":4,"timeRanges":[{"opening":"09:00","closing":"20:00"}]},{"weekDay":5,"timeRanges":[{"opening":"09:00","closing":"20:00"}]},{"weekDay":6,"timeRanges":[{"opening":"09:00","closing":"20:00"}]},{"weekDay":7,"timeRanges":[{"opening":"09:00","closing":"18:00"}]}]},{"storeNumber":"393","address":{"name":"dm-drogerie markt","street":"Pillang\u00f3 utca 16-20","zip":"1149","city":"Budapest"},"location":{"lat":47.5039815,"lon":19.1167047},"openingHours":[{"weekDay":1,"timeRanges":[{"opening":"08:00","closing":"20:00"}]},{"weekDay":2,"timeRanges":[{"opening":"08:00","closing":"20:00"}]},{"weekDay":3,"timeRanges":[{"opening":"08:00","closing":"20:00"}]},{"weekDay":4,"timeRanges":[{"opening":"08:00","closing":"20:00"}]},{"weekDay":5,"timeRanges":[{"opening":"08:00","closing":"20:00"}]},{"weekDay":6,"timeRanges":[{"opening":"08:00","closing":"19:00"}]},{"weekDay":7,"timeRanges":[{"opening":"09:00","closing":"18:00"}]}]},{"storeNumber":"394","address":{"name":"dm-drogerie markt","street":"Kir\u00e1lyhidai u. 67","zip":"9200","city":"Mosonmagyar\u00f3v\u00e1r"},"location":{"lat":47.880017,"lon":17.2570177},"openingHours":[{"weekDay":1,"timeRanges":[{"opening":"09:00","closing":"20:00"}]},{"weekDay":2,"timeRanges":[{"opening":"09:00","closing":"20:00"}]},{"weekDay":3,"timeRanges":[{"opening":"09:00","closing":"20:00"}]},{"weekDay":4,"timeRanges":[{"opening":"09:00","closing":"20:00"}]},{"weekDay":5,"timeRanges":[{"opening":"09:00","closing":"20:00"}]},{"weekDay":6,"timeRanges":[{"opening":"09:00","closing":"20:00"}]},{"weekDay":7,"timeRanges":[{"opening":"09:00","closing":"18:00"}]}]},{"storeNumber":"395","address":{"name":"dm-drogerie markt","street":"Balatoni \u00fat 2\/A","zip":"1112","city":"Budapest"},"location":{"lat":47.465589,"lon":19.0161313},"openingHours":[{"weekDay":1,"timeRanges":[{"opening":"08:00","closing":"19:30"}]},{"weekDay":2,"timeRanges":[{"opening":"08:00","closing":"19:30"}]},{"weekDay":3,"timeRanges":[{"opening":"08:00","closing":"19:30"}]},{"weekDay":4,"timeRanges":[{"opening":"08:00","closing":"19:30"}]},{"weekDay":5,"timeRanges":[{"opening":"08:00","closing":"19:30"}]},{"weekDay":6,"timeRanges":[{"opening":"09:00","closing":"14:00"}]}]},{"storeNumber":"396","address":{"name":"dm-drogerie markt","street":"Erkel Ferenc t\u00e9r 4.","zip":"2112","city":"Veresegyh\u00e1z"},"location":{"lat":47.6587159,"lon":19.2696037},"openingHours":[{"weekDay":1,"timeRanges":[{"opening":"08:00","closing":"20:00"}]},{"weekDay":2,"timeRanges":[{"opening":"08:00","closing":"20:00"}]},{"weekDay":3,"timeRanges":[{"opening":"08:00","closing":"20:00"}]},{"weekDay":4,"timeRanges":[{"opening":"08:00","closing":"20:00"}]},{"weekDay":5,"timeRanges":[{"opening":"08:00","closing":"20:00"}]},{"weekDay":6,"timeRanges":[{"opening":"08:00","closing":"19:00"}]},{"weekDay":7,"timeRanges":[{"opening":"08:00","closing":"15:00"}]}]},{"storeNumber":"397","address":{"name":"dm-drogerie markt","street":"M\u00e1jus 1. \u00fat 33.","zip":"2890","city":"Tata"},"location":{"lat":47.6511431,"lon":18.3135117},"openingHours":[{"weekDay":1,"timeRanges":[{"opening":"08:00","closing":"19:30"}]},{"weekDay":2,"timeRanges":[{"opening":"08:00","closing":"19:30"}]},{"weekDay":3,"timeRanges":[{"opening":"08:00","closing":"19:30"}]},{"weekDay":4,"timeRanges":[{"opening":"08:00","closing":"19:30"}]},{"weekDay":5,"timeRanges":[{"opening":"08:00","closing":"19:30"}]},{"weekDay":6,"timeRanges":[{"opening":"08:00","closing":"19:30"}]},{"weekDay":7,"timeRanges":[{"opening":"09:00","closing":"18:00"}]}]},{"storeNumber":"398","address":{"name":"dm-drogerie markt","street":"Esztergomi \u00fat 31-43.","zip":"1138","city":"Budapest"},"location":{"lat":47.5329204,"lon":19.0650211},"openingHours":[{"weekDay":1,"timeRanges":[{"opening":"07:30","closing":"19:00"}]},{"weekDay":2,"timeRanges":[{"opening":"07:30","closing":"19:00"}]},{"weekDay":3,"timeRanges":[{"opening":"07:30","closing":"19:00"}]},{"weekDay":4,"timeRanges":[{"opening":"07:30","closing":"19:00"}]},{"weekDay":5,"timeRanges":[{"opening":"07:30","closing":"19:00"}]},{"weekDay":6,"timeRanges":[{"opening":"08:00","closing":"15:00"}]}]},{"storeNumber":"4","address":{"name":"BUDAPEST 004 SZ. BOLT","street":"Kerepesi \u00fat 73.","zip":"1106","city":"Budapest"},"location":{"lat":47.50369,"lon":19.15153},"openingHours":[{"weekDay":1,"timeRanges":[{"opening":"08:00","closing":"20:00"}]},{"weekDay":2,"timeRanges":[{"opening":"08:00","closing":"20:00"}]},{"weekDay":3,"timeRanges":[{"opening":"08:00","closing":"20:00"}]},{"weekDay":4,"timeRanges":[{"opening":"08:00","closing":"20:00"}]},{"weekDay":5,"timeRanges":[{"opening":"08:00","closing":"20:00"}]},{"weekDay":6,"timeRanges":[{"opening":"08:00","closing":"18:00"}]},{"weekDay":7,"timeRanges":[{"opening":"09:00","closing":"16:00"}]}]},{"storeNumber":"401","address":{"name":"dm-drogerie markt","street":"Sz\u00e9chenyi utca 55.","zip":"8230","city":"Balatonf\u00fcred"},"location":{"lat":46.9481032,"lon":17.8770305},"openingHours":[{"weekDay":1,"timeRanges":[{"opening":"08:00","closing":"20:00"}]},{"weekDay":2,"timeRanges":[{"opening":"08:00","closing":"20:00"}]},{"weekDay":3,"timeRanges":[{"opening":"08:00","closing":"20:00"}]},{"weekDay":4,"timeRanges":[{"opening":"08:00","closing":"20:00"}]},{"weekDay":5,"timeRanges":[{"opening":"08:00","closing":"20:00"}]},{"weekDay":6,"timeRanges":[{"opening":"08:00","closing":"20:00"}]},{"weekDay":7,"timeRanges":[{"opening":"08:00","closing":"18:00"}]}]},{"storeNumber":"402","address":{"name":"dm-drogerie markt","street":"Szent Istv\u00e1n t\u00e9r 1","zip":"2300","city":"R\u00e1ckeve"},"location":{"lat":47.1589872,"lon":18.9454156},"openingHours":[{"weekDay":1,"timeRanges":[{"opening":"08:00","closing":"19:00"}]},{"weekDay":2,"timeRanges":[{"opening":"08:00","closing":"19:00"}]},{"weekDay":3,"timeRanges":[{"opening":"08:00","closing":"19:00"}]},{"weekDay":4,"timeRanges":[{"opening":"08:00","closing":"19:00"}]},{"weekDay":5,"timeRanges":[{"opening":"08:00","closing":"19:00"}]},{"weekDay":6,"timeRanges":[{"opening":"07:30","closing":"14:00"}]}]},{"storeNumber":"403","address":{"name":"dm-drogerie markt","street":"\u00c1rp\u00e1d \u00fat 20","zip":"7400","city":"Kaposv\u00e1r"},"location":{"lat":46.3632341,"lon":17.810196},"openingHours":[{"weekDay":1,"timeRanges":[{"opening":"08:00","closing":"20:00"}]},{"weekDay":2,"timeRanges":[{"opening":"08:00","closing":"20:00"}]},{"weekDay":3,"timeRanges":[{"opening":"08:00","closing":"20:00"}]},{"weekDay":4,"timeRanges":[{"opening":"08:00","closing":"20:00"}]},{"weekDay":5,"timeRanges":[{"opening":"08:00","closing":"20:00"}]},{"weekDay":6,"timeRanges":[{"opening":"08:00","closing":"20:00"}]},{"weekDay":7,"timeRanges":[{"opening":"08:00","closing":"18:00"}]}]},{"storeNumber":"404","address":{"name":"dm-drogerie markt","street":"G\u00f6rgey A. \u00fat 14-20","zip":"1041","city":"Budapest"},"location":{"lat":47.5655029,"lon":19.095692},"openingHours":[{"weekDay":1,"timeRanges":[{"opening":"08:00","closing":"20:00"}]},{"weekDay":2,"timeRanges":[{"opening":"08:00","closing":"20:00"}]},{"weekDay":3,"timeRanges":[{"opening":"08:00","closing":"20:00"}]},{"weekDay":4,"timeRanges":[{"opening":"08:00","closing":"20:00"}]},{"weekDay":5,"timeRanges":[{"opening":"08:00","closing":"20:00"}]},{"weekDay":6,"timeRanges":[{"opening":"08:00","closing":"19:00"}]},{"weekDay":7,"timeRanges":[{"opening":"08:00","closing":"16:00"}]}]},{"storeNumber":"405","address":{"name":"dm-drogerie markt","street":"\u00dcll\u0151i \u00fat 266.","zip":"1193","city":"Budapest"},"location":{"lat":47.4528998,"lon":19.1569},"openingHours":[{"weekDay":1,"timeRanges":[{"opening":"08:00","closing":"20:00"}]},{"weekDay":2,"timeRanges":[{"opening":"08:00","closing":"20:00"}]},{"weekDay":3,"timeRanges":[{"opening":"08:00","closing":"20:00"}]},{"weekDay":4,"timeRanges":[{"opening":"08:00","closing":"20:00"}]},{"weekDay":5,"timeRanges":[{"opening":"08:00","closing":"20:00"}]},{"weekDay":6,"timeRanges":[{"opening":"08:00","closing":"17:00"}]},{"weekDay":7,"timeRanges":[{"opening":"08:00","closing":"17:00"}]}]},{"storeNumber":"407","address":{"name":"dm-drogerie markt","street":"L\u00f6v\u0151h\u00e1z utca 2-6.","zip":"1024","city":"Budapest"},"location":{"lat":47.5089792,"lon":19.0266522},"openingHours":[{"weekDay":1,"timeRanges":[{"opening":"09:00","closing":"21:00"}]},{"weekDay":2,"timeRanges":[{"opening":"09:00","closing":"21:00"}]},{"weekDay":3,"timeRanges":[{"opening":"09:00","closing":"21:00"}]},{"weekDay":4,"timeRanges":[{"opening":"09:00","closing":"21:00"}]},{"weekDay":5,"timeRanges":[{"opening":"09:00","closing":"21:00"}]},{"weekDay":6,"timeRanges":[{"opening":"09:00","closing":"21:00"}]},{"weekDay":7,"timeRanges":[{"opening":"09:00","closing":"19:00"}]}]},{"storeNumber":"41","address":{"name":"BUDAPEST 041 SZ. BOLT","street":"Szentmih\u00e1lyi \u00fat 131.","zip":"1152","city":"Budapest"},"location":{"lat":47.5529725,"lon":19.1417485},"openingHours":[{"weekDay":1,"timeRanges":[{"opening":"09:00","closing":"20:00"}]},{"weekDay":2,"timeRanges":[{"opening":"09:00","closing":"20:00"}]},{"weekDay":3,"timeRanges":[{"opening":"09:00","closing":"20:00"}]},{"weekDay":4,"timeRanges":[{"opening":"09:00","closing":"20:00"}]},{"weekDay":5,"timeRanges":[{"opening":"09:00","closing":"20:00"}]},{"weekDay":6,"timeRanges":[{"opening":"09:00","closing":"20:00"}]},{"weekDay":7,"timeRanges":[{"opening":"09:00","closing":"19:00"}]}]},{"storeNumber":"411","address":{"name":"dm-drogerie markt","street":"F\u0151 \u00fat 36","zip":"2092","city":"Budakeszi"},"location":{"lat":47.5168937,"lon":18.9364805},"openingHours":[{"weekDay":1,"timeRanges":[{"opening":"08:00","closing":"19:00"}]},{"weekDay":2,"timeRanges":[{"opening":"08:00","closing":"19:00"}]},{"weekDay":3,"timeRanges":[{"opening":"08:00","closing":"19:00"}]},{"weekDay":4,"timeRanges":[{"opening":"08:00","closing":"19:00"}]},{"weekDay":5,"timeRanges":[{"opening":"08:00","closing":"19:00"}]},{"weekDay":6,"timeRanges":[{"opening":"08:00","closing":"13:00"}]}]},{"storeNumber":"42","address":{"name":"GYULA 042.SZ.BOLT","street":"B\u00e9ke sug\u00e1r\u00fat 9-11.","zip":"5700","city":"Gyula"},"location":{"lat":46.64547,"lon":21.27186},"openingHours":[{"weekDay":1,"timeRanges":[{"opening":"08:00","closing":"19:00"}]},{"weekDay":2,"timeRanges":[{"opening":"08:00","closing":"19:00"}]},{"weekDay":3,"timeRanges":[{"opening":"08:00","closing":"19:00"}]},{"weekDay":4,"timeRanges":[{"opening":"08:00","closing":"19:00"}]},{"weekDay":5,"timeRanges":[{"opening":"08:00","closing":"19:00"}]},{"weekDay":6,"timeRanges":[{"opening":"08:00","closing":"14:00"}]}]},{"storeNumber":"44","address":{"name":"BUDAPEST 044 SZ. BOLT","street":"M\u00e1ria Ter\u00e9zia utca 9.","zip":"1221","city":"Budapest"},"location":{"lat":47.42787,"lon":19.03875},"openingHours":[{"weekDay":1,"timeRanges":[{"opening":"08:00","closing":"19:00"}]},{"weekDay":2,"timeRanges":[{"opening":"08:00","closing":"19:00"}]},{"weekDay":3,"timeRanges":[{"opening":"08:00","closing":"19:00"}]},{"weekDay":4,"timeRanges":[{"opening":"08:00","closing":"19:00"}]},{"weekDay":5,"timeRanges":[{"opening":"08:00","closing":"19:00"}]},{"weekDay":6,"timeRanges":[{"opening":"08:00","closing":"14:00"}]}]},{"storeNumber":"48","address":{"name":"BUDAPEST 048 SZ. BOLT","street":"Szent Istv\u00e1n k\u00f6r\u00fat 11.","streetAdditional":"\u00dajranyit\u00e1s napja: 2019.07.25.","zip":"1055","city":"Budapest"},"location":{"lat":47.51227,"lon":19.05057},"openingHours":[{"weekDay":1,"timeRanges":[{"opening":"08:00","closing":"20:00"}]},{"weekDay":2,"timeRanges":[{"opening":"08:00","closing":"20:00"}]},{"weekDay":3,"timeRanges":[{"opening":"08:00","closing":"20:00"}]},{"weekDay":4,"timeRanges":[{"opening":"08:00","closing":"20:00"}]},{"weekDay":5,"timeRanges":[{"opening":"08:00","closing":"20:00"}]},{"weekDay":6,"timeRanges":[{"opening":"09:00","closing":"18:00"}]},{"weekDay":7,"timeRanges":[{"opening":"09:00","closing":"17:00"}]}]},{"storeNumber":"49","address":{"name":"MISKOLC 049 SZ. BOLT","street":"Sz\u00e9chenyi utca 24.","zip":"3530","city":"Miskolc"},"location":{"lat":48.10258,"lon":20.7833},"openingHours":[{"weekDay":1,"timeRanges":[{"opening":"08:00","closing":"18:00"}]},{"weekDay":2,"timeRanges":[{"opening":"08:00","closing":"18:00"}]},{"weekDay":3,"timeRanges":[{"opening":"08:00","closing":"18:00"}]},{"weekDay":4,"timeRanges":[{"opening":"08:00","closing":"18:00"}]},{"weekDay":5,"timeRanges":[{"opening":"08:00","closing":"18:00"}]},{"weekDay":6,"timeRanges":[{"opening":"09:00","closing":"13:00"}]}]},{"storeNumber":"5","address":{"name":"BUDAPEST 005 SZ. BOLT","street":"K\u00e1roly k\u00f6r\u00fat 26.","zip":"1052","city":"Budapest"},"location":{"lat":47.49626,"lon":19.05736},"openingHours":[{"weekDay":1,"timeRanges":[{"opening":"08:00","closing":"20:00"}]},{"weekDay":2,"timeRanges":[{"opening":"08:00","closing":"20:00"}]},{"weekDay":3,"timeRanges":[{"opening":"08:00","closing":"20:00"}]},{"weekDay":4,"timeRanges":[{"opening":"08:00","closing":"20:00"}]},{"weekDay":5,"timeRanges":[{"opening":"08:00","closing":"20:00"}]},{"weekDay":6,"timeRanges":[{"opening":"09:00","closing":"20:00"}]},{"weekDay":7,"timeRanges":[{"opening":"09:00","closing":"19:00"}]}]},{"storeNumber":"50","address":{"name":"BUDAPEST 050 SZ. BOLT","street":"Mexik\u00f3i \u00fat 70.","zip":"1147","city":"Budapest"},"location":{"lat":47.51961,"lon":19.09111},"openingHours":[{"weekDay":1,"timeRanges":[{"opening":"07:00","closing":"19:00"}]},{"weekDay":2,"timeRanges":[{"opening":"07:00","closing":"19:00"}]},{"weekDay":3,"timeRanges":[{"opening":"07:00","closing":"19:00"}]},{"weekDay":4,"timeRanges":[{"opening":"07:00","closing":"19:00"}]},{"weekDay":5,"timeRanges":[{"opening":"07:00","closing":"19:00"}]},{"weekDay":6,"timeRanges":[{"opening":"08:00","closing":"14:00"}]}]},{"storeNumber":"51","address":{"name":"S\u00c1TORALJA\u00daJHELY 051 SZ. BOLT","street":"D\u00f3zsa Gy\u00f6rgy \u00fat 1.","zip":"3980","city":"S\u00e1toralja\u00fajhely"},"location":{"lat":48.397,"lon":21.65561},"openingHours":[{"weekDay":1,"timeRanges":[{"opening":"08:00","closing":"18:00"}]},{"weekDay":2,"timeRanges":[{"opening":"08:00","closing":"18:00"}]},{"weekDay":3,"timeRanges":[{"opening":"08:00","closing":"18:00"}]},{"weekDay":4,"timeRanges":[{"opening":"08:00","closing":"18:00"}]},{"weekDay":5,"timeRanges":[{"opening":"08:00","closing":"18:00"}]},{"weekDay":6,"timeRanges":[{"opening":"08:00","closing":"13:00"}]}]},{"storeNumber":"53","address":{"name":"BUDAPEST 053 SZ. BOLT","street":"Arany J\u00e1nos utca 30.","zip":"1051","city":"Budapest"},"location":{"lat":47.50251,"lon":19.05308},"openingHours":[{"weekDay":1,"timeRanges":[{"opening":"07:30","closing":"20:00"}]},{"weekDay":2,"timeRanges":[{"opening":"07:30","closing":"20:00"}]},{"weekDay":3,"timeRanges":[{"opening":"07:30","closing":"20:00"}]},{"weekDay":4,"timeRanges":[{"opening":"07:30","closing":"20:00"}]},{"weekDay":5,"timeRanges":[{"opening":"07:30","closing":"20:00"}]},{"weekDay":6,"timeRanges":[{"opening":"09:00","closing":"17:00"}]}]},{"storeNumber":"56","address":{"name":"SZOMBATHELY  056 SZ. BOLT","street":"F\u0151 t\u00e9r 41","zip":"9700","city":"Szombathely"},"location":{"lat":47.23072,"lon":16.62217},"openingHours":[{"weekDay":1,"timeRanges":[{"opening":"08:00","closing":"19:00"}]},{"weekDay":2,"timeRanges":[{"opening":"08:00","closing":"19:00"}]},{"weekDay":3,"timeRanges":[{"opening":"08:00","closing":"19:00"}]},{"weekDay":4,"timeRanges":[{"opening":"08:00","closing":"19:00"}]},{"weekDay":5,"timeRanges":[{"opening":"08:00","closing":"19:00"}]},{"weekDay":6,"timeRanges":[{"opening":"08:00","closing":"17:00"}]}]},{"storeNumber":"57","address":{"name":"BUDAPEST 57. SZ. BOLT","street":"Cs\u00f6m\u00f6ri \u00fat 9-11.","zip":"1147","city":"Budapest"},"location":{"lat":47.52096,"lon":19.11449},"openingHours":[{"weekDay":1,"timeRanges":[{"opening":"07:00","closing":"18:00"}]},{"weekDay":2,"timeRanges":[{"opening":"07:00","closing":"18:00"}]},{"weekDay":3,"timeRanges":[{"opening":"07:00","closing":"18:00"}]},{"weekDay":4,"timeRanges":[{"opening":"07:00","closing":"18:00"}]},{"weekDay":5,"timeRanges":[{"opening":"07:00","closing":"18:00"}]},{"weekDay":6,"timeRanges":[{"opening":"07:00","closing":"14:00"}]}]},{"storeNumber":"59","address":{"name":"BUDAPEST 059 SZ. BOLT","street":"R\u00e1k\u00f3czi \u00fat 36.","zip":"1039","city":"Budapest"},"location":{"lat":47.5811642,"lon":19.0498929},"openingHours":[{"weekDay":1,"timeRanges":[{"opening":"08:00","closing":"20:00"}]},{"weekDay":2,"timeRanges":[{"opening":"08:00","closing":"20:00"}]},{"weekDay":3,"timeRanges":[{"opening":"08:00","closing":"20:00"}]},{"weekDay":4,"timeRanges":[{"opening":"08:00","closing":"20:00"}]},{"weekDay":5,"timeRanges":[{"opening":"08:00","closing":"20:00"}]},{"weekDay":6,"timeRanges":[{"opening":"09:00","closing":"19:00"}]},{"weekDay":7,"timeRanges":[{"opening":"09:00","closing":"17:00"}]}]},{"storeNumber":"6","address":{"name":"BUDAPEST 006 SZ. BOLT","street":"R\u00f3zsa utca 16-18.","zip":"1045","city":"Budapest"},"location":{"lat":47.55732,"lon":19.10019},"openingHours":[{"weekDay":1,"timeRanges":[{"opening":"08:00","closing":"19:00"}]},{"weekDay":2,"timeRanges":[{"opening":"08:00","closing":"19:00"}]},{"weekDay":3,"timeRanges":[{"opening":"08:00","closing":"19:00"}]},{"weekDay":4,"timeRanges":[{"opening":"08:00","closing":"19:00"}]},{"weekDay":5,"timeRanges":[{"opening":"08:00","closing":"19:00"}]},{"weekDay":6,"timeRanges":[{"opening":"08:00","closing":"15:00"}]}]},{"storeNumber":"61","address":{"name":"PAKS  061 SZ. BOLT","street":"Bar\u00e1ts\u00e1g utca 3.","zip":"7030","city":"Paks"},"location":{"lat":46.61575,"lon":18.84404},"openingHours":[{"weekDay":1,"timeRanges":[{"opening":"08:00","closing":"18:00"}]},{"weekDay":2,"timeRanges":[{"opening":"08:00","closing":"18:00"}]},{"weekDay":3,"timeRanges":[{"opening":"08:00","closing":"18:00"}]},{"weekDay":4,"timeRanges":[{"opening":"08:00","closing":"18:00"}]},{"weekDay":5,"timeRanges":[{"opening":"08:00","closing":"18:00"}]},{"weekDay":6,"timeRanges":[{"opening":"08:00","closing":"13:00"}]}]},{"storeNumber":"62","address":{"name":"DEBRECEN  062 SZ. BOLT","street":"56-osok tere 6\/a.","zip":"4032","city":"Debrecen"},"location":{"lat":47.54765,"lon":21.61126},"openingHours":[{"weekDay":1,"timeRanges":[{"opening":"08:00","closing":"19:00"}]},{"weekDay":2,"timeRanges":[{"opening":"08:00","closing":"19:00"}]},{"weekDay":3,"timeRanges":[{"opening":"08:00","closing":"19:00"}]},{"weekDay":4,"timeRanges":[{"opening":"08:00","closing":"19:00"}]},{"weekDay":5,"timeRanges":[{"opening":"08:00","closing":"19:00"}]},{"weekDay":6,"timeRanges":[{"opening":"08:00","closing":"18:00"}]},{"weekDay":7,"timeRanges":[{"opening":"08:00","closing":"12:00"}]}]},{"storeNumber":"63","address":{"name":"BUDAPEST 063 SZ. BOLT","street":"Liget t\u00e9r 5.","zip":"1102","city":"Budapest"},"location":{"lat":47.48415,"lon":19.12839},"openingHours":[{"weekDay":1,"timeRanges":[{"opening":"08:00","closing":"19:00"}]},{"weekDay":2,"timeRanges":[{"opening":"08:00","closing":"19:00"}]},{"weekDay":3,"timeRanges":[{"opening":"08:00","closing":"19:00"}]},{"weekDay":4,"timeRanges":[{"opening":"08:00","closing":"19:00"}]},{"weekDay":5,"timeRanges":[{"opening":"08:00","closing":"19:00"}]},{"weekDay":6,"timeRanges":[{"opening":"08:00","closing":"14:00"}]}]},{"storeNumber":"66","address":{"name":"BUDAPEST 066 SZ. BOLT","street":"R\u00e9tk\u00f6z utca 7.","zip":"1118","city":"Budapest"},"location":{"lat":47.46643,"lon":19.00563},"openingHours":[{"weekDay":1,"timeRanges":[{"opening":"09:00","closing":"19:00"}]},{"weekDay":2,"timeRanges":[{"opening":"09:00","closing":"19:00"}]},{"weekDay":3,"timeRanges":[{"opening":"09:00","closing":"19:00"}]},{"weekDay":4,"timeRanges":[{"opening":"09:00","closing":"19:00"}]},{"weekDay":5,"timeRanges":[{"opening":"09:00","closing":"19:00"}]},{"weekDay":6,"timeRanges":[{"opening":"09:00","closing":"16:00"}]}]},{"storeNumber":"67","address":{"name":"BUDAPEST 067 SZ. BOLT","street":"Sz\u00e9chenyi \u00fat 1\/a.","zip":"1201","city":"Budapest"},"location":{"lat":47.4388,"lon":19.10083},"openingHours":[{"weekDay":1,"timeRanges":[{"opening":"08:00","closing":"20:00"}]},{"weekDay":2,"timeRanges":[{"opening":"08:00","closing":"20:00"}]},{"weekDay":3,"timeRanges":[{"opening":"08:00","closing":"20:00"}]},{"weekDay":4,"timeRanges":[{"opening":"08:00","closing":"20:00"}]},{"weekDay":5,"timeRanges":[{"opening":"08:00","closing":"20:00"}]},{"weekDay":6,"timeRanges":[{"opening":"08:00","closing":"20:00"}]},{"weekDay":7,"timeRanges":[{"opening":"08:00","closing":"19:00"}]}]},{"storeNumber":"69","address":{"name":"Debrecen 069. SZ. BOLT","street":"Angyalf\u00f6ld t\u00e9r 17.","zip":"4031","city":"Debrecen"},"location":{"lat":47.52289,"lon":21.60405},"openingHours":[{"weekDay":1,"timeRanges":[{"opening":"08:00","closing":"19:00"}]},{"weekDay":2,"timeRanges":[{"opening":"08:00","closing":"19:00"}]},{"weekDay":3,"timeRanges":[{"opening":"08:00","closing":"19:00"}]},{"weekDay":4,"timeRanges":[{"opening":"08:00","closing":"19:00"}]},{"weekDay":5,"timeRanges":[{"opening":"08:00","closing":"19:00"}]},{"weekDay":6,"timeRanges":[{"opening":"08:00","closing":"13:00"}]}]},{"storeNumber":"75","address":{"name":"P\u00c9CS 075 SZ. BOLT","street":"Sikl\u00f3si \u00fat 37.","zip":"7624","city":"P\u00e9cs"},"location":{"lat":46.05662,"lon":18.23301},"openingHours":[{"weekDay":1,"timeRanges":[{"opening":"08:00","closing":"20:00"}]},{"weekDay":2,"timeRanges":[{"opening":"08:00","closing":"20:00"}]},{"weekDay":3,"timeRanges":[{"opening":"08:00","closing":"20:00"}]},{"weekDay":4,"timeRanges":[{"opening":"08:00","closing":"20:00"}]},{"weekDay":5,"timeRanges":[{"opening":"08:00","closing":"20:00"}]},{"weekDay":6,"timeRanges":[{"opening":"08:00","closing":"20:00"}]},{"weekDay":7,"timeRanges":[{"opening":"09:00","closing":"17:00"}]}]},{"storeNumber":"76","address":{"name":"BUDAPEST 076 SZ. BOLT","street":"Nagyt\u00e9t\u00e9nyi \u00fat 27-47.","zip":"1222","city":"Budapest"},"location":{"lat":47.4067895,"lon":19.0174905},"openingHours":[{"weekDay":1,"timeRanges":[{"opening":"09:00","closing":"20:00"}]},{"weekDay":2,"timeRanges":[{"opening":"09:00","closing":"20:00"}]},{"weekDay":3,"timeRanges":[{"opening":"09:00","closing":"20:00"}]},{"weekDay":4,"timeRanges":[{"opening":"09:00","closing":"20:00"}]},{"weekDay":5,"timeRanges":[{"opening":"09:00","closing":"20:00"}]},{"weekDay":6,"timeRanges":[{"opening":"09:00","closing":"20:00"}]},{"weekDay":7,"timeRanges":[{"opening":"09:00","closing":"19:00"}]}]},{"storeNumber":"79","address":{"name":"SZOMBATHELY 079 SZ. BOLT","street":"K\u00f6rmendi \u00fat HRSZ.9590","zip":"9700","city":"Szombathely"},"location":{"lat":47.21455,"lon":16.62219},"openingHours":[{"weekDay":1,"timeRanges":[{"opening":"08:00","closing":"19:00"}]},{"weekDay":2,"timeRanges":[{"opening":"08:00","closing":"19:00"}]},{"weekDay":3,"timeRanges":[{"opening":"08:00","closing":"19:00"}]},{"weekDay":4,"timeRanges":[{"opening":"08:00","closing":"19:00"}]},{"weekDay":5,"timeRanges":[{"opening":"08:00","closing":"19:00"}]},{"weekDay":6,"timeRanges":[{"opening":"08:00","closing":"19:00"}]},{"weekDay":7,"timeRanges":[{"opening":"08:00","closing":"17:00"}]}]},{"storeNumber":"80","address":{"name":"BUDAPEST 080 SZ. BOLT","street":"Kir\u00e1lyi P\u00e1l utca 20.","zip":"1053","city":"Budapest"},"location":{"lat":47.48868,"lon":19.0603},"openingHours":[{"weekDay":1,"timeRanges":[{"opening":"08:00","closing":"20:00"}]},{"weekDay":2,"timeRanges":[{"opening":"08:00","closing":"20:00"}]},{"weekDay":3,"timeRanges":[{"opening":"08:00","closing":"20:00"}]},{"weekDay":4,"timeRanges":[{"opening":"08:00","closing":"20:00"}]},{"weekDay":5,"timeRanges":[{"opening":"08:00","closing":"20:00"}]},{"weekDay":6,"timeRanges":[{"opening":"08:00","closing":"20:00"}]},{"weekDay":7,"timeRanges":[{"opening":"09:00","closing":"19:00"}]}]},{"storeNumber":"87","address":{"name":"BUDAPEST 087 SZ. BOLT","street":"Pesti \u00fat 172.","zip":"1173","city":"Budapest"},"location":{"lat":47.47959,"lon":19.25754},"openingHours":[{"weekDay":1,"timeRanges":[{"opening":"08:00","closing":"19:00"}]},{"weekDay":2,"timeRanges":[{"opening":"08:00","closing":"19:00"}]},{"weekDay":3,"timeRanges":[{"opening":"08:00","closing":"19:00"}]},{"weekDay":4,"timeRanges":[{"opening":"08:00","closing":"19:00"}]},{"weekDay":5,"timeRanges":[{"opening":"08:00","closing":"19:00"}]},{"weekDay":6,"timeRanges":[{"opening":"08:00","closing":"15:00"}]}]},{"storeNumber":"9","address":{"name":"BAJA 009 SZ. BOLT","street":"E\u00f6tv\u00f6s utca 5.","zip":"6500","city":"Baja"},"location":{"lat":46.17858,"lon":18.95156},"openingHours":[{"weekDay":1,"timeRanges":[{"opening":"08:00","closing":"19:00"}]},{"weekDay":2,"timeRanges":[{"opening":"08:00","closing":"19:00"}]},{"weekDay":3,"timeRanges":[{"opening":"08:00","closing":"19:00"}]},{"weekDay":4,"timeRanges":[{"opening":"08:00","closing":"19:00"}]},{"weekDay":5,"timeRanges":[{"opening":"08:00","closing":"19:00"}]},{"weekDay":6,"timeRanges":[{"opening":"08:00","closing":"14:00"}]}]},{"storeNumber":"91","address":{"name":"GY\u00d6NGY\u00d6S 091 SZ. BOLT","street":"F\u0151 t\u00e9r 2.","zip":"3200","city":"Gy\u00f6ngy\u00f6s"},"location":{"lat":47.7851,"lon":19.92521},"openingHours":[{"weekDay":1,"timeRanges":[{"opening":"08:00","closing":"19:00"}]},{"weekDay":2,"timeRanges":[{"opening":"08:00","closing":"19:00"}]},{"weekDay":3,"timeRanges":[{"opening":"08:00","closing":"19:00"}]},{"weekDay":4,"timeRanges":[{"opening":"08:00","closing":"19:00"}]},{"weekDay":5,"timeRanges":[{"opening":"08:00","closing":"19:00"}]},{"weekDay":6,"timeRanges":[{"opening":"08:00","closing":"15:00"}]}]},{"storeNumber":"93","address":{"name":"MOSONMAGYAR\u00d3V\u00c1R 093 SZ. BOLT","street":"Magyar utca 36\/a.","zip":"9200","city":"Mosonmagyar\u00f3v\u00e1r"},"location":{"lat":47.8753696,"lon":17.2704433},"openingHours":[{"weekDay":1,"timeRanges":[{"opening":"08:00","closing":"19:00"}]},{"weekDay":2,"timeRanges":[{"opening":"08:00","closing":"19:00"}]},{"weekDay":3,"timeRanges":[{"opening":"08:00","closing":"19:00"}]},{"weekDay":4,"timeRanges":[{"opening":"08:00","closing":"19:00"}]},{"weekDay":5,"timeRanges":[{"opening":"08:00","closing":"19:00"}]},{"weekDay":6,"timeRanges":[{"opening":"08:00","closing":"14:00"}]}]}]