[{"storeNumber":"1","address":{"name":"dm drogerie markt srl","street":"Via Fermi 39","zip":"24035","city":"Curno"},"location":{"lat":45.6913948059082,"lon":9.622886657714844},"openingHours":[{"weekDay":1,"timeRanges":[{"opening":"09:00","closing":"20:00"}]},{"weekDay":2,"timeRanges":[{"opening":"09:00","closing":"20:00"}]},{"weekDay":3,"timeRanges":[{"opening":"09:00","closing":"20:00"}]},{"weekDay":4,"timeRanges":[{"opening":"09:00","closing":"20:00"}]},{"weekDay":5,"timeRanges":[{"opening":"09:00","closing":"20:00"}]},{"weekDay":6,"timeRanges":[{"opening":"09:00","closing":"20:00"}]},{"weekDay":7,"timeRanges":[{"opening":"09:00","closing":"20:00"}]}]},{"storeNumber":"10","address":{"name":"dm drogerie markt srl","street":"Corso Adige 2","zip":"13100","city":"Vercelli"},"location":{"lat":45.32509994506836,"lon":8.392937660217285},"openingHours":[{"weekDay":1,"timeRanges":[{"opening":"09:00","closing":"19:30"}]},{"weekDay":2,"timeRanges":[{"opening":"09:00","closing":"19:30"}]},{"weekDay":3,"timeRanges":[{"opening":"09:00","closing":"19:30"}]},{"weekDay":4,"timeRanges":[{"opening":"09:00","closing":"19:30"}]},{"weekDay":5,"timeRanges":[{"opening":"09:00","closing":"19:30"}]},{"weekDay":6,"timeRanges":[{"opening":"09:00","closing":"19:30"}]},{"weekDay":7,"timeRanges":[{"opening":"10:00","closing":"19:00"}]}]},{"storeNumber":"11","address":{"name":"dm drogerie markt srl","street":"Via Divisione Garibaldi 5","zip":"33078","city":"San Vito al Tagliamento"},"location":{"lat":45.91116714477539,"lon":12.864997863769531},"openingHours":[{"weekDay":1,"timeRanges":[{"opening":"08:30","closing":"19:00"}]},{"weekDay":2,"timeRanges":[{"opening":"08:30","closing":"19:00"}]},{"weekDay":3,"timeRanges":[{"opening":"08:30","closing":"19:00"}]},{"weekDay":4,"timeRanges":[{"opening":"08:30","closing":"19:00"}]},{"weekDay":5,"timeRanges":[{"opening":"08:30","closing":"19:00"}]},{"weekDay":6,"timeRanges":[{"opening":"08:30","closing":"19:00"}]},{"weekDay":7,"timeRanges":[{"opening":"10:00","closing":"18:00"}]}]},{"storeNumber":"12","address":{"name":"dm drogerie markt srl","street":"Via Capuana\/ang.Cso Europa","zip":"20017","city":"Rho"},"location":{"lat":45.53679656982422,"lon":9.019415855407715},"openingHours":[{"weekDay":1,"timeRanges":[{"opening":"09:00","closing":"20:00"}]},{"weekDay":2,"timeRanges":[{"opening":"09:00","closing":"20:00"}]},{"weekDay":3,"timeRanges":[{"opening":"09:00","closing":"20:00"}]},{"weekDay":4,"timeRanges":[{"opening":"09:00","closing":"20:00"}]},{"weekDay":5,"timeRanges":[{"opening":"09:00","closing":"20:00"}]},{"weekDay":6,"timeRanges":[{"opening":"09:00","closing":"20:00"}]},{"weekDay":7,"timeRanges":[{"opening":"09:00","closing":"20:00"}]}]},{"storeNumber":"14","address":{"name":"dm drogerie markt srl","street":"Viale Caproni 11 E 32","zip":"38068","city":"Rovereto"},"location":{"lat":45.867862701416016,"lon":11.015837669372559},"openingHours":[{"weekDay":1,"timeRanges":[{"opening":"09:00","closing":"19:30"}]},{"weekDay":2,"timeRanges":[{"opening":"09:00","closing":"19:30"}]},{"weekDay":3,"timeRanges":[{"opening":"09:00","closing":"19:30"}]},{"weekDay":4,"timeRanges":[{"opening":"09:00","closing":"19:30"}]},{"weekDay":5,"timeRanges":[{"opening":"09:00","closing":"19:30"}]},{"weekDay":6,"timeRanges":[{"opening":"09:00","closing":"19:30"}]},{"weekDay":7,"timeRanges":[{"opening":"10:00","closing":"19:00"}]}]},{"storeNumber":"15","address":{"name":"dm drogerie markt srl","street":"Nordring 17","zip":"39031","city":"Brunico"},"location":{"lat":46.79997253417969,"lon":11.932496070861816},"openingHours":[{"weekDay":1,"timeRanges":[{"opening":"08:30","closing":"19:30"}]},{"weekDay":2,"timeRanges":[{"opening":"08:30","closing":"19:30"}]},{"weekDay":3,"timeRanges":[{"opening":"08:30","closing":"19:30"}]},{"weekDay":4,"timeRanges":[{"opening":"08:30","closing":"19:30"}]},{"weekDay":5,"timeRanges":[{"opening":"08:30","closing":"19:30"}]},{"weekDay":6,"timeRanges":[{"opening":"08:30","closing":"19:30"}]},{"weekDay":7,"timeRanges":[{"opening":"09:00","closing":"19:00"}]}]},{"storeNumber":"16","address":{"name":"dm drogerie markt srl","street":"Via Manzoni 3","zip":"21100","city":"Varese"},"location":{"lat":45.81624984741211,"lon":8.828166961669922},"openingHours":[{"weekDay":1,"timeRanges":[{"opening":"09:00","closing":"19:30"}]},{"weekDay":2,"timeRanges":[{"opening":"09:00","closing":"19:30"}]},{"weekDay":3,"timeRanges":[{"opening":"09:00","closing":"19:30"}]},{"weekDay":4,"timeRanges":[{"opening":"09:00","closing":"19:30"}]},{"weekDay":5,"timeRanges":[{"opening":"09:00","closing":"19:30"}]},{"weekDay":6,"timeRanges":[{"opening":"09:30","closing":"19:30"}]},{"weekDay":7,"timeRanges":[{"opening":"10:00","closing":"19:00"}]}]},{"storeNumber":"17","address":{"name":"dm drogerie markt srl","street":"Via Garibaldi 1","zip":"34170","city":"Gorizia"},"location":{"lat":45.942779541015625,"lon":13.620278358459473},"openingHours":[{"weekDay":1,"timeRanges":[{"opening":"08:30","closing":"19:30"}]},{"weekDay":2,"timeRanges":[{"opening":"08:30","closing":"19:30"}]},{"weekDay":3,"timeRanges":[{"opening":"08:30","closing":"19:30"}]},{"weekDay":4,"timeRanges":[{"opening":"08:30","closing":"19:30"}]},{"weekDay":5,"timeRanges":[{"opening":"08:30","closing":"19:30"}]},{"weekDay":6,"timeRanges":[{"opening":"08:30","closing":"19:30"}]}]},{"storeNumber":"18","address":{"name":"dm drogerie markt srl","street":"Fondamenta S. Croce 511","zip":"30135","city":"Venezia"},"location":{"lat":45.439109802246094,"lon":12.318160057067871},"openingHours":[{"weekDay":1,"timeRanges":[{"opening":"08:30","closing":"19:30"}]},{"weekDay":2,"timeRanges":[{"opening":"08:30","closing":"19:30"}]},{"weekDay":3,"timeRanges":[{"opening":"08:30","closing":"19:30"}]},{"weekDay":4,"timeRanges":[{"opening":"08:30","closing":"19:30"}]},{"weekDay":5,"timeRanges":[{"opening":"08:30","closing":"19:30"}]},{"weekDay":6,"timeRanges":[{"opening":"08:30","closing":"19:30"}]},{"weekDay":7,"timeRanges":[{"opening":"09:00","closing":"19:00"}]}]},{"storeNumber":"19","address":{"name":"dm drogerie markt srl","street":"Via Centrale 11","zip":"39021","city":"Laces"},"location":{"lat":46.618896484375,"lon":10.853233337402344},"openingHours":[{"weekDay":1,"timeRanges":[{"opening":"08:30","closing":"19:00"}]},{"weekDay":2,"timeRanges":[{"opening":"08:30","closing":"19:00"}]},{"weekDay":3,"timeRanges":[{"opening":"08:30","closing":"19:00"}]},{"weekDay":4,"timeRanges":[{"opening":"08:30","closing":"19:00"}]},{"weekDay":5,"timeRanges":[{"opening":"08:30","closing":"19:00"}]},{"weekDay":6,"timeRanges":[{"opening":"08:30","closing":"19:00"}]},{"weekDay":7,"timeRanges":[{"opening":"09:00","closing":"19:00"}]}]},{"storeNumber":"2","address":{"name":"dm drogerie markt srl","street":"Localit\u00e0 I Vecchi","zip":"37019","city":"Peschiera del Garda"},"location":{"lat":45.4517822265625,"lon":10.661723136901855},"openingHours":[{"weekDay":1,"timeRanges":[{"opening":"08:30","closing":"19:30"}]},{"weekDay":2,"timeRanges":[{"opening":"08:30","closing":"19:30"}]},{"weekDay":3,"timeRanges":[{"opening":"08:30","closing":"19:30"}]},{"weekDay":4,"timeRanges":[{"opening":"08:30","closing":"19:30"}]},{"weekDay":5,"timeRanges":[{"opening":"08:30","closing":"19:30"}]},{"weekDay":6,"timeRanges":[{"opening":"08:30","closing":"19:30"}]},{"weekDay":7,"timeRanges":[{"opening":"10:00","closing":"19:30"}]}]},{"storeNumber":"20","address":{"name":"dm drogerie markt srl","street":"Corso Palladio 41","zip":"36100","city":"Vicenza"},"location":{"lat":45.54695510864258,"lon":11.542981147766113},"openingHours":[{"weekDay":1,"timeRanges":[{"opening":"08:30","closing":"19:30"}]},{"weekDay":2,"timeRanges":[{"opening":"08:30","closing":"19:30"}]},{"weekDay":3,"timeRanges":[{"opening":"08:30","closing":"19:30"}]},{"weekDay":4,"timeRanges":[{"opening":"08:30","closing":"19:30"}]},{"weekDay":5,"timeRanges":[{"opening":"08:30","closing":"19:30"}]},{"weekDay":6,"timeRanges":[{"opening":"08:30","closing":"19:30"}]},{"weekDay":7,"timeRanges":[{"opening":"10:00","closing":"19:30"}]}]},{"storeNumber":"22","address":{"name":"dm drogerie markt srl","street":"Via Ernesto Baslini 4","zip":"24047","city":"Treviglio"},"location":{"lat":45.51655578613281,"lon":9.58602523803711},"openingHours":[{"weekDay":1,"timeRanges":[{"opening":"08:30","closing":"19:30"}]},{"weekDay":2,"timeRanges":[{"opening":"08:30","closing":"19:30"}]},{"weekDay":3,"timeRanges":[{"opening":"08:30","closing":"19:30"}]},{"weekDay":4,"timeRanges":[{"opening":"08:30","closing":"19:30"}]},{"weekDay":5,"timeRanges":[{"opening":"08:30","closing":"19:30"}]},{"weekDay":6,"timeRanges":[{"opening":"08:30","closing":"19:30"}]},{"weekDay":7,"timeRanges":[{"opening":"09:00","closing":"19:30"}]}]},{"storeNumber":"25","address":{"name":"dm drogerie markt srl","street":"Via Pisani 10","zip":"20124","city":"Milano"},"location":{"lat":45.481441497802734,"lon":9.20020866394043},"openingHours":[{"weekDay":1,"timeRanges":[{"opening":"09:00","closing":"19:00"}]},{"weekDay":2,"timeRanges":[{"opening":"09:00","closing":"19:00"}]},{"weekDay":3,"timeRanges":[{"opening":"09:00","closing":"19:00"}]},{"weekDay":4,"timeRanges":[{"opening":"09:00","closing":"19:00"}]},{"weekDay":5,"timeRanges":[{"opening":"09:00","closing":"19:00"}]},{"weekDay":6,"timeRanges":[{"opening":"09:00","closing":"19:00"}]},{"weekDay":7,"timeRanges":[{"opening":"10:00","closing":"18:30"}]}]},{"storeNumber":"28","address":{"name":"dm drogerie markt srl","street":"Via Giovanni Battista Trener 16","zip":"38121","city":"Trento"},"location":{"lat":46.09450912475586,"lon":11.115851402282715},"openingHours":[{"weekDay":1,"timeRanges":[{"opening":"08:30","closing":"19:30"}]},{"weekDay":2,"timeRanges":[{"opening":"08:30","closing":"19:30"}]},{"weekDay":3,"timeRanges":[{"opening":"08:30","closing":"19:30"}]},{"weekDay":4,"timeRanges":[{"opening":"08:30","closing":"19:30"}]},{"weekDay":5,"timeRanges":[{"opening":"08:30","closing":"19:30"}]},{"weekDay":6,"timeRanges":[{"opening":"08:30","closing":"19:30"}]},{"weekDay":7,"timeRanges":[{"opening":"09:00","closing":"19:00"}]}]},{"storeNumber":"29","address":{"name":"dm drogerie markt srl","street":"Corso Indipendenza 24N10","zip":"20129","city":"Milano"},"location":{"lat":45.46761703491211,"lon":9.215603828430176},"openingHours":[{"weekDay":1,"timeRanges":[{"opening":"09:00","closing":"19:30"}]},{"weekDay":2,"timeRanges":[{"opening":"09:00","closing":"19:30"}]},{"weekDay":3,"timeRanges":[{"opening":"09:00","closing":"19:30"}]},{"weekDay":4,"timeRanges":[{"opening":"09:00","closing":"19:30"}]},{"weekDay":5,"timeRanges":[{"opening":"09:00","closing":"19:30"}]},{"weekDay":6,"timeRanges":[{"opening":"09:00","closing":"19:30"}]},{"weekDay":7,"timeRanges":[{"opening":"09:00","closing":"19:30"}]}]},{"storeNumber":"3","address":{"name":"dm drogerie markt srl","street":"Via Galileo Galilei 20","zip":"39100","city":"Bolzano"},"location":{"lat":46.48664855957031,"lon":11.336507797241211},"openingHours":[{"weekDay":1,"timeRanges":[{"opening":"09:00","closing":"20:00"}]},{"weekDay":2,"timeRanges":[{"opening":"09:00","closing":"20:00"}]},{"weekDay":3,"timeRanges":[{"opening":"09:00","closing":"20:00"}]},{"weekDay":4,"timeRanges":[{"opening":"09:00","closing":"20:00"}]},{"weekDay":5,"timeRanges":[{"opening":"09:00","closing":"20:00"}]},{"weekDay":6,"timeRanges":[{"opening":"09:00","closing":"20:00"}]},{"weekDay":7,"timeRanges":[{"opening":"10:00","closing":"20:00"}]}]},{"storeNumber":"30","address":{"name":"dm drogierie markt srl","street":"Via Iseo 1","zip":"30027","city":"San Don\u00e0 di Piave"},"location":{"lat":45.6397705078125,"lon":12.597809791564941},"openingHours":[{"weekDay":1,"timeRanges":[{"opening":"09:00","closing":"20:00"}]},{"weekDay":2,"timeRanges":[{"opening":"09:00","closing":"20:00"}]},{"weekDay":3,"timeRanges":[{"opening":"09:00","closing":"20:00"}]},{"weekDay":4,"timeRanges":[{"opening":"09:00","closing":"20:00"}]},{"weekDay":5,"timeRanges":[{"opening":"09:00","closing":"20:00"}]},{"weekDay":6,"timeRanges":[{"opening":"09:00","closing":"20:00"}]},{"weekDay":7,"timeRanges":[{"opening":"09:30","closing":"20:00"}]}]},{"storeNumber":"31","address":{"name":"dm drogerie markt srl","street":"Via Giambellino 80","zip":"20146","city":"Milano"},"location":{"lat":45.44921875,"lon":9.143473625183105},"openingHours":[{"weekDay":1,"timeRanges":[{"opening":"09:00","closing":"19:30"}]},{"weekDay":2,"timeRanges":[{"opening":"09:00","closing":"19:30"}]},{"weekDay":3,"timeRanges":[{"opening":"09:00","closing":"19:30"}]},{"weekDay":4,"timeRanges":[{"opening":"09:00","closing":"19:30"}]},{"weekDay":5,"timeRanges":[{"opening":"09:00","closing":"19:30"}]},{"weekDay":6,"timeRanges":[{"opening":"09:00","closing":"19:30"}]},{"weekDay":7,"timeRanges":[{"opening":"09:00","closing":"19:30"}]}]},{"storeNumber":"32","address":{"name":"dm drogerie markt srl","street":"Via Debouch\u00e8 S.P. 143","zip":"10048","city":"Vinovo"},"location":{"lat":44.981815338134766,"lon":7.6197662353515625},"openingHours":[{"weekDay":1,"timeRanges":[{"opening":"09:00","closing":"21:00"}]},{"weekDay":2,"timeRanges":[{"opening":"09:00","closing":"21:00"}]},{"weekDay":3,"timeRanges":[{"opening":"09:00","closing":"21:00"}]},{"weekDay":4,"timeRanges":[{"opening":"09:00","closing":"21:00"}]},{"weekDay":5,"timeRanges":[{"opening":"09:00","closing":"21:00"}]},{"weekDay":6,"timeRanges":[{"opening":"09:00","closing":"21:00"}]},{"weekDay":7,"timeRanges":[{"opening":"09:00","closing":"19:00"}]}]},{"storeNumber":"33","address":{"name":"dm drogerie markt srl","street":"Via della Liberazione 15","zip":"40128","city":"Bologna"},"location":{"lat":44.511993408203125,"lon":11.352405548095703},"openingHours":[{"weekDay":1,"timeRanges":[{"opening":"09:00","closing":"20:00"}]},{"weekDay":2,"timeRanges":[{"opening":"09:00","closing":"20:00"}]},{"weekDay":3,"timeRanges":[{"opening":"09:00","closing":"20:00"}]},{"weekDay":4,"timeRanges":[{"opening":"09:00","closing":"20:00"}]},{"weekDay":5,"timeRanges":[{"opening":"09:00","closing":"20:00"}]},{"weekDay":6,"timeRanges":[{"opening":"09:00","closing":"20:00"}]},{"weekDay":7,"timeRanges":[{"opening":"10:00","closing":"20:00"}]}]},{"storeNumber":"34","address":{"name":"dm drogerie markt srl","street":"Via Giorgio La Pira 18","zip":"26013","city":"Crema"},"location":{"lat":45.35884094238281,"lon":9.666472434997559},"openingHours":[{"weekDay":1,"timeRanges":[{"opening":"09:00","closing":"19:00"}]},{"weekDay":2,"timeRanges":[{"opening":"09:00","closing":"19:00"}]},{"weekDay":3,"timeRanges":[{"opening":"09:00","closing":"19:00"}]},{"weekDay":4,"timeRanges":[{"opening":"09:00","closing":"19:00"}]},{"weekDay":5,"timeRanges":[{"opening":"09:00","closing":"19:00"}]},{"weekDay":6,"timeRanges":[{"opening":"09:00","closing":"19:00"}]},{"weekDay":7,"timeRanges":[{"opening":"09:00","closing":"19:00"}]}]},{"storeNumber":"35","address":{"name":"dm drogerie markt srl","street":"Piazza della Borsa 9","zip":"34121","city":"Trieste"},"location":{"lat":45.65055847167969,"lon":13.77093505859375},"openingHours":[{"weekDay":1,"timeRanges":[{"opening":"08:30","closing":"19:30"}]},{"weekDay":2,"timeRanges":[{"opening":"08:30","closing":"19:30"}]},{"weekDay":3,"timeRanges":[{"opening":"08:30","closing":"19:30"}]},{"weekDay":4,"timeRanges":[{"opening":"08:30","closing":"19:30"}]},{"weekDay":5,"timeRanges":[{"opening":"08:30","closing":"19:30"}]},{"weekDay":6,"timeRanges":[{"opening":"09:00","closing":"20:00"}]},{"weekDay":7,"timeRanges":[{"opening":"10:00","closing":"19:30"}]}]},{"storeNumber":"36","address":{"name":"dm drogerie markt srl","street":"Via Enrico Mattei 1\/c","zip":"30020","city":"Marcon"},"location":{"lat":45.54535675048828,"lon":12.30443286895752},"openingHours":[{"weekDay":1,"timeRanges":[{"opening":"09:00","closing":"20:00"}]},{"weekDay":2,"timeRanges":[{"opening":"09:00","closing":"20:00"}]},{"weekDay":3,"timeRanges":[{"opening":"09:00","closing":"20:00"}]},{"weekDay":4,"timeRanges":[{"opening":"09:00","closing":"20:00"}]},{"weekDay":5,"timeRanges":[{"opening":"09:00","closing":"20:00"}]},{"weekDay":6,"timeRanges":[{"opening":"09:00","closing":"20:00"}]}]},{"storeNumber":"37","address":{"name":"dm drogerie markt srl","street":"Via Giovanni Raineri 79A","zip":"43036","city":"Fidenza","district":"San Michele Campagna"},"location":{"lat":44.883697509765625,"lon":10.086835861206055},"openingHours":[{"weekDay":1,"timeRanges":[{"opening":"09:00","closing":"20:00"}]},{"weekDay":2,"timeRanges":[{"opening":"09:00","closing":"20:00"}]},{"weekDay":3,"timeRanges":[{"opening":"09:00","closing":"20:00"}]},{"weekDay":4,"timeRanges":[{"opening":"09:00","closing":"20:00"}]},{"weekDay":5,"timeRanges":[{"opening":"09:00","closing":"20:00"}]},{"weekDay":6,"timeRanges":[{"opening":"09:00","closing":"20:00"}]},{"weekDay":7,"timeRanges":[{"opening":"09:00","closing":"20:00"}]}]},{"storeNumber":"38","address":{"name":"dm drogerie markt srl","street":"Corso Sempione 65A","zip":"20149","city":"Milano"},"location":{"lat":45.484188079833984,"lon":9.160330772399902},"openingHours":[{"weekDay":1,"timeRanges":[{"opening":"09:00","closing":"19:30"}]},{"weekDay":2,"timeRanges":[{"opening":"09:00","closing":"19:30"}]},{"weekDay":3,"timeRanges":[{"opening":"09:00","closing":"19:30"}]},{"weekDay":4,"timeRanges":[{"opening":"09:00","closing":"19:30"}]},{"weekDay":5,"timeRanges":[{"opening":"09:00","closing":"19:30"}]},{"weekDay":6,"timeRanges":[{"opening":"09:00","closing":"19:30"}]},{"weekDay":7,"timeRanges":[{"opening":"09:30","closing":"19:30"}]}]},{"storeNumber":"39","address":{"name":"dm drogerie markt srl","street":"Piazza Derna 215\/E","zip":"10155","city":"Torino"},"location":{"lat":45.101436614990234,"lon":7.698951721191406},"openingHours":[{"weekDay":1,"timeRanges":[{"opening":"09:00","closing":"19:30"}]},{"weekDay":2,"timeRanges":[{"opening":"09:00","closing":"19:30"}]},{"weekDay":3,"timeRanges":[{"opening":"09:00","closing":"19:30"}]},{"weekDay":4,"timeRanges":[{"opening":"09:00","closing":"19:30"}]},{"weekDay":5,"timeRanges":[{"opening":"09:00","closing":"19:30"}]},{"weekDay":6,"timeRanges":[{"opening":"09:00","closing":"19:30"}]},{"weekDay":7,"timeRanges":[{"opening":"09:00","closing":"19:30"}]}]},{"storeNumber":"4","address":{"name":"dm drogerie markt srl","street":"Gall.Castelli Ferrieri 3N10\/13\/17","zip":"20145","city":"Milano"},"location":{"lat":45.477577209472656,"lon":9.156002044677734},"openingHours":[{"weekDay":1,"timeRanges":[{"opening":"09:00","closing":"20:00"}]},{"weekDay":2,"timeRanges":[{"opening":"09:00","closing":"20:00"}]},{"weekDay":3,"timeRanges":[{"opening":"09:00","closing":"20:00"}]},{"weekDay":4,"timeRanges":[{"opening":"09:00","closing":"20:00"}]},{"weekDay":5,"timeRanges":[{"opening":"09:00","closing":"20:00"}]},{"weekDay":6,"timeRanges":[{"opening":"09:00","closing":"20:00"}]},{"weekDay":7,"timeRanges":[{"opening":"09:00","closing":"20:00"}]}]},{"storeNumber":"40","address":{"name":"dm drogerie markt srl","street":"Corso Roma 33","zip":"15121","city":"Alessandria"},"location":{"lat":44.91203689575195,"lon":8.612737655639648},"openingHours":[{"weekDay":1,"timeRanges":[{"opening":"09:00","closing":"19:30"}]},{"weekDay":2,"timeRanges":[{"opening":"09:00","closing":"19:30"}]},{"weekDay":3,"timeRanges":[{"opening":"09:00","closing":"19:30"}]},{"weekDay":4,"timeRanges":[{"opening":"09:00","closing":"19:30"}]},{"weekDay":5,"timeRanges":[{"opening":"09:00","closing":"19:30"}]},{"weekDay":6,"timeRanges":[{"opening":"09:00","closing":"19:30"}]},{"weekDay":7,"timeRanges":[{"opening":"14:30","closing":"20:00"}]}]},{"storeNumber":"41","address":{"name":"dm drogerie markt srl","street":"Via Grande 45","zip":"57123","city":"Livorno"},"location":{"lat":43.55174255371094,"lon":10.312219619750977},"openingHours":[{"weekDay":1,"timeRanges":[{"opening":"09:00","closing":"19:30"}]},{"weekDay":2,"timeRanges":[{"opening":"09:00","closing":"19:30"}]},{"weekDay":3,"timeRanges":[{"opening":"09:00","closing":"19:30"}]},{"weekDay":4,"timeRanges":[{"opening":"09:00","closing":"19:30"}]},{"weekDay":5,"timeRanges":[{"opening":"09:00","closing":"19:30"}]},{"weekDay":6,"timeRanges":[{"opening":"09:00","closing":"19:30"}]},{"weekDay":7,"timeRanges":[{"opening":"09:00","closing":"19:30"}]}]},{"storeNumber":"42","address":{"name":"dm drogerie markt srl","street":"Viale Italia 73-75","zip":"10040","city":"Lein\u00ed"},"location":{"lat":45.1813850402832,"lon":7.708004474639893},"openingHours":[{"weekDay":1,"timeRanges":[{"opening":"09:00","closing":"19:30"}]},{"weekDay":2,"timeRanges":[{"opening":"09:00","closing":"19:30"}]},{"weekDay":3,"timeRanges":[{"opening":"09:00","closing":"19:30"}]},{"weekDay":4,"timeRanges":[{"opening":"09:00","closing":"19:30"}]},{"weekDay":5,"timeRanges":[{"opening":"09:00","closing":"19:30"}]},{"weekDay":6,"timeRanges":[{"opening":"09:00","closing":"19:30"}]},{"weekDay":7,"timeRanges":[{"opening":"09:00","closing":"19:30"}]}]},{"storeNumber":"43","address":{"name":"dm drogerie markt srl","street":"Viale Vespucci 121","zip":"47921","city":"Rimini"},"location":{"lat":44.06462097167969,"lon":12.584150314331055},"openingHours":[{"weekDay":1,"timeRanges":[{"opening":"09:00","closing":"19:30"}]},{"weekDay":2,"timeRanges":[{"opening":"09:00","closing":"19:30"}]},{"weekDay":3,"timeRanges":[{"opening":"09:00","closing":"19:30"}]},{"weekDay":4,"timeRanges":[{"opening":"09:00","closing":"19:30"}]},{"weekDay":5,"timeRanges":[{"opening":"09:00","closing":"19:30"}]},{"weekDay":6,"timeRanges":[{"opening":"09:00","closing":"19:30"}]},{"weekDay":7,"timeRanges":[{"opening":"09:00","closing":"19:30"}]}]},{"storeNumber":"44","address":{"name":"dm drogerie markt srl","street":"Strada della Fabbreccia 1\/2","streetAdditional":"S.S. Interquartieri","zip":"61122","city":"Pesaro"},"location":{"lat":43.89125061035156,"lon":12.887414932250977},"openingHours":[{"weekDay":1,"timeRanges":[{"opening":"09:00","closing":"19:30"}]},{"weekDay":2,"timeRanges":[{"opening":"09:00","closing":"19:30"}]},{"weekDay":3,"timeRanges":[{"opening":"09:00","closing":"19:30"}]},{"weekDay":4,"timeRanges":[{"opening":"09:00","closing":"19:30"}]},{"weekDay":5,"timeRanges":[{"opening":"09:00","closing":"19:30"}]},{"weekDay":6,"timeRanges":[{"opening":"09:00","closing":"19:30"}]},{"weekDay":7,"timeRanges":[{"opening":"09:00","closing":"19:00"}]}]},{"storeNumber":"45","address":{"name":"dm drogerie markt srl","street":"Corso della Libert\u00e0 184","streetAdditional":"ingresso montacarichi:Via Otto Hubert","zip":"39012","city":"Merano"},"location":{"lat":46.67161178588867,"lon":11.157084465026855},"openingHours":[{"weekDay":1,"timeRanges":[{"opening":"08:30","closing":"19:30"}]},{"weekDay":2,"timeRanges":[{"opening":"08:30","closing":"19:30"}]},{"weekDay":3,"timeRanges":[{"opening":"08:30","closing":"19:30"}]},{"weekDay":4,"timeRanges":[{"opening":"08:30","closing":"19:30"}]},{"weekDay":5,"timeRanges":[{"opening":"08:30","closing":"19:30"}]},{"weekDay":6,"timeRanges":[{"opening":"08:30","closing":"19:30"}]}]},{"storeNumber":"46","address":{"name":"dm drogerie markt srl","street":"Corso Savona 69","streetAdditional":"C.C. Porte di Moncalieri","zip":"10024","city":"Moncalieri"},"location":{"lat":44.983177185058594,"lon":7.706488132476807},"openingHours":[{"weekDay":1,"timeRanges":[{"opening":"09:00","closing":"19:00"}]},{"weekDay":2,"timeRanges":[{"opening":"09:00","closing":"19:00"}]},{"weekDay":3,"timeRanges":[{"opening":"09:00","closing":"19:00"}]},{"weekDay":4,"timeRanges":[{"opening":"09:00","closing":"19:00"}]},{"weekDay":5,"timeRanges":[{"opening":"09:00","closing":"19:00"}]},{"weekDay":6,"timeRanges":[{"opening":"09:00","closing":"19:00"}]},{"weekDay":7,"timeRanges":[{"opening":"09:00","closing":"19:00"}]}]},{"storeNumber":"47","address":{"name":"dm drogerie markt srl","street":"Via Bartolomeo D\u00b4Alviano 23","zip":"34144","city":"Trieste"},"location":{"lat":45.634586334228516,"lon":13.780527114868164},"openingHours":[{"weekDay":1,"timeRanges":[{"opening":"09:00","closing":"20:30"}]},{"weekDay":2,"timeRanges":[{"opening":"09:00","closing":"20:30"}]},{"weekDay":3,"timeRanges":[{"opening":"09:00","closing":"20:30"}]},{"weekDay":4,"timeRanges":[{"opening":"09:00","closing":"20:30"}]},{"weekDay":5,"timeRanges":[{"opening":"09:00","closing":"20:30"}]},{"weekDay":6,"timeRanges":[{"opening":"09:00","closing":"20:30"}]},{"weekDay":7,"timeRanges":[{"opening":"10:00","closing":"20:30"}]}]},{"storeNumber":"48","address":{"name":"dm drogerie markt srl","street":"Via Brigata Liguria 49R-59R","zip":"16121","city":"Genova"},"location":{"lat":44.40330505371094,"lon":8.943418502807617},"openingHours":[{"weekDay":1,"timeRanges":[{"opening":"09:00","closing":"19:30"}]},{"weekDay":2,"timeRanges":[{"opening":"09:00","closing":"19:30"}]},{"weekDay":3,"timeRanges":[{"opening":"09:00","closing":"19:30"}]},{"weekDay":4,"timeRanges":[{"opening":"09:00","closing":"19:30"}]},{"weekDay":5,"timeRanges":[{"opening":"09:00","closing":"19:30"}]},{"weekDay":6,"timeRanges":[{"opening":"09:00","closing":"19:30"}]},{"weekDay":7,"timeRanges":[{"opening":"09:00","closing":"19:30"}]}]},{"storeNumber":"5","address":{"name":"dm drogerie markt srl","street":"Via del Cotonificio 129","zip":"33100","city":"Udine"},"location":{"lat":46.080142974853516,"lon":13.218857765197754},"openingHours":[{"weekDay":1,"timeRanges":[{"opening":"08:30","closing":"19:30"}]},{"weekDay":2,"timeRanges":[{"opening":"08:30","closing":"19:30"}]},{"weekDay":3,"timeRanges":[{"opening":"08:30","closing":"19:30"}]},{"weekDay":4,"timeRanges":[{"opening":"08:30","closing":"19:30"}]},{"weekDay":5,"timeRanges":[{"opening":"08:30","closing":"19:30"}]},{"weekDay":6,"timeRanges":[{"opening":"08:30","closing":"20:00"}]}]},{"storeNumber":"50","address":{"name":"dm drogerie markt srl","street":"Via Reiss Romoli 16","zip":"20019","city":"Settimo Milanese"},"location":{"lat":45.47890090942383,"lon":9.062976837158203},"openingHours":[{"weekDay":1,"timeRanges":[{"opening":"09:00","closing":"20:00"}]},{"weekDay":2,"timeRanges":[{"opening":"09:00","closing":"20:00"}]},{"weekDay":3,"timeRanges":[{"opening":"09:00","closing":"20:00"}]},{"weekDay":4,"timeRanges":[{"opening":"09:00","closing":"20:00"}]},{"weekDay":5,"timeRanges":[{"opening":"09:00","closing":"20:00"}]},{"weekDay":6,"timeRanges":[{"opening":"09:00","closing":"20:00"}]},{"weekDay":7,"timeRanges":[{"opening":"09:30","closing":"19:30"}]}]},{"storeNumber":"51","address":{"name":"dm drogerie markt srl","street":"Via Enrico Mattei 37\/39","zip":"25030","city":"Roncadelle"},"location":{"lat":45.534523010253906,"lon":10.149508476257324},"openingHours":[{"weekDay":1,"timeRanges":[{"opening":"09:00","closing":"19:00"}]},{"weekDay":2,"timeRanges":[{"opening":"09:00","closing":"19:00"}]},{"weekDay":3,"timeRanges":[{"opening":"09:00","closing":"19:00"}]},{"weekDay":4,"timeRanges":[{"opening":"09:00","closing":"19:00"}]},{"weekDay":5,"timeRanges":[{"opening":"09:00","closing":"19:00"}]},{"weekDay":6,"timeRanges":[{"opening":"09:00","closing":"19:00"}]}]},{"storeNumber":"52","address":{"name":"dm drogerie markt srl","street":"Piazza Dante 45R 49R","zip":"16121","city":"Genova"},"location":{"lat":44.4050178527832,"lon":8.935941696166992},"openingHours":[{"weekDay":1,"timeRanges":[{"opening":"09:00","closing":"19:30"}]},{"weekDay":2,"timeRanges":[{"opening":"09:00","closing":"19:30"}]},{"weekDay":3,"timeRanges":[{"opening":"09:00","closing":"19:30"}]},{"weekDay":4,"timeRanges":[{"opening":"09:00","closing":"19:30"}]},{"weekDay":5,"timeRanges":[{"opening":"09:00","closing":"19:30"}]},{"weekDay":6,"timeRanges":[{"opening":"09:00","closing":"19:30"}]},{"weekDay":7,"timeRanges":[{"opening":"09:00","closing":"19:30"}]}]},{"storeNumber":"53","address":{"name":"dm drogerie markt srl","street":"Via Pio La Torre 3B","zip":"40013","city":"Castel Maggiore"},"location":{"lat":44.56906509399414,"lon":11.358240127563477},"openingHours":[{"weekDay":1,"timeRanges":[{"opening":"09:00","closing":"20:00"}]},{"weekDay":2,"timeRanges":[{"opening":"09:00","closing":"20:00"}]},{"weekDay":3,"timeRanges":[{"opening":"09:00","closing":"20:00"}]},{"weekDay":4,"timeRanges":[{"opening":"09:00","closing":"20:00"}]},{"weekDay":5,"timeRanges":[{"opening":"09:00","closing":"20:00"}]},{"weekDay":6,"timeRanges":[{"opening":"09:00","closing":"20:00"}]},{"weekDay":7,"timeRanges":[{"opening":"10:00","closing":"20:00"}]}]},{"storeNumber":"54","address":{"name":"dm drogerie markt srl","street":"Via San Cassiano 2","streetAdditional":"scarico: Via Ratisbona","zip":"39042","city":"Bressanone"},"location":{"lat":46.714473724365234,"lon":11.655014038085938},"openingHours":[{"weekDay":1,"timeRanges":[{"opening":"09:00","closing":"19:30"}]},{"weekDay":2,"timeRanges":[{"opening":"09:00","closing":"19:30"}]},{"weekDay":3,"timeRanges":[{"opening":"09:00","closing":"19:30"}]},{"weekDay":4,"timeRanges":[{"opening":"09:00","closing":"19:30"}]},{"weekDay":5,"timeRanges":[{"opening":"09:00","closing":"19:30"}]},{"weekDay":6,"timeRanges":[{"opening":"09:00","closing":"19:30"}]},{"weekDay":7,"timeRanges":[{"opening":"09:00","closing":"19:30"}]}]},{"storeNumber":"55","address":{"name":"dm drogierie markt srl","street":"Corso Matteotti 73","zip":"51016","city":"Montecatini Terme"},"location":{"lat":43.88127899169922,"lon":10.774332046508789},"openingHours":[{"weekDay":1,"timeRanges":[{"opening":"09:00","closing":"13:00"},{"opening":"15:30","closing":"19:30"}]},{"weekDay":2,"timeRanges":[{"opening":"09:00","closing":"13:00"},{"opening":"15:30","closing":"19:30"}]},{"weekDay":3,"timeRanges":[{"opening":"09:00","closing":"13:00"},{"opening":"15:30","closing":"19:30"}]},{"weekDay":4,"timeRanges":[{"opening":"09:00","closing":"13:00"},{"opening":"15:30","closing":"19:30"}]},{"weekDay":5,"timeRanges":[{"opening":"09:00","closing":"13:00"},{"opening":"15:30","closing":"19:30"}]},{"weekDay":6,"timeRanges":[{"opening":"09:00","closing":"13:00"},{"opening":"15:30","closing":"19:30"}]},{"weekDay":7,"timeRanges":[{"opening":"09:00","closing":"13:00"},{"opening":"15:30","closing":"19:30"}]}]},{"storeNumber":"56","address":{"name":"dm drogierie markt srl","street":"Via Emilia 100","zip":"26865","city":"San Rocco al Porto"},"location":{"lat":45.07260513305664,"lon":9.70949649810791},"openingHours":[{"weekDay":1,"timeRanges":[{"opening":"09:00","closing":"20:00"}]},{"weekDay":2,"timeRanges":[{"opening":"09:00","closing":"20:00"}]},{"weekDay":3,"timeRanges":[{"opening":"09:00","closing":"20:00"}]},{"weekDay":4,"timeRanges":[{"opening":"09:00","closing":"20:00"}]},{"weekDay":5,"timeRanges":[{"opening":"09:00","closing":"20:00"}]},{"weekDay":6,"timeRanges":[{"opening":"09:00","closing":"20:00"}]},{"weekDay":7,"timeRanges":[{"opening":"09:00","closing":"19:00"}]}]},{"storeNumber":"57","address":{"name":"dm drogierie markt srl","street":"Via Sestri 46","zip":"16154","city":"Genova"},"location":{"lat":44.425193786621094,"lon":8.84780502319336},"openingHours":[{"weekDay":1,"timeRanges":[{"opening":"09:00","closing":"19:30"}]},{"weekDay":2,"timeRanges":[{"opening":"09:00","closing":"19:30"}]},{"weekDay":3,"timeRanges":[{"opening":"09:00","closing":"19:30"}]},{"weekDay":4,"timeRanges":[{"opening":"09:00","closing":"19:30"}]},{"weekDay":5,"timeRanges":[{"opening":"09:00","closing":"19:30"}]},{"weekDay":6,"timeRanges":[{"opening":"09:00","closing":"19:30"}]},{"weekDay":7,"timeRanges":[{"opening":"09:00","closing":"19:30"}]}]},{"storeNumber":"58","address":{"name":"dm drogierie markt srl","street":"Via Nizza 262","zip":"10126","city":"Torino"},"location":{"lat":45.03122329711914,"lon":7.666566848754883},"openingHours":[{"weekDay":1,"timeRanges":[{"opening":"10:00","closing":"20:00"}]},{"weekDay":2,"timeRanges":[{"opening":"10:00","closing":"20:00"}]},{"weekDay":3,"timeRanges":[{"opening":"10:00","closing":"20:00"}]},{"weekDay":4,"timeRanges":[{"opening":"10:00","closing":"20:00"}]},{"weekDay":5,"timeRanges":[{"opening":"10:00","closing":"20:00"}]},{"weekDay":6,"timeRanges":[{"opening":"10:00","closing":"20:00"}]},{"weekDay":7,"timeRanges":[{"opening":"10:00","closing":"20:00"}]}]},{"storeNumber":"59","address":{"name":"dm drogierie markt srl","street":"Corso Vercelli 103-105","zip":"10155","city":"Torino"},"location":{"lat":45.094425201416016,"lon":7.6907830238342285},"openingHours":[{"weekDay":1,"timeRanges":[{"opening":"09:00","closing":"19:30"}]},{"weekDay":2,"timeRanges":[{"opening":"09:00","closing":"19:30"}]},{"weekDay":3,"timeRanges":[{"opening":"09:00","closing":"19:30"}]},{"weekDay":4,"timeRanges":[{"opening":"09:00","closing":"19:30"}]},{"weekDay":5,"timeRanges":[{"opening":"09:00","closing":"19:30"}]},{"weekDay":6,"timeRanges":[{"opening":"09:00","closing":"19:30"}]},{"weekDay":7,"timeRanges":[{"opening":"09:00","closing":"19:30"}]}]},{"storeNumber":"6","address":{"name":"dm drogerie markt srl","street":"Via J.F. Kennedy 244F","zip":"39055","city":"Laives"},"location":{"lat":46.42360305786133,"lon":11.33310604095459},"openingHours":[{"weekDay":1,"timeRanges":[{"opening":"08:30","closing":"19:30"}]},{"weekDay":2,"timeRanges":[{"opening":"08:30","closing":"19:30"}]},{"weekDay":3,"timeRanges":[{"opening":"08:30","closing":"19:30"}]},{"weekDay":4,"timeRanges":[{"opening":"08:30","closing":"19:30"}]},{"weekDay":5,"timeRanges":[{"opening":"08:30","closing":"19:30"}]},{"weekDay":6,"timeRanges":[{"opening":"08:30","closing":"19:30"}]},{"weekDay":7,"timeRanges":[{"opening":"09:00","closing":"19:00"}]}]},{"storeNumber":"60","address":{"name":"dm drogierie markt srl","street":"Via Piermarini 2","zip":"20900","city":"Monza"},"location":{"lat":45.58185577392578,"lon":9.27385425567627},"openingHours":[{"weekDay":1,"timeRanges":[{"opening":"09:00","closing":"19:30"}]},{"weekDay":2,"timeRanges":[{"opening":"09:00","closing":"19:30"}]},{"weekDay":3,"timeRanges":[{"opening":"09:00","closing":"19:30"}]},{"weekDay":4,"timeRanges":[{"opening":"09:00","closing":"19:30"}]},{"weekDay":5,"timeRanges":[{"opening":"09:00","closing":"19:30"}]},{"weekDay":6,"timeRanges":[{"opening":"09:00","closing":"19:30"}]},{"weekDay":7,"timeRanges":[{"opening":"10:00","closing":"19:30"}]}]},{"storeNumber":"62","address":{"name":"dm drogierie markt srl","street":"Via Sardegna 11-13","zip":"40139","city":"Bologna"},"location":{"lat":44.47544860839844,"lon":11.383999824523926},"openingHours":[{"weekDay":1,"timeRanges":[{"opening":"09:00","closing":"20:00"}]},{"weekDay":2,"timeRanges":[{"opening":"09:00","closing":"20:00"}]},{"weekDay":3,"timeRanges":[{"opening":"09:00","closing":"20:00"}]},{"weekDay":4,"timeRanges":[{"opening":"09:00","closing":"20:00"}]},{"weekDay":5,"timeRanges":[{"opening":"09:00","closing":"20:00"}]},{"weekDay":6,"timeRanges":[{"opening":"09:00","closing":"20:00"}]},{"weekDay":7,"timeRanges":[{"opening":"09:00","closing":"20:00"}]}]},{"storeNumber":"7","address":{"name":"dm drogerie markt srl","street":"Via Antonio Bardelli 4","zip":"33035","city":"Martignacco"},"location":{"lat":46.086124420166016,"lon":13.17888355255127},"openingHours":[{"weekDay":1,"timeRanges":[{"opening":"09:00","closing":"20:30"}]},{"weekDay":2,"timeRanges":[{"opening":"09:00","closing":"20:30"}]},{"weekDay":3,"timeRanges":[{"opening":"09:00","closing":"20:30"}]},{"weekDay":4,"timeRanges":[{"opening":"09:00","closing":"20:30"}]},{"weekDay":5,"timeRanges":[{"opening":"09:00","closing":"20:30"}]},{"weekDay":6,"timeRanges":[{"opening":"10:00","closing":"19:00"}]},{"weekDay":7,"timeRanges":[{"opening":"10:00","closing":"19:00"}]}]},{"storeNumber":"8","address":{"name":"dm drogerie markt srl","street":"Viale Industria 293","zip":"24040","city":"Stezzano"},"location":{"lat":45.6422233581543,"lon":9.655364036560059},"openingHours":[{"weekDay":1,"timeRanges":[{"opening":"09:00","closing":"20:00"}]},{"weekDay":2,"timeRanges":[{"opening":"09:00","closing":"20:00"}]},{"weekDay":3,"timeRanges":[{"opening":"09:00","closing":"20:00"}]},{"weekDay":4,"timeRanges":[{"opening":"09:00","closing":"20:00"}]},{"weekDay":5,"timeRanges":[{"opening":"09:00","closing":"20:00"}]},{"weekDay":6,"timeRanges":[{"opening":"09:00","closing":"20:00"}]},{"weekDay":7,"timeRanges":[{"opening":"09:30","closing":"19:30"}]}]},{"storeNumber":"9","address":{"name":"dm drogerie markt srl","street":"Via Stradiotti 2 A","zip":"29122","city":"Piacenza"},"location":{"lat":45.03300094604492,"lon":9.733358383178711},"openingHours":[{"weekDay":1,"timeRanges":[{"opening":"09:00","closing":"19:30"}]},{"weekDay":2,"timeRanges":[{"opening":"09:00","closing":"19:30"}]},{"weekDay":3,"timeRanges":[{"opening":"09:00","closing":"19:30"}]},{"weekDay":4,"timeRanges":[{"opening":"09:00","closing":"19:30"}]},{"weekDay":5,"timeRanges":[{"opening":"09:00","closing":"19:30"}]},{"weekDay":6,"timeRanges":[{"opening":"09:00","closing":"19:30"}]},{"weekDay":7,"timeRanges":[{"opening":"09:00","closing":"19:30"}]}]}]