[{"storeNumber":"131","address":{"name":"dm drogerie markt s.r.o. - pro","street":"Husovo n\u00e1m\u011bst\u00ed 36","streetAdditional":"OD Kv\u011bt","zip":"266 01","city":"Beroun"},"location":{"lat":49.9640616,"lon":14.0721656},"openingHours":[{"weekDay":1,"timeRanges":[{"opening":"08:00","closing":"19:00"}]},{"weekDay":2,"timeRanges":[{"opening":"08:00","closing":"19:00"},{"opening":"08:00","closing":"19:00"}]},{"weekDay":3,"timeRanges":[{"opening":"08:00","closing":"19:00"}]},{"weekDay":4,"timeRanges":[{"opening":"08:00","closing":"19:00"}]},{"weekDay":5,"timeRanges":[{"opening":"08:00","closing":"19:00"}]},{"weekDay":6,"timeRanges":[{"opening":"08:00","closing":"13:00"}]}]},{"storeNumber":"137","address":{"name":"dm drogerie markt s.r.o. - pro","street":"N\u00e1b\u0159e\u017e\u00ed Dr. Bene\u0161e 2551","zip":"269 01","city":"Rakovn\u00edk"},"location":{"lat":50.1010373,"lon":13.7315038},"openingHours":[{"weekDay":1,"timeRanges":[{"opening":"08:00","closing":"20:00"}]},{"weekDay":2,"timeRanges":[{"opening":"08:00","closing":"20:00"},{"opening":"08:00","closing":"20:00"}]},{"weekDay":3,"timeRanges":[{"opening":"08:00","closing":"20:00"}]},{"weekDay":4,"timeRanges":[{"opening":"08:00","closing":"20:00"}]},{"weekDay":5,"timeRanges":[{"opening":"08:00","closing":"20:00"}]},{"weekDay":6,"timeRanges":[{"opening":"08:00","closing":"19:00"}]},{"weekDay":7,"timeRanges":[{"opening":"08:00","closing":"19:00"}]}]},{"storeNumber":"144","address":{"name":"dm drogerie markt s.r.o. - pro","street":"Vodn\u00ed 53\/5","zip":"767 01","city":"Krom\u011b\u0159\u00ed\u017e"},"location":{"lat":49.29873,"lon":17.39484},"openingHours":[{"weekDay":1,"timeRanges":[{"opening":"07:30","closing":"19:00"}]},{"weekDay":2,"timeRanges":[{"opening":"07:30","closing":"19:00"},{"opening":"07:30","closing":"19:00"}]},{"weekDay":3,"timeRanges":[{"opening":"07:30","closing":"19:00"}]},{"weekDay":4,"timeRanges":[{"opening":"07:30","closing":"19:00"}]},{"weekDay":5,"timeRanges":[{"opening":"07:30","closing":"19:00"}]},{"weekDay":6,"timeRanges":[{"opening":"08:00","closing":"13:00"}]}]},{"storeNumber":"146","address":{"name":"dm drogerie markt s.r.o. - pro","street":"Kmochova 3156","zip":"407 47","city":"Varnsdorf"},"location":{"lat":50.90913,"lon":14.6184},"openingHours":[{"weekDay":1,"timeRanges":[{"opening":"08:00","closing":"19:00"}]},{"weekDay":2,"timeRanges":[{"opening":"08:00","closing":"19:00"},{"opening":"08:00","closing":"19:00"}]},{"weekDay":3,"timeRanges":[{"opening":"08:00","closing":"19:00"}]},{"weekDay":4,"timeRanges":[{"opening":"08:00","closing":"19:00"}]},{"weekDay":5,"timeRanges":[{"opening":"08:00","closing":"19:00"}]},{"weekDay":6,"timeRanges":[{"opening":"08:00","closing":"18:00"}]},{"weekDay":7,"timeRanges":[{"opening":"09:00","closing":"16:00"}]}]},{"storeNumber":"149","address":{"name":"dm drogerie markt s.r.o. - pro","street":"Vodi\u010dkova 699\/30","zip":"110 00","city":"Praha","district":"1"},"location":{"lat":50.08103,"lon":14.42465},"openingHours":[{"weekDay":1,"timeRanges":[{"opening":"07:30","closing":"20:00"}]},{"weekDay":2,"timeRanges":[{"opening":"07:30","closing":"20:00"},{"opening":"07:30","closing":"20:00"}]},{"weekDay":3,"timeRanges":[{"opening":"07:30","closing":"20:00"}]},{"weekDay":4,"timeRanges":[{"opening":"07:30","closing":"20:00"}]},{"weekDay":5,"timeRanges":[{"opening":"07:30","closing":"20:00"}]},{"weekDay":6,"timeRanges":[{"opening":"08:00","closing":"20:00"}]},{"weekDay":7,"timeRanges":[{"opening":"08:00","closing":"20:00"}]}]},{"storeNumber":"150","address":{"name":"dm drogerie markt s.r.o. - pro","street":"Novobransk\u00e1 544\/1","zip":"602 00","city":"Brno"},"location":{"lat":49.19497,"lon":16.61303},"openingHours":[{"weekDay":1,"timeRanges":[{"opening":"07:00","closing":"20:00"}]},{"weekDay":2,"timeRanges":[{"opening":"07:00","closing":"20:00"},{"opening":"07:00","closing":"20:00"}]},{"weekDay":3,"timeRanges":[{"opening":"07:00","closing":"20:00"}]},{"weekDay":4,"timeRanges":[{"opening":"07:00","closing":"20:00"}]},{"weekDay":5,"timeRanges":[{"opening":"07:00","closing":"20:00"}]},{"weekDay":6,"timeRanges":[{"opening":"08:00","closing":"16:00"}]}]},{"storeNumber":"152","address":{"name":"dm drogerie markt s.r.o. - pro","street":"\u0160antrochova 1886","zip":"162 00","city":"Praha","district":"6 Pet\u0159iny"},"location":{"lat":50.08892,"lon":14.34938},"openingHours":[{"weekDay":1,"timeRanges":[{"opening":"07:30","closing":"19:00"}]},{"weekDay":2,"timeRanges":[{"opening":"07:30","closing":"19:00"},{"opening":"07:30","closing":"19:00"}]},{"weekDay":3,"timeRanges":[{"opening":"07:30","closing":"19:00"}]},{"weekDay":4,"timeRanges":[{"opening":"07:30","closing":"19:00"}]},{"weekDay":5,"timeRanges":[{"opening":"07:30","closing":"19:00"}]},{"weekDay":6,"timeRanges":[{"opening":"08:00","closing":"13:00"}]}]},{"storeNumber":"153","address":{"name":"dm drogerie markt s.r.o. - pro","street":"Krajinsk\u00e1 1\/35","zip":"370 01","city":"\u010cesk\u00e9 Bud\u011bjovice"},"location":{"lat":48.97545,"lon":14.47333},"openingHours":[{"weekDay":1,"timeRanges":[{"opening":"07:30","closing":"19:00"}]},{"weekDay":2,"timeRanges":[{"opening":"07:30","closing":"19:00"},{"opening":"07:30","closing":"19:00"}]},{"weekDay":3,"timeRanges":[{"opening":"07:30","closing":"19:00"}]},{"weekDay":4,"timeRanges":[{"opening":"07:30","closing":"19:00"}]},{"weekDay":5,"timeRanges":[{"opening":"07:30","closing":"19:00"}]},{"weekDay":6,"timeRanges":[{"opening":"08:00","closing":"13:00"}]}]},{"storeNumber":"160","address":{"name":"dm drogerie markt s.r.o. - pro","street":"Starostra\u0161nick\u00e1 1088\/22","zip":"100 00","city":"Praha","district":"10 Stra\u0161nice"},"location":{"lat":50.07467,"lon":14.49044},"openingHours":[{"weekDay":1,"timeRanges":[{"opening":"07:30","closing":"19:30"}]},{"weekDay":2,"timeRanges":[{"opening":"07:30","closing":"19:30"},{"opening":"07:30","closing":"19:30"}]},{"weekDay":3,"timeRanges":[{"opening":"07:30","closing":"19:30"}]},{"weekDay":4,"timeRanges":[{"opening":"07:30","closing":"19:30"}]},{"weekDay":5,"timeRanges":[{"opening":"07:30","closing":"19:30"}]},{"weekDay":6,"timeRanges":[{"opening":"08:00","closing":"17:00"}]},{"weekDay":7,"timeRanges":[{"opening":"09:00","closing":"13:00"}]}]},{"storeNumber":"163","address":{"name":"dm drogerie markt s.r.o. - pro","street":"Pra\u017esk\u00e1 150","zip":"261 01","city":"P\u0159\u00edbram"},"location":{"lat":49.6886097,"lon":14.012645},"openingHours":[{"weekDay":1,"timeRanges":[{"opening":"07:30","closing":"18:00"}]},{"weekDay":2,"timeRanges":[{"opening":"07:30","closing":"18:00"},{"opening":"07:30","closing":"18:00"}]},{"weekDay":3,"timeRanges":[{"opening":"07:30","closing":"18:00"}]},{"weekDay":4,"timeRanges":[{"opening":"07:30","closing":"18:00"}]},{"weekDay":5,"timeRanges":[{"opening":"07:30","closing":"18:00"}]},{"weekDay":6,"timeRanges":[{"opening":"08:00","closing":"12:00"}]}]},{"storeNumber":"169","address":{"name":"dm drogerie markt s.r.o. - pro","street":"Makovsk\u00e9ho 1349\/2a","streetAdditional":"OC \u0158epy","zip":"163 00","city":"Praha","district":"6 \u0158epy"},"location":{"lat":50.06486,"lon":14.30858},"openingHours":[{"weekDay":1,"timeRanges":[{"opening":"08:00","closing":"20:00"}]},{"weekDay":2,"timeRanges":[{"opening":"08:00","closing":"20:00"},{"opening":"08:00","closing":"20:00"}]},{"weekDay":3,"timeRanges":[{"opening":"08:00","closing":"20:00"}]},{"weekDay":4,"timeRanges":[{"opening":"08:00","closing":"20:00"}]},{"weekDay":5,"timeRanges":[{"opening":"08:00","closing":"20:00"}]},{"weekDay":6,"timeRanges":[{"opening":"08:00","closing":"20:00"}]},{"weekDay":7,"timeRanges":[{"opening":"08:00","closing":"20:00"}]}]},{"storeNumber":"171","address":{"name":"dm drogerie markt s.r.o. - pro","street":"U d\u00e1lnice 777","streetAdditional":"Olympia Brno","zip":"664 42","city":"Brno - Mod\u0159ice"},"location":{"lat":49.1375685,"lon":16.6338371},"openingHours":[{"weekDay":1,"timeRanges":[{"opening":"08:00","closing":"21:00"}]},{"weekDay":2,"timeRanges":[{"opening":"08:00","closing":"21:00"},{"opening":"08:00","closing":"21:00"}]},{"weekDay":3,"timeRanges":[{"opening":"08:00","closing":"21:00"}]},{"weekDay":4,"timeRanges":[{"opening":"08:00","closing":"21:00"}]},{"weekDay":5,"timeRanges":[{"opening":"08:00","closing":"21:00"}]},{"weekDay":6,"timeRanges":[{"opening":"08:00","closing":"21:00"}]},{"weekDay":7,"timeRanges":[{"opening":"08:00","closing":"21:00"}]}]},{"storeNumber":"173","address":{"name":"dm drogerie markt s.r.o. - pro","street":"\u0160tef\u00e1nikova 256\/34","streetAdditional":"Arbes","zip":"150 00","city":"Praha","district":"5 Sm\u00edchov"},"location":{"lat":50.07598,"lon":14.40417},"openingHours":[{"weekDay":1,"timeRanges":[{"opening":"07:00","closing":"20:00"}]},{"weekDay":2,"timeRanges":[{"opening":"07:00","closing":"20:00"},{"opening":"07:00","closing":"20:00"}]},{"weekDay":3,"timeRanges":[{"opening":"07:00","closing":"20:00"}]},{"weekDay":4,"timeRanges":[{"opening":"07:00","closing":"20:00"}]},{"weekDay":5,"timeRanges":[{"opening":"07:00","closing":"20:00"}]},{"weekDay":6,"timeRanges":[{"opening":"08:00","closing":"19:00"}]},{"weekDay":7,"timeRanges":[{"opening":"08:00","closing":"19:00"}]}]},{"storeNumber":"175","address":{"name":"dm drogerie markt s.r.o. - pro","street":"Francouzsk\u00e1 171\/28","zip":"120 00","city":"Praha","district":"2 Vinohrady"},"location":{"lat":50.07328,"lon":14.44057},"openingHours":[{"weekDay":1,"timeRanges":[{"opening":"07:30","closing":"19:30"}]},{"weekDay":2,"timeRanges":[{"opening":"07:30","closing":"19:30"},{"opening":"07:30","closing":"19:30"}]},{"weekDay":3,"timeRanges":[{"opening":"07:30","closing":"19:30"}]},{"weekDay":4,"timeRanges":[{"opening":"07:30","closing":"19:30"}]},{"weekDay":5,"timeRanges":[{"opening":"07:30","closing":"19:30"}]},{"weekDay":6,"timeRanges":[{"opening":"08:00","closing":"18:00"}]},{"weekDay":7,"timeRanges":[{"opening":"10:00","closing":"18:00"}]}]},{"storeNumber":"178","address":{"name":"dm drogerie markt s.r.o. - pro","street":"Riegrova 377\/14","zip":"772 00","city":"Olomouc"},"location":{"lat":49.59473,"lon":17.24871},"openingHours":[{"weekDay":1,"timeRanges":[{"opening":"08:00","closing":"19:00"}]},{"weekDay":2,"timeRanges":[{"opening":"08:00","closing":"19:00"},{"opening":"08:00","closing":"19:00"}]},{"weekDay":3,"timeRanges":[{"opening":"08:00","closing":"19:00"}]},{"weekDay":4,"timeRanges":[{"opening":"08:00","closing":"19:00"}]},{"weekDay":5,"timeRanges":[{"opening":"08:00","closing":"19:00"}]},{"weekDay":6,"timeRanges":[{"opening":"08:00","closing":"13:00"}]}]},{"storeNumber":"183","address":{"name":"dm drogerie markt s.r.o. - pro","street":"Karlovo n\u00e1m\u011bst\u00ed 292\/14","zip":"120 00","city":"Praha","district":"2"},"location":{"lat":50.07658,"lon":14.4191},"openingHours":[{"weekDay":1,"timeRanges":[{"opening":"07:00","closing":"20:00"}]},{"weekDay":2,"timeRanges":[{"opening":"07:00","closing":"20:00"},{"opening":"07:00","closing":"20:00"}]},{"weekDay":3,"timeRanges":[{"opening":"07:00","closing":"20:00"}]},{"weekDay":4,"timeRanges":[{"opening":"07:00","closing":"20:00"}]},{"weekDay":5,"timeRanges":[{"opening":"07:00","closing":"20:00"}]},{"weekDay":6,"timeRanges":[{"opening":"09:00","closing":"18:00"}]},{"weekDay":7,"timeRanges":[{"opening":"09:00","closing":"18:00"}]}]},{"storeNumber":"185","address":{"name":"dm drogerie markt s.r.o. - pro","street":"Hlavn\u00ed t\u0159\u00edda 288\/10","zip":"787 01","city":"\u0160umperk"},"location":{"lat":49.96558,"lon":16.97582},"openingHours":[{"weekDay":1,"timeRanges":[{"opening":"08:00","closing":"19:00"}]},{"weekDay":2,"timeRanges":[{"opening":"08:00","closing":"19:00"},{"opening":"08:00","closing":"19:00"}]},{"weekDay":3,"timeRanges":[{"opening":"08:00","closing":"19:00"}]},{"weekDay":4,"timeRanges":[{"opening":"08:00","closing":"19:00"}]},{"weekDay":5,"timeRanges":[{"opening":"08:00","closing":"19:00"}]},{"weekDay":6,"timeRanges":[{"opening":"08:00","closing":"13:00"}]}]},{"storeNumber":"188","address":{"name":"dm drogerie markt s.r.o. - pro","street":"VIVO! Hostiva\u0159 \u0160vehlova 1391\/32","streetAdditional":"VIVO! Hostiva\u0159","zip":"102 00","city":"Praha","district":"10 Hostiva\u0159"},"location":{"lat":50.05328,"lon":14.51719},"openingHours":[{"weekDay":1,"timeRanges":[{"opening":"09:00","closing":"21:00"}]},{"weekDay":2,"timeRanges":[{"opening":"09:00","closing":"21:00"},{"opening":"09:00","closing":"21:00"}]},{"weekDay":3,"timeRanges":[{"opening":"09:00","closing":"21:00"}]},{"weekDay":4,"timeRanges":[{"opening":"09:00","closing":"21:00"}]},{"weekDay":5,"timeRanges":[{"opening":"09:00","closing":"21:00"}]},{"weekDay":6,"timeRanges":[{"opening":"10:00","closing":"21:00"}]},{"weekDay":7,"timeRanges":[{"opening":"10:00","closing":"21:00"}]}]},{"storeNumber":"192","address":{"name":"dm drogerie markt s.r.o. - pro","street":"Bene\u0161ova 1314\/6","zip":"586 02","city":"Jihlava"},"location":{"lat":49.39645,"lon":15.58848},"openingHours":[{"weekDay":1,"timeRanges":[{"opening":"07:00","closing":"19:00"}]},{"weekDay":2,"timeRanges":[{"opening":"07:00","closing":"19:00"},{"opening":"07:00","closing":"19:00"}]},{"weekDay":3,"timeRanges":[{"opening":"07:00","closing":"19:00"}]},{"weekDay":4,"timeRanges":[{"opening":"07:00","closing":"19:00"}]},{"weekDay":5,"timeRanges":[{"opening":"07:00","closing":"19:00"}]},{"weekDay":6,"timeRanges":[{"opening":"08:00","closing":"13:00"}]}]},{"storeNumber":"197","address":{"name":"dm drogerie markt s.r.o. - pro","street":"Srbick\u00e1 464","streetAdditional":"Olympia Teplice","zip":"415 10","city":"Teplice - Srbice"},"location":{"lat":50.66121,"lon":13.86526},"openingHours":[{"weekDay":1,"timeRanges":[{"opening":"09:00","closing":"21:00"}]},{"weekDay":2,"timeRanges":[{"opening":"09:00","closing":"21:00"},{"opening":"09:00","closing":"21:00"}]},{"weekDay":3,"timeRanges":[{"opening":"09:00","closing":"21:00"}]},{"weekDay":4,"timeRanges":[{"opening":"09:00","closing":"21:00"}]},{"weekDay":5,"timeRanges":[{"opening":"09:00","closing":"21:00"}]},{"weekDay":6,"timeRanges":[{"opening":"09:00","closing":"21:00"}]},{"weekDay":7,"timeRanges":[{"opening":"09:00","closing":"21:00"}]}]},{"storeNumber":"200","address":{"name":"dm drogerie markt s.r.o. - pro","street":"Janovsk\u00e9ho 978\/9","zip":"170 00","city":"Praha","district":"7"},"location":{"lat":50.09909,"lon":14.43435},"openingHours":[{"weekDay":1,"timeRanges":[{"opening":"08:00","closing":"20:00"}]},{"weekDay":2,"timeRanges":[{"opening":"08:00","closing":"20:00"},{"opening":"08:00","closing":"20:00"}]},{"weekDay":3,"timeRanges":[{"opening":"08:00","closing":"20:00"}]},{"weekDay":4,"timeRanges":[{"opening":"08:00","closing":"20:00"}]},{"weekDay":5,"timeRanges":[{"opening":"08:00","closing":"20:00"}]},{"weekDay":6,"timeRanges":[{"opening":"08:00","closing":"19:00"}]},{"weekDay":7,"timeRanges":[{"opening":"08:00","closing":"19:00"}]}]},{"storeNumber":"202","address":{"name":"dm drogerie markt s.r.o. - pro","street":"Vinohradsk\u00e1 2828\/151","streetAdditional":"Atrium Flora","zip":"130 00","city":"Praha","district":"3 \u017di\u017ekov"},"location":{"lat":50.07887,"lon":14.46115},"openingHours":[{"weekDay":1,"timeRanges":[{"opening":"08:00","closing":"21:00"}]},{"weekDay":2,"timeRanges":[{"opening":"08:00","closing":"21:00"},{"opening":"08:00","closing":"21:00"}]},{"weekDay":3,"timeRanges":[{"opening":"08:00","closing":"21:00"}]},{"weekDay":4,"timeRanges":[{"opening":"08:00","closing":"21:00"}]},{"weekDay":5,"timeRanges":[{"opening":"08:00","closing":"21:00"}]},{"weekDay":6,"timeRanges":[{"opening":"09:00","closing":"21:00"}]},{"weekDay":7,"timeRanges":[{"opening":"09:00","closing":"21:00"}]}]},{"storeNumber":"204","address":{"name":"dm drogerie markt s.r.o. - pro","street":"Horn\u00ed 26","streetAdditional":"OD Ky\u010dera","zip":"744 01","city":"Fren\u0161t\u00e1t pod Radho\u0161t\u011bm"},"location":{"lat":49.546676,"lon":18.2129496},"openingHours":[{"weekDay":1,"timeRanges":[{"opening":"07:00","closing":"19:00"}]},{"weekDay":2,"timeRanges":[{"opening":"07:00","closing":"19:00"},{"opening":"07:00","closing":"19:00"}]},{"weekDay":3,"timeRanges":[{"opening":"07:00","closing":"19:00"}]},{"weekDay":4,"timeRanges":[{"opening":"07:00","closing":"19:00"}]},{"weekDay":5,"timeRanges":[{"opening":"07:00","closing":"19:00"}]},{"weekDay":6,"timeRanges":[{"opening":"07:00","closing":"13:00"}]}]},{"storeNumber":"206","address":{"name":"dm drogerie markt s.r.o. - pro","street":"Smetanovo n\u00e1m\u011bst\u00ed 77","zip":"570 01","city":"Litomy\u0161l"},"location":{"lat":49.86918,"lon":16.31186},"openingHours":[{"weekDay":1,"timeRanges":[{"opening":"07:30","closing":"19:30"}]},{"weekDay":2,"timeRanges":[{"opening":"07:30","closing":"19:30"},{"opening":"07:30","closing":"19:30"}]},{"weekDay":3,"timeRanges":[{"opening":"07:30","closing":"19:30"}]},{"weekDay":4,"timeRanges":[{"opening":"07:30","closing":"19:30"}]},{"weekDay":5,"timeRanges":[{"opening":"07:30","closing":"19:30"}]},{"weekDay":6,"timeRanges":[{"opening":"07:30","closing":"13:00"}]}]},{"storeNumber":"207","address":{"name":"dm drogerie markt s.r.o. - pro","street":"N\u00e1rodn\u00ed t\u0159\u00edda 380\/23","zip":"695 01","city":"Hodon\u00edn"},"location":{"lat":48.85107,"lon":17.12672},"openingHours":[{"weekDay":1,"timeRanges":[{"opening":"08:00","closing":"19:00"}]},{"weekDay":2,"timeRanges":[{"opening":"08:00","closing":"19:00"},{"opening":"08:00","closing":"19:00"}]},{"weekDay":3,"timeRanges":[{"opening":"08:00","closing":"19:00"}]},{"weekDay":4,"timeRanges":[{"opening":"08:00","closing":"19:00"}]},{"weekDay":5,"timeRanges":[{"opening":"08:00","closing":"19:00"}]},{"weekDay":6,"timeRanges":[{"opening":"08:00","closing":"13:00"}]}]},{"storeNumber":"210","address":{"name":"dm drogerie markt s.r.o. - pro","street":"N\u00e1kupn\u00ed 389\/3","streetAdditional":"OC Europark","zip":"102 00","city":"Praha","district":"10 \u0160t\u011brboholy"},"location":{"lat":50.07251,"lon":14.54213},"openingHours":[{"weekDay":1,"timeRanges":[{"opening":"09:00","closing":"21:00"}]},{"weekDay":2,"timeRanges":[{"opening":"09:00","closing":"21:00"},{"opening":"09:00","closing":"21:00"}]},{"weekDay":3,"timeRanges":[{"opening":"09:00","closing":"21:00"}]},{"weekDay":4,"timeRanges":[{"opening":"09:00","closing":"21:00"}]},{"weekDay":5,"timeRanges":[{"opening":"09:00","closing":"21:00"}]},{"weekDay":6,"timeRanges":[{"opening":"09:00","closing":"21:00"}]},{"weekDay":7,"timeRanges":[{"opening":"09:00","closing":"21:00"}]}]},{"storeNumber":"213","address":{"name":"dm drogerie markt s.r.o. - pro","street":"t\u0159. 9. kv\u011btna 697\/18","zip":"390 01","city":"T\u00e1bor"},"location":{"lat":49.41269,"lon":14.6703},"openingHours":[{"weekDay":1,"timeRanges":[{"opening":"08:00","closing":"19:00"}]},{"weekDay":2,"timeRanges":[{"opening":"08:00","closing":"19:00"},{"opening":"08:00","closing":"19:00"}]},{"weekDay":3,"timeRanges":[{"opening":"08:00","closing":"19:00"}]},{"weekDay":4,"timeRanges":[{"opening":"08:00","closing":"19:00"}]},{"weekDay":5,"timeRanges":[{"opening":"08:00","closing":"19:00"}]},{"weekDay":6,"timeRanges":[{"opening":"08:00","closing":"13:00"}]}]},{"storeNumber":"217","address":{"name":"dm drogerie markt s.r.o. - pro","street":"M. Hor\u00e1kov\u00e9 609\/60","zip":"170 00","city":"Praha","district":"7 Hole\u0161ovice"},"location":{"lat":50.10011,"lon":14.42503},"openingHours":[{"weekDay":1,"timeRanges":[{"opening":"08:00","closing":"20:00"}]},{"weekDay":2,"timeRanges":[{"opening":"08:00","closing":"20:00"},{"opening":"08:00","closing":"20:00"}]},{"weekDay":3,"timeRanges":[{"opening":"08:00","closing":"20:00"}]},{"weekDay":4,"timeRanges":[{"opening":"08:00","closing":"20:00"}]},{"weekDay":5,"timeRanges":[{"opening":"08:00","closing":"20:00"}]},{"weekDay":6,"timeRanges":[{"opening":"08:00","closing":"20:00"}]},{"weekDay":7,"timeRanges":[{"opening":"08:00","closing":"20:00"}]}]},{"storeNumber":"220","address":{"name":"dm drogerie markt s.r.o. - pro","street":"Sofijsk\u00e9 n\u00e1m\u011bst\u00ed 3405\/2","streetAdditional":"OC Mod\u0159any","zip":"140 00","city":"Praha","district":"4 Mod\u0159any"},"location":{"lat":50.00599,"lon":14.4172},"openingHours":[{"weekDay":1,"timeRanges":[{"opening":"07:30","closing":"20:00"}]},{"weekDay":2,"timeRanges":[{"opening":"07:30","closing":"20:00"},{"opening":"07:30","closing":"20:00"}]},{"weekDay":3,"timeRanges":[{"opening":"07:30","closing":"20:00"}]},{"weekDay":4,"timeRanges":[{"opening":"07:30","closing":"20:00"}]},{"weekDay":5,"timeRanges":[{"opening":"07:30","closing":"20:00"}]},{"weekDay":6,"timeRanges":[{"opening":"08:00","closing":"14:00"}]},{"weekDay":7,"timeRanges":[{"opening":"09:00","closing":"14:00"}]}]},{"storeNumber":"224","address":{"name":"dm drogerie markt s.r.o. - pro","street":"T.G. Masaryka 2023\/10","streetAdditional":"OD Perla","zip":"360 01","city":"Karlovy Vary"},"location":{"lat":50.22952,"lon":12.87226},"openingHours":[{"weekDay":1,"timeRanges":[{"opening":"08:00","closing":"20:00"}]},{"weekDay":2,"timeRanges":[{"opening":"08:00","closing":"20:00"},{"opening":"08:00","closing":"20:00"}]},{"weekDay":3,"timeRanges":[{"opening":"08:00","closing":"20:00"}]},{"weekDay":4,"timeRanges":[{"opening":"08:00","closing":"20:00"}]},{"weekDay":5,"timeRanges":[{"opening":"08:00","closing":"20:00"}]},{"weekDay":6,"timeRanges":[{"opening":"08:00","closing":"20:00"}]},{"weekDay":7,"timeRanges":[{"opening":"08:00","closing":"20:00"}]}]},{"storeNumber":"225","address":{"name":"dm drogerie markt s.r.o. - pro","street":"5. kv\u011btna 719\/9","zip":"741 01","city":"Nov\u00fd Ji\u010d\u00edn"},"location":{"lat":49.59608,"lon":18.0097},"openingHours":[{"weekDay":1,"timeRanges":[{"opening":"08:00","closing":"19:00"}]},{"weekDay":2,"timeRanges":[{"opening":"08:00","closing":"19:00"},{"opening":"08:00","closing":"19:00"}]},{"weekDay":3,"timeRanges":[{"opening":"08:00","closing":"19:00"}]},{"weekDay":4,"timeRanges":[{"opening":"08:00","closing":"19:00"}]},{"weekDay":5,"timeRanges":[{"opening":"08:00","closing":"19:00"}]},{"weekDay":6,"timeRanges":[{"opening":"08:00","closing":"13:00"}]}]},{"storeNumber":"227","address":{"name":"dm drogerie markt s.r.o. - pro","street":"P\u00edseck\u00e1 972\/1","streetAdditional":"Olympia Plze\u0148","zip":"326 00","city":"Plze\u0148 - \u010cernice"},"location":{"lat":49.7010448,"lon":13.4251416},"openingHours":[{"weekDay":1,"timeRanges":[{"opening":"08:00","closing":"21:00"}]},{"weekDay":2,"timeRanges":[{"opening":"08:00","closing":"21:00"},{"opening":"08:00","closing":"21:00"}]},{"weekDay":3,"timeRanges":[{"opening":"08:00","closing":"21:00"}]},{"weekDay":4,"timeRanges":[{"opening":"08:00","closing":"21:00"}]},{"weekDay":5,"timeRanges":[{"opening":"08:00","closing":"21:00"}]},{"weekDay":6,"timeRanges":[{"opening":"09:00","closing":"21:00"}]},{"weekDay":7,"timeRanges":[{"opening":"09:00","closing":"21:00"}]}]},{"storeNumber":"228","address":{"name":"dm drogerie markt s.r.o. - pro","street":"Obloukov\u00e1 228","zip":"438 01","city":"\u017datec"},"location":{"lat":50.32778,"lon":13.54546},"openingHours":[{"weekDay":1,"timeRanges":[{"opening":"08:00","closing":"19:00"}]},{"weekDay":2,"timeRanges":[{"opening":"08:00","closing":"19:00"},{"opening":"08:00","closing":"19:00"}]},{"weekDay":3,"timeRanges":[{"opening":"08:00","closing":"19:00"}]},{"weekDay":4,"timeRanges":[{"opening":"08:00","closing":"19:00"}]},{"weekDay":5,"timeRanges":[{"opening":"08:00","closing":"19:00"}]},{"weekDay":6,"timeRanges":[{"opening":"08:00","closing":"13:00"}]}]},{"storeNumber":"229","address":{"name":"dm drogerie markt s.r.o. - pro","street":"Dlouh\u00e1 t\u0159\u00edda (OC El\u00e1n) 860\/1a","streetAdditional":"OC Elan","zip":"736 01","city":"Hav\u00ed\u0159ov - M\u011bsto"},"location":{"lat":49.7807032,"lon":18.4316123},"openingHours":[{"weekDay":1,"timeRanges":[{"opening":"07:00","closing":"20:00"}]},{"weekDay":2,"timeRanges":[{"opening":"07:00","closing":"20:00"},{"opening":"07:00","closing":"20:00"}]},{"weekDay":3,"timeRanges":[{"opening":"07:00","closing":"20:00"}]},{"weekDay":4,"timeRanges":[{"opening":"07:00","closing":"20:00"}]},{"weekDay":5,"timeRanges":[{"opening":"07:00","closing":"20:00"}]},{"weekDay":6,"timeRanges":[{"opening":"07:00","closing":"20:00"}]},{"weekDay":7,"timeRanges":[{"opening":"08:00","closing":"20:00"}]}]},{"storeNumber":"232","address":{"name":"dm drogerie markt s.r.o. - pro","street":"B\u011blohorsk\u00e1 212\/130","zip":"160 00","city":"Praha","district":"6 B\u0159evnov"},"location":{"lat":50.08389,"lon":14.36392},"openingHours":[{"weekDay":1,"timeRanges":[{"opening":"07:30","closing":"19:30"}]},{"weekDay":2,"timeRanges":[{"opening":"07:30","closing":"19:30"},{"opening":"07:30","closing":"19:30"}]},{"weekDay":3,"timeRanges":[{"opening":"07:30","closing":"19:30"}]},{"weekDay":4,"timeRanges":[{"opening":"07:30","closing":"19:30"}]},{"weekDay":5,"timeRanges":[{"opening":"07:30","closing":"19:30"}]},{"weekDay":6,"timeRanges":[{"opening":"08:00","closing":"13:00"}]}]},{"storeNumber":"234","address":{"name":"dm drogerie markt s.r.o. - pro","street":"Pra\u017esk\u00e1 1247\/24","streetAdditional":"IGY centrum","zip":"370 04","city":"\u010cesk\u00e9 Bud\u011bjovice"},"location":{"lat":48.9844,"lon":14.47204},"openingHours":[{"weekDay":1,"timeRanges":[{"opening":"08:00","closing":"21:00"}]},{"weekDay":2,"timeRanges":[{"opening":"08:00","closing":"21:00"},{"opening":"08:00","closing":"21:00"}]},{"weekDay":3,"timeRanges":[{"opening":"08:00","closing":"21:00"}]},{"weekDay":4,"timeRanges":[{"opening":"08:00","closing":"21:00"}]},{"weekDay":5,"timeRanges":[{"opening":"08:00","closing":"21:00"}]},{"weekDay":6,"timeRanges":[{"opening":"09:00","closing":"21:00"}]},{"weekDay":7,"timeRanges":[{"opening":"09:00","closing":"21:00"}]}]},{"storeNumber":"235","address":{"name":"dm drogerie markt s.r.o. - pro","street":"Ostravsk\u00e1 1923\/3","zip":"748 01","city":"Hlu\u010d\u00edn"},"location":{"lat":49.89697,"lon":18.18842},"openingHours":[{"weekDay":1,"timeRanges":[{"opening":"08:00","closing":"19:00"}]},{"weekDay":2,"timeRanges":[{"opening":"08:00","closing":"19:00"},{"opening":"08:00","closing":"19:00"}]},{"weekDay":3,"timeRanges":[{"opening":"08:00","closing":"19:00"}]},{"weekDay":4,"timeRanges":[{"opening":"08:00","closing":"19:00"}]},{"weekDay":5,"timeRanges":[{"opening":"08:00","closing":"19:00"}]},{"weekDay":6,"timeRanges":[{"opening":"08:00","closing":"13:00"}]}]},{"storeNumber":"236","address":{"name":"dm drogerie markt s.r.o. - pro","street":"Cimburkova (Tesco) 540\/4","streetAdditional":"NC Kr\u00e1lovo Pole","zip":"612 00","city":"Brno"},"location":{"lat":49.2173997,"lon":16.6084513},"openingHours":[{"weekDay":1,"timeRanges":[{"opening":"08:00","closing":"21:00"}]},{"weekDay":2,"timeRanges":[{"opening":"08:00","closing":"21:00"},{"opening":"08:00","closing":"21:00"}]},{"weekDay":3,"timeRanges":[{"opening":"08:00","closing":"21:00"}]},{"weekDay":4,"timeRanges":[{"opening":"08:00","closing":"21:00"}]},{"weekDay":5,"timeRanges":[{"opening":"08:00","closing":"21:00"}]},{"weekDay":6,"timeRanges":[{"opening":"08:00","closing":"21:00"}]},{"weekDay":7,"timeRanges":[{"opening":"08:00","closing":"21:00"}]}]},{"storeNumber":"238","address":{"name":"dm drogerie markt s.r.o. - pro","street":"Pansk\u00e1 135","zip":"377 01","city":"Jind\u0159ich\u016fv Hradec"},"location":{"lat":49.14451,"lon":15.00327},"openingHours":[{"weekDay":1,"timeRanges":[{"opening":"07:30","closing":"19:00"}]},{"weekDay":2,"timeRanges":[{"opening":"07:30","closing":"19:00"},{"opening":"07:30","closing":"19:00"}]},{"weekDay":3,"timeRanges":[{"opening":"07:30","closing":"19:00"}]},{"weekDay":4,"timeRanges":[{"opening":"07:30","closing":"19:00"}]},{"weekDay":5,"timeRanges":[{"opening":"07:30","closing":"19:00"}]},{"weekDay":6,"timeRanges":[{"opening":"08:00","closing":"13:00"}]}]},{"storeNumber":"239","address":{"name":"dm drogerie markt s.r.o. - pro","street":"Ve Va\u0148kovce 462\/1","streetAdditional":"Galerie Va\u0148kovka","zip":"602 00","city":"Brno"},"location":{"lat":49.18884,"lon":16.61375},"openingHours":[{"weekDay":1,"timeRanges":[{"opening":"08:00","closing":"21:00"}]},{"weekDay":2,"timeRanges":[{"opening":"08:00","closing":"21:00"},{"opening":"08:00","closing":"21:00"}]},{"weekDay":3,"timeRanges":[{"opening":"08:00","closing":"21:00"}]},{"weekDay":4,"timeRanges":[{"opening":"08:00","closing":"21:00"}]},{"weekDay":5,"timeRanges":[{"opening":"08:00","closing":"21:00"}]},{"weekDay":6,"timeRanges":[{"opening":"08:00","closing":"21:00"}]},{"weekDay":7,"timeRanges":[{"opening":"08:00","closing":"21:00"}]}]},{"storeNumber":"241","address":{"name":"dm drogerie markt s.r.o. - pro","street":"Radlick\u00e1 520\/117","streetAdditional":"Galerie Butovice","zip":"158 00","city":"Praha","district":"5 Butovice"},"location":{"lat":50.0470409,"lon":14.3553613},"openingHours":[{"weekDay":1,"timeRanges":[{"opening":"08:00","closing":"21:00"}]},{"weekDay":2,"timeRanges":[{"opening":"08:00","closing":"21:00"},{"opening":"08:00","closing":"21:00"}]},{"weekDay":3,"timeRanges":[{"opening":"08:00","closing":"21:00"}]},{"weekDay":4,"timeRanges":[{"opening":"08:00","closing":"21:00"}]},{"weekDay":5,"timeRanges":[{"opening":"08:00","closing":"21:00"}]},{"weekDay":6,"timeRanges":[{"opening":"09:00","closing":"21:00"}]},{"weekDay":7,"timeRanges":[{"opening":"09:00","closing":"21:00"}]}]},{"storeNumber":"244","address":{"name":"dm drogerie markt s.r.o. - pro","street":"Masarykovo n\u00e1m\u011bst\u00ed 156","zip":"686 01","city":"Uhersk\u00e9 Hradi\u0161t\u011b"},"location":{"lat":49.06872,"lon":17.4617},"openingHours":[{"weekDay":1,"timeRanges":[{"opening":"08:00","closing":"19:00"}]},{"weekDay":2,"timeRanges":[{"opening":"08:00","closing":"19:00"},{"opening":"08:00","closing":"19:00"}]},{"weekDay":3,"timeRanges":[{"opening":"08:00","closing":"19:00"}]},{"weekDay":4,"timeRanges":[{"opening":"08:00","closing":"19:00"}]},{"weekDay":5,"timeRanges":[{"opening":"08:00","closing":"19:00"}]},{"weekDay":6,"timeRanges":[{"opening":"08:00","closing":"13:00"}]}]},{"storeNumber":"245","address":{"name":"dm drogerie markt s.r.o. - pro","street":"Tyr\u0161ovo n\u00e1b\u0159e\u017e\u00ed 5496","streetAdditional":"NC \u010cepkov","zip":"760 01","city":"Zl\u00edn-\u010cepkov"},"location":{"lat":49.2290362,"lon":17.6618402},"openingHours":[{"weekDay":1,"timeRanges":[{"opening":"07:30","closing":"20:00"}]},{"weekDay":2,"timeRanges":[{"opening":"07:30","closing":"20:00"},{"opening":"07:30","closing":"20:00"}]},{"weekDay":3,"timeRanges":[{"opening":"07:30","closing":"20:00"}]},{"weekDay":4,"timeRanges":[{"opening":"07:30","closing":"20:00"}]},{"weekDay":5,"timeRanges":[{"opening":"07:30","closing":"20:00"}]},{"weekDay":6,"timeRanges":[{"opening":"08:00","closing":"20:00"}]},{"weekDay":7,"timeRanges":[{"opening":"08:00","closing":"20:00"}]}]},{"storeNumber":"246","address":{"name":"dm drogerie markt s.r.o. - pro","street":"Roztylsk\u00e1 2321\/19","streetAdditional":"Westfield Chodov","zip":"148 00","city":"Praha","district":"4 Chodov"},"location":{"lat":50.0312073,"lon":14.4902742},"openingHours":[{"weekDay":1,"timeRanges":[{"opening":"09:00","closing":"21:00"}]},{"weekDay":2,"timeRanges":[{"opening":"09:00","closing":"21:00"},{"opening":"09:00","closing":"21:00"}]},{"weekDay":3,"timeRanges":[{"opening":"09:00","closing":"21:00"}]},{"weekDay":4,"timeRanges":[{"opening":"09:00","closing":"21:00"}]},{"weekDay":5,"timeRanges":[{"opening":"09:00","closing":"21:00"}]},{"weekDay":6,"timeRanges":[{"opening":"09:00","closing":"21:00"}]},{"weekDay":7,"timeRanges":[{"opening":"09:00","closing":"21:00"}]}]},{"storeNumber":"247","address":{"name":"dm drogerie markt s.r.o. - pro","street":"Riegrova 388","zip":"399 01","city":"Milevsko"},"location":{"lat":49.45182,"lon":14.36096},"openingHours":[{"weekDay":1,"timeRanges":[{"opening":"08:00","closing":"19:00"}]},{"weekDay":2,"timeRanges":[{"opening":"08:00","closing":"19:00"},{"opening":"08:00","closing":"19:00"}]},{"weekDay":3,"timeRanges":[{"opening":"08:00","closing":"19:00"}]},{"weekDay":4,"timeRanges":[{"opening":"08:00","closing":"19:00"}]},{"weekDay":5,"timeRanges":[{"opening":"08:00","closing":"19:00"}]},{"weekDay":6,"timeRanges":[{"opening":"08:00","closing":"13:00"}]}]},{"storeNumber":"250","address":{"name":"dm drogerie markt s.r.o. - pro","street":"Sokolsk\u00e1 63","streetAdditional":"OC Jantar","zip":"370 05","city":"\u010cesk\u00e9 Bud\u011bjovice"},"location":{"lat":48.98124,"lon":14.44624},"openingHours":[{"weekDay":1,"timeRanges":[{"opening":"08:00","closing":"19:00"}]},{"weekDay":2,"timeRanges":[{"opening":"08:00","closing":"19:00"},{"opening":"08:00","closing":"19:00"}]},{"weekDay":3,"timeRanges":[{"opening":"08:00","closing":"19:00"}]},{"weekDay":4,"timeRanges":[{"opening":"08:00","closing":"19:00"}]},{"weekDay":5,"timeRanges":[{"opening":"08:00","closing":"19:00"}]},{"weekDay":6,"timeRanges":[{"opening":"08:00","closing":"13:00"}]}]},{"storeNumber":"253","address":{"name":"dm drogerie markt s.r.o. - pro","street":"Zbrojnick\u00e1 114\/6","zip":"301 00","city":"Plze\u0148"},"location":{"lat":49.74621,"lon":13.37914},"openingHours":[{"weekDay":1,"timeRanges":[{"opening":"08:00","closing":"19:00"}]},{"weekDay":2,"timeRanges":[{"opening":"08:00","closing":"19:00"},{"opening":"08:00","closing":"19:00"}]},{"weekDay":3,"timeRanges":[{"opening":"08:00","closing":"19:00"}]},{"weekDay":4,"timeRanges":[{"opening":"08:00","closing":"19:00"}]},{"weekDay":5,"timeRanges":[{"opening":"08:00","closing":"19:00"}]},{"weekDay":6,"timeRanges":[{"opening":"08:00","closing":"14:00"}]}]},{"storeNumber":"254","address":{"name":"dm drogerie markt s.r.o. - pro","street":"Lannova 1595\/29a","zip":"370 01","city":"\u010cesk\u00e9 Bud\u011bjovice"},"location":{"lat":48.97461,"lon":14.48306},"openingHours":[{"weekDay":1,"timeRanges":[{"opening":"07:30","closing":"19:00"}]},{"weekDay":2,"timeRanges":[{"opening":"07:30","closing":"19:00"},{"opening":"07:30","closing":"19:00"}]},{"weekDay":3,"timeRanges":[{"opening":"07:30","closing":"19:00"}]},{"weekDay":4,"timeRanges":[{"opening":"07:30","closing":"19:00"}]},{"weekDay":5,"timeRanges":[{"opening":"07:30","closing":"19:00"}]},{"weekDay":6,"timeRanges":[{"opening":"08:00","closing":"14:00"}]}]},{"storeNumber":"258","address":{"name":"dm drogerie markt s.r.o. - pro","street":"Liliov\u00e1 172\/14","zip":"460 01","city":"Liberec"},"location":{"lat":50.77042,"lon":15.06068},"openingHours":[{"weekDay":1,"timeRanges":[{"opening":"08:00","closing":"19:00"}]},{"weekDay":2,"timeRanges":[{"opening":"08:00","closing":"19:00"},{"opening":"08:00","closing":"19:00"}]},{"weekDay":3,"timeRanges":[{"opening":"08:00","closing":"19:00"}]},{"weekDay":4,"timeRanges":[{"opening":"08:00","closing":"19:00"}]},{"weekDay":5,"timeRanges":[{"opening":"08:00","closing":"19:00"}]},{"weekDay":6,"timeRanges":[{"opening":"08:00","closing":"13:00"}]}]},{"storeNumber":"259","address":{"name":"dm drogerie markt s.r.o. - pro","street":"Moskevsk\u00e1 534\/47","zip":"101 00","city":"Praha","district":"10"},"location":{"lat":50.06894,"lon":14.45682},"openingHours":[{"weekDay":1,"timeRanges":[{"opening":"07:30","closing":"19:00"}]},{"weekDay":2,"timeRanges":[{"opening":"07:30","closing":"19:00"},{"opening":"07:30","closing":"19:00"}]},{"weekDay":3,"timeRanges":[{"opening":"07:30","closing":"19:00"}]},{"weekDay":4,"timeRanges":[{"opening":"07:30","closing":"19:00"}]},{"weekDay":5,"timeRanges":[{"opening":"07:30","closing":"19:00"}]},{"weekDay":6,"timeRanges":[{"opening":"08:00","closing":"18:00"}]},{"weekDay":7,"timeRanges":[{"opening":"09:00","closing":"13:00"}]}]},{"storeNumber":"260","address":{"name":"dm drogerie markt s.r.o. - pro","street":"Lidick\u00e1 960\/81","zip":"602 00","city":"Brno"},"location":{"lat":49.20725,"lon":16.60415},"openingHours":[{"weekDay":1,"timeRanges":[{"opening":"07:00","closing":"20:00"}]},{"weekDay":2,"timeRanges":[{"opening":"07:00","closing":"20:00"},{"opening":"07:00","closing":"20:00"}]},{"weekDay":3,"timeRanges":[{"opening":"07:00","closing":"20:00"}]},{"weekDay":4,"timeRanges":[{"opening":"07:00","closing":"20:00"}]},{"weekDay":5,"timeRanges":[{"opening":"07:00","closing":"20:00"}]},{"weekDay":6,"timeRanges":[{"opening":"08:00","closing":"16:00"}]}]},{"storeNumber":"261","address":{"name":"dm drogerie markt s.r.o. - pro","street":"Tilleho n\u00e1m. 792\/2","streetAdditional":"OC Kamera","zip":"152 00","city":"Praha","district":"5 Hlubo\u010depy"},"location":{"lat":50.03478,"lon":14.37703},"openingHours":[{"weekDay":1,"timeRanges":[{"opening":"08:00","closing":"20:00"}]},{"weekDay":2,"timeRanges":[{"opening":"08:00","closing":"20:00"},{"opening":"08:00","closing":"20:00"}]},{"weekDay":3,"timeRanges":[{"opening":"08:00","closing":"20:00"}]},{"weekDay":4,"timeRanges":[{"opening":"08:00","closing":"20:00"}]},{"weekDay":5,"timeRanges":[{"opening":"08:00","closing":"20:00"}]},{"weekDay":6,"timeRanges":[{"opening":"08:00","closing":"19:00"}]},{"weekDay":7,"timeRanges":[{"opening":"08:00","closing":"19:00"}]}]},{"storeNumber":"263","address":{"name":"dm drogerie markt s.r.o. - pro","street":"T. G. Masaryka 849","zip":"473 01","city":"Nov\u00fd Bor"},"location":{"lat":50.75729,"lon":14.55555},"openingHours":[{"weekDay":1,"timeRanges":[{"opening":"08:00","closing":"19:00"}]},{"weekDay":2,"timeRanges":[{"opening":"08:00","closing":"19:00"},{"opening":"08:00","closing":"19:00"}]},{"weekDay":3,"timeRanges":[{"opening":"08:00","closing":"19:00"}]},{"weekDay":4,"timeRanges":[{"opening":"08:00","closing":"19:00"}]},{"weekDay":5,"timeRanges":[{"opening":"08:00","closing":"19:00"}]},{"weekDay":6,"timeRanges":[{"opening":"08:00","closing":"13:00"}]}]},{"storeNumber":"264","address":{"name":"dm drogerie markt s.r.o. - pro","street":"Jind\u0159i\u0161sk\u00e1 900\/7","zip":"110 00","city":"Praha","district":"1"},"location":{"lat":50.08342,"lon":14.42735},"openingHours":[{"weekDay":1,"timeRanges":[{"opening":"08:00","closing":"20:00"}]},{"weekDay":2,"timeRanges":[{"opening":"08:00","closing":"20:00"},{"opening":"08:00","closing":"20:00"}]},{"weekDay":3,"timeRanges":[{"opening":"08:00","closing":"20:00"}]},{"weekDay":4,"timeRanges":[{"opening":"08:00","closing":"20:00"}]},{"weekDay":5,"timeRanges":[{"opening":"08:00","closing":"20:00"}]},{"weekDay":6,"timeRanges":[{"opening":"08:00","closing":"20:00"}]},{"weekDay":7,"timeRanges":[{"opening":"08:00","closing":"20:00"}]}]},{"storeNumber":"265","address":{"name":"dm drogerie markt s.r.o. - pro","street":"Vyso\u010dansk\u00e1 382\/20","streetAdditional":"Billa Prosek","zip":"190 00","city":"Praha","district":"9 Prosek"},"location":{"lat":50.11946,"lon":14.49915},"openingHours":[{"weekDay":1,"timeRanges":[{"opening":"08:00","closing":"21:00"}]},{"weekDay":2,"timeRanges":[{"opening":"08:00","closing":"21:00"},{"opening":"08:00","closing":"21:00"}]},{"weekDay":3,"timeRanges":[{"opening":"08:00","closing":"21:00"}]},{"weekDay":4,"timeRanges":[{"opening":"08:00","closing":"21:00"}]},{"weekDay":5,"timeRanges":[{"opening":"08:00","closing":"21:00"}]},{"weekDay":6,"timeRanges":[{"opening":"08:00","closing":"21:00"}]},{"weekDay":7,"timeRanges":[{"opening":"08:00","closing":"21:00"}]}]},{"storeNumber":"266","address":{"name":"dm drogerie markt s.r.o. - pro","street":"Kr\u00e1le Jana 236","zip":"583 01","city":"Chot\u011bbo\u0159"},"location":{"lat":49.71901,"lon":15.66992},"openingHours":[{"weekDay":1,"timeRanges":[{"opening":"08:00","closing":"19:00"}]},{"weekDay":2,"timeRanges":[{"opening":"08:00","closing":"19:00"},{"opening":"08:00","closing":"19:00"}]},{"weekDay":3,"timeRanges":[{"opening":"08:00","closing":"19:00"}]},{"weekDay":4,"timeRanges":[{"opening":"08:00","closing":"19:00"}]},{"weekDay":5,"timeRanges":[{"opening":"08:00","closing":"19:00"}]},{"weekDay":6,"timeRanges":[{"opening":"08:00","closing":"13:00"}]}]},{"storeNumber":"267","address":{"name":"dm drogerie markt s.r.o. - pro","street":"Masarykovo n\u00e1m. 6","zip":"593 01","city":"Byst\u0159ice nad Pern\u0161t."},"location":{"lat":49.52393,"lon":16.26006},"openingHours":[{"weekDay":1,"timeRanges":[{"opening":"08:00","closing":"19:00"}]},{"weekDay":2,"timeRanges":[{"opening":"08:00","closing":"19:00"},{"opening":"08:00","closing":"19:00"}]},{"weekDay":3,"timeRanges":[{"opening":"08:00","closing":"19:00"}]},{"weekDay":4,"timeRanges":[{"opening":"08:00","closing":"19:00"}]},{"weekDay":5,"timeRanges":[{"opening":"08:00","closing":"19:00"}]},{"weekDay":6,"timeRanges":[{"opening":"08:00","closing":"13:00"}]}]},{"storeNumber":"268","address":{"name":"dm drogerie markt s.r.o. - pro","street":"Dr. E. Bene\u0161e 643","streetAdditional":"A centrum","zip":"560 02","city":"\u010cesk\u00e1 T\u0159ebov\u00e1"},"location":{"lat":49.9116327,"lon":16.4383775},"openingHours":[{"weekDay":1,"timeRanges":[{"opening":"08:00","closing":"20:00"}]},{"weekDay":2,"timeRanges":[{"opening":"08:00","closing":"20:00"},{"opening":"08:00","closing":"20:00"}]},{"weekDay":3,"timeRanges":[{"opening":"08:00","closing":"20:00"}]},{"weekDay":4,"timeRanges":[{"opening":"08:00","closing":"20:00"}]},{"weekDay":5,"timeRanges":[{"opening":"08:00","closing":"20:00"}]},{"weekDay":6,"timeRanges":[{"opening":"08:00","closing":"20:00"}]},{"weekDay":7,"timeRanges":[{"opening":"09:00","closing":"20:00"}]}]},{"storeNumber":"269","address":{"name":"dm drogerie markt s.r.o. - pro","street":"t\u0159. V. Klementa 1459","streetAdditional":"Bondy centrum","zip":"293 01","city":"Mlad\u00e1 Boleslav"},"location":{"lat":50.4204225,"lon":14.9156933},"openingHours":[{"weekDay":1,"timeRanges":[{"opening":"08:00","closing":"20:00"}]},{"weekDay":2,"timeRanges":[{"opening":"08:00","closing":"20:00"},{"opening":"08:00","closing":"20:00"}]},{"weekDay":3,"timeRanges":[{"opening":"08:00","closing":"20:00"}]},{"weekDay":4,"timeRanges":[{"opening":"08:00","closing":"20:00"}]},{"weekDay":5,"timeRanges":[{"opening":"08:00","closing":"20:00"}]},{"weekDay":6,"timeRanges":[{"opening":"08:00","closing":"20:00"}]},{"weekDay":7,"timeRanges":[{"opening":"08:00","closing":"20:00"}]}]},{"storeNumber":"270","address":{"name":"dm drogerie markt s.r.o. - pro","street":"n\u00e1m. Republiky 1079\/1a","streetAdditional":"Palladium","zip":"110 00","city":"Praha","district":"1"},"location":{"lat":50.08919,"lon":14.42872},"openingHours":[{"weekDay":1,"timeRanges":[{"opening":"08:00","closing":"21:00"}]},{"weekDay":2,"timeRanges":[{"opening":"08:00","closing":"21:00"},{"opening":"08:00","closing":"21:00"}]},{"weekDay":3,"timeRanges":[{"opening":"08:00","closing":"21:00"}]},{"weekDay":4,"timeRanges":[{"opening":"08:00","closing":"22:00"}]},{"weekDay":5,"timeRanges":[{"opening":"08:00","closing":"22:00"}]},{"weekDay":6,"timeRanges":[{"opening":"09:00","closing":"22:00"}]},{"weekDay":7,"timeRanges":[{"opening":"09:00","closing":"21:00"}]}]},{"storeNumber":"272","address":{"name":"dm drogerie markt s.r.o. - pro","street":"Obchodn\u00ed ulice 2598","zip":"397 01","city":"P\u00edsek"},"location":{"lat":49.2974217,"lon":14.158552},"openingHours":[{"weekDay":1,"timeRanges":[{"opening":"09:00","closing":"20:00"}]},{"weekDay":2,"timeRanges":[{"opening":"09:00","closing":"20:00"},{"opening":"09:00","closing":"20:00"}]},{"weekDay":3,"timeRanges":[{"opening":"09:00","closing":"20:00"}]},{"weekDay":4,"timeRanges":[{"opening":"09:00","closing":"20:00"}]},{"weekDay":5,"timeRanges":[{"opening":"09:00","closing":"20:00"}]},{"weekDay":6,"timeRanges":[{"opening":"09:00","closing":"20:00"}]},{"weekDay":7,"timeRanges":[{"opening":"09:00","closing":"20:00"}]}]},{"storeNumber":"273","address":{"name":"dm drogerie markt s.r.o. - pro","street":"Bud\u011bjovick\u00e1 1667\/64","streetAdditional":"DBK","zip":"140 00","city":"Praha","district":"4"},"location":{"lat":50.04378,"lon":14.4491},"openingHours":[{"weekDay":1,"timeRanges":[{"opening":"08:00","closing":"20:00"}]},{"weekDay":2,"timeRanges":[{"opening":"08:00","closing":"20:00"},{"opening":"08:00","closing":"20:00"}]},{"weekDay":3,"timeRanges":[{"opening":"08:00","closing":"20:00"}]},{"weekDay":4,"timeRanges":[{"opening":"08:00","closing":"20:00"}]},{"weekDay":5,"timeRanges":[{"opening":"08:00","closing":"20:00"}]},{"weekDay":6,"timeRanges":[{"opening":"09:00","closing":"19:00"}]},{"weekDay":7,"timeRanges":[{"opening":"09:00","closing":"19:00"}]}]},{"storeNumber":"274","address":{"name":"dm drogerie markt s.r.o. - pro","street":"Sokolovsk\u00e1 394\/17","streetAdditional":"Oasis Florenc","zip":"186 00","city":"Praha","district":"8"},"location":{"lat":50.09167,"lon":14.44026},"openingHours":[{"weekDay":1,"timeRanges":[{"opening":"07:00","closing":"20:00"}]},{"weekDay":2,"timeRanges":[{"opening":"07:00","closing":"20:00"},{"opening":"07:00","closing":"20:00"}]},{"weekDay":3,"timeRanges":[{"opening":"07:00","closing":"20:00"}]},{"weekDay":4,"timeRanges":[{"opening":"07:00","closing":"20:00"}]},{"weekDay":5,"timeRanges":[{"opening":"07:00","closing":"20:00"}]},{"weekDay":6,"timeRanges":[{"opening":"08:00","closing":"20:00"}]},{"weekDay":7,"timeRanges":[{"opening":"08:00","closing":"20:00"}]}]},{"storeNumber":"275","address":{"name":"dm drogerie markt s.r.o. - pro","street":"N\u00e1m\u011bst\u00ed Gener\u00e1la P\u00edky 2703\/27","streetAdditional":"Galerie Slovany","zip":"326 02","city":"Plze\u0148"},"location":{"lat":49.732387,"lon":13.4006428},"openingHours":[{"weekDay":1,"timeRanges":[{"opening":"07:30","closing":"20:00"}]},{"weekDay":2,"timeRanges":[{"opening":"07:30","closing":"20:00"},{"opening":"07:30","closing":"20:00"}]},{"weekDay":3,"timeRanges":[{"opening":"07:30","closing":"20:00"}]},{"weekDay":4,"timeRanges":[{"opening":"07:30","closing":"20:00"}]},{"weekDay":5,"timeRanges":[{"opening":"07:30","closing":"20:00"}]},{"weekDay":6,"timeRanges":[{"opening":"08:00","closing":"20:00"}]},{"weekDay":7,"timeRanges":[{"opening":"08:00","closing":"20:00"}]}]},{"storeNumber":"277","address":{"name":"dm drogerie markt s.r.o. - pro","street":"\u010cesk\u00e9 Vrbn\u00e9 2360","streetAdditional":"NC G\u00e9\u010dko","zip":"370 11","city":"\u010cesk\u00e9 Bud\u011bjovice"},"location":{"lat":49.0003041,"lon":14.4522733},"openingHours":[{"weekDay":1,"timeRanges":[{"opening":"09:00","closing":"20:00"}]},{"weekDay":2,"timeRanges":[{"opening":"09:00","closing":"20:00"},{"opening":"09:00","closing":"20:00"}]},{"weekDay":3,"timeRanges":[{"opening":"09:00","closing":"20:00"}]},{"weekDay":4,"timeRanges":[{"opening":"09:00","closing":"20:00"}]},{"weekDay":5,"timeRanges":[{"opening":"09:00","closing":"20:00"}]},{"weekDay":6,"timeRanges":[{"opening":"09:00","closing":"20:00"}]},{"weekDay":7,"timeRanges":[{"opening":"09:00","closing":"20:00"}]}]},{"storeNumber":"280","address":{"name":"dm drogerie markt s.r.o. - pro","street":"Varensk\u00e1 3309\/50","streetAdditional":"Futurum","zip":"702 00","city":"Ostrava"},"location":{"lat":49.8336566,"lon":18.267948},"openingHours":[{"weekDay":1,"timeRanges":[{"opening":"08:00","closing":"20:00"}]},{"weekDay":2,"timeRanges":[{"opening":"08:00","closing":"20:00"},{"opening":"08:00","closing":"20:00"}]},{"weekDay":3,"timeRanges":[{"opening":"08:00","closing":"20:00"}]},{"weekDay":4,"timeRanges":[{"opening":"08:00","closing":"20:00"}]},{"weekDay":5,"timeRanges":[{"opening":"08:00","closing":"20:00"}]},{"weekDay":6,"timeRanges":[{"opening":"08:00","closing":"20:00"}]},{"weekDay":7,"timeRanges":[{"opening":"08:00","closing":"20:00"}]}]},{"storeNumber":"282","address":{"name":"dm drogerie markt s.r.o. - pro","street":"Horn\u00ed 1457\/59","zip":"700 30","city":"Ostrava - Hrab\u016fvka"},"location":{"lat":49.78707,"lon":18.25744},"openingHours":[{"weekDay":1,"timeRanges":[{"opening":"07:30","closing":"19:00"}]},{"weekDay":2,"timeRanges":[{"opening":"07:30","closing":"19:00"},{"opening":"07:30","closing":"19:00"}]},{"weekDay":3,"timeRanges":[{"opening":"07:30","closing":"19:00"}]},{"weekDay":4,"timeRanges":[{"opening":"07:30","closing":"19:00"}]},{"weekDay":5,"timeRanges":[{"opening":"07:30","closing":"19:00"}]},{"weekDay":6,"timeRanges":[{"opening":"07:30","closing":"13:00"}]}]},{"storeNumber":"283","address":{"name":"dm drogerie markt s.r.o. - pro","street":"Dragounsk\u00e1 2529\/6","streetAdditional":"OC Dragoun","zip":"350 02","city":"Cheb"},"location":{"lat":50.0709706,"lon":12.3684699},"openingHours":[{"weekDay":1,"timeRanges":[{"opening":"08:00","closing":"20:00"}]},{"weekDay":2,"timeRanges":[{"opening":"08:00","closing":"20:00"},{"opening":"08:00","closing":"20:00"}]},{"weekDay":3,"timeRanges":[{"opening":"08:00","closing":"20:00"}]},{"weekDay":4,"timeRanges":[{"opening":"08:00","closing":"20:00"}]},{"weekDay":5,"timeRanges":[{"opening":"08:00","closing":"20:00"}]},{"weekDay":6,"timeRanges":[{"opening":"08:00","closing":"20:00"}]},{"weekDay":7,"timeRanges":[{"opening":"08:00","closing":"20:00"}]}]},{"storeNumber":"284","address":{"name":"dm drogerie markt s.r.o. - pro","street":"Bezru\u010dova 3779","streetAdditional":"Family Center","zip":"276 01","city":"M\u011bln\u00edk"},"location":{"lat":50.35464,"lon":14.48124},"openingHours":[{"weekDay":1,"timeRanges":[{"opening":"09:00","closing":"20:00"}]},{"weekDay":2,"timeRanges":[{"opening":"09:00","closing":"20:00"},{"opening":"09:00","closing":"20:00"}]},{"weekDay":3,"timeRanges":[{"opening":"09:00","closing":"20:00"}]},{"weekDay":4,"timeRanges":[{"opening":"09:00","closing":"20:00"}]},{"weekDay":5,"timeRanges":[{"opening":"09:00","closing":"20:00"}]},{"weekDay":6,"timeRanges":[{"opening":"09:00","closing":"20:00"}]},{"weekDay":7,"timeRanges":[{"opening":"09:00","closing":"20:00"}]}]},{"storeNumber":"285","address":{"name":"dm drogerie markt s.r.o. - pro","street":"Sousedsk\u00e1 599","streetAdditional":"G\u00e9\u010dko","zip":"460 11","city":"Liberec"},"location":{"lat":50.77658,"lon":15.0287},"openingHours":[{"weekDay":1,"timeRanges":[{"opening":"09:00","closing":"20:00"}]},{"weekDay":2,"timeRanges":[{"opening":"09:00","closing":"20:00"},{"opening":"09:00","closing":"20:00"}]},{"weekDay":3,"timeRanges":[{"opening":"09:00","closing":"20:00"}]},{"weekDay":4,"timeRanges":[{"opening":"09:00","closing":"20:00"}]},{"weekDay":5,"timeRanges":[{"opening":"09:00","closing":"20:00"}]},{"weekDay":6,"timeRanges":[{"opening":"09:00","closing":"20:00"}]},{"weekDay":7,"timeRanges":[{"opening":"09:00","closing":"20:00"}]}]},{"storeNumber":"287","address":{"name":"dm drogerie markt s.r.o. - pro","street":"Olomouck\u00e1 90","streetAdditional":"Olympia","zip":"783 72","city":"Velk\u00fd T\u00fdnec II"},"location":{"lat":49.5585357,"lon":17.3060337},"openingHours":[{"weekDay":1,"timeRanges":[{"opening":"09:00","closing":"21:00"}]},{"weekDay":2,"timeRanges":[{"opening":"09:00","closing":"21:00"},{"opening":"09:00","closing":"21:00"}]},{"weekDay":3,"timeRanges":[{"opening":"09:00","closing":"21:00"}]},{"weekDay":4,"timeRanges":[{"opening":"09:00","closing":"21:00"}]},{"weekDay":5,"timeRanges":[{"opening":"09:00","closing":"21:00"}]},{"weekDay":6,"timeRanges":[{"opening":"09:00","closing":"21:00"}]},{"weekDay":7,"timeRanges":[{"opening":"09:00","closing":"21:00"}]}]},{"storeNumber":"288","address":{"name":"dm drogerie markt s.r.o. - pro","street":"Vr\u0161ovick\u00e1 1527\/67b","streetAdditional":"NC Eden","zip":"100 00","city":"Praha","district":"10"},"location":{"lat":50.0683628,"lon":14.4686316},"openingHours":[{"weekDay":1,"timeRanges":[{"opening":"09:00","closing":"21:00"}]},{"weekDay":2,"timeRanges":[{"opening":"09:00","closing":"21:00"},{"opening":"09:00","closing":"21:00"}]},{"weekDay":3,"timeRanges":[{"opening":"09:00","closing":"21:00"}]},{"weekDay":4,"timeRanges":[{"opening":"09:00","closing":"21:00"}]},{"weekDay":5,"timeRanges":[{"opening":"09:00","closing":"21:00"}]},{"weekDay":6,"timeRanges":[{"opening":"09:00","closing":"21:00"}]},{"weekDay":7,"timeRanges":[{"opening":"09:00","closing":"21:00"}]}]},{"storeNumber":"289","address":{"name":"dm drogerie markt s.r.o. - pro","street":"D\u011b\u010d\u00ednsk\u00e1 3271","streetAdditional":"Par\u00e1da Shopping","zip":"470 01","city":"\u010cesk\u00e1 L\u00edpa"},"location":{"lat":50.6887203,"lon":14.5185368},"openingHours":[{"weekDay":1,"timeRanges":[{"opening":"08:00","closing":"20:00"}]},{"weekDay":2,"timeRanges":[{"opening":"08:00","closing":"20:00"},{"opening":"08:00","closing":"20:00"}]},{"weekDay":3,"timeRanges":[{"opening":"08:00","closing":"20:00"}]},{"weekDay":4,"timeRanges":[{"opening":"08:00","closing":"20:00"}]},{"weekDay":5,"timeRanges":[{"opening":"08:00","closing":"20:00"}]},{"weekDay":6,"timeRanges":[{"opening":"08:00","closing":"20:00"}]},{"weekDay":7,"timeRanges":[{"opening":"08:00","closing":"20:00"}]}]},{"storeNumber":"292","address":{"name":"dm drogerie markt s.r.o. - pro","street":"N\u00e1m\u011bst\u00ed M\u00edru 174","streetAdditional":"Zlat\u00e9 Jablko","zip":"760 01","city":"Zl\u00edn"},"location":{"lat":49.2266299,"lon":17.6683959},"openingHours":[{"weekDay":1,"timeRanges":[{"opening":"07:30","closing":"21:00"}]},{"weekDay":2,"timeRanges":[{"opening":"07:30","closing":"21:00"},{"opening":"07:30","closing":"21:00"}]},{"weekDay":3,"timeRanges":[{"opening":"07:30","closing":"21:00"}]},{"weekDay":4,"timeRanges":[{"opening":"07:30","closing":"21:00"}]},{"weekDay":5,"timeRanges":[{"opening":"07:30","closing":"21:00"}]},{"weekDay":6,"timeRanges":[{"opening":"07:30","closing":"21:00"}]},{"weekDay":7,"timeRanges":[{"opening":"08:00","closing":"21:00"}]}]},{"storeNumber":"293","address":{"name":"dm drogerie markt s.r.o. - pro","street":"Brodsk\u00e1 601","streetAdditional":"STOP SHOP","zip":"261 01","city":"P\u0159\u00edbram V - Zdabo\u0159"},"location":{"lat":49.6669203,"lon":13.9950451},"openingHours":[{"weekDay":1,"timeRanges":[{"opening":"08:00","closing":"20:00"}]},{"weekDay":2,"timeRanges":[{"opening":"08:00","closing":"20:00"},{"opening":"08:00","closing":"20:00"}]},{"weekDay":3,"timeRanges":[{"opening":"08:00","closing":"20:00"}]},{"weekDay":4,"timeRanges":[{"opening":"08:00","closing":"20:00"}]},{"weekDay":5,"timeRanges":[{"opening":"08:00","closing":"20:00"}]},{"weekDay":6,"timeRanges":[{"opening":"08:00","closing":"20:00"}]},{"weekDay":7,"timeRanges":[{"opening":"08:00","closing":"20:00"}]}]},{"storeNumber":"294","address":{"name":"dm drogerie markt s.r.o. - pro","street":"Tyr\u0161ova 884","streetAdditional":"S1 Center Trmice","zip":"400 04","city":"Trmice"},"location":{"lat":50.6500166,"lon":14.0054964},"openingHours":[{"weekDay":1,"timeRanges":[{"opening":"08:00","closing":"20:00"}]},{"weekDay":2,"timeRanges":[{"opening":"08:00","closing":"20:00"},{"opening":"08:00","closing":"20:00"}]},{"weekDay":3,"timeRanges":[{"opening":"08:00","closing":"20:00"}]},{"weekDay":4,"timeRanges":[{"opening":"08:00","closing":"20:00"}]},{"weekDay":5,"timeRanges":[{"opening":"08:00","closing":"20:00"}]},{"weekDay":6,"timeRanges":[{"opening":"09:00","closing":"20:00"}]},{"weekDay":7,"timeRanges":[{"opening":"09:00","closing":"20:00"}]}]},{"storeNumber":"295","address":{"name":"dm drogerie markt s.r.o. - pro","street":"V\u00fd\u0161kovick\u00e1 3175\/42","streetAdditional":"Avion Shopping Park","zip":"700 30","city":"Ostrava - Z\u00e1b\u0159eh"},"location":{"lat":49.8014796,"lon":18.2294347},"openingHours":[{"weekDay":1,"timeRanges":[{"opening":"09:00","closing":"21:00"}]},{"weekDay":2,"timeRanges":[{"opening":"09:00","closing":"21:00"},{"opening":"09:00","closing":"21:00"}]},{"weekDay":3,"timeRanges":[{"opening":"09:00","closing":"21:00"}]},{"weekDay":4,"timeRanges":[{"opening":"09:00","closing":"21:00"}]},{"weekDay":5,"timeRanges":[{"opening":"09:00","closing":"21:00"}]},{"weekDay":6,"timeRanges":[{"opening":"09:00","closing":"21:00"}]},{"weekDay":7,"timeRanges":[{"opening":"09:00","closing":"21:00"}]}]},{"storeNumber":"296","address":{"name":"dm drogerie markt s.r.o. - pro","street":"U T\u0159\u00ed most\u016f 2239\/4","streetAdditional":"CityMarket","zip":"568 02","city":"Svitavy"},"location":{"lat":49.75501,"lon":16.4776},"openingHours":[{"weekDay":1,"timeRanges":[{"opening":"08:00","closing":"20:00"}]},{"weekDay":2,"timeRanges":[{"opening":"08:00","closing":"20:00"},{"opening":"08:00","closing":"20:00"}]},{"weekDay":3,"timeRanges":[{"opening":"08:00","closing":"20:00"}]},{"weekDay":4,"timeRanges":[{"opening":"08:00","closing":"20:00"}]},{"weekDay":5,"timeRanges":[{"opening":"08:00","closing":"20:00"}]},{"weekDay":6,"timeRanges":[{"opening":"08:00","closing":"20:00"}]},{"weekDay":7,"timeRanges":[{"opening":"08:00","closing":"20:00"}]}]},{"storeNumber":"298","address":{"name":"dm drogerie markt s.r.o. - pro","street":"Hlu\u010d\u00ednsk\u00e1 1683\/61","streetAdditional":"S1 Center Opava","zip":"747 05","city":"Opava"},"location":{"lat":49.94482,"lon":17.9296611},"openingHours":[{"weekDay":1,"timeRanges":[{"opening":"08:00","closing":"20:00"}]},{"weekDay":2,"timeRanges":[{"opening":"08:00","closing":"20:00"},{"opening":"08:00","closing":"20:00"}]},{"weekDay":3,"timeRanges":[{"opening":"08:00","closing":"20:00"}]},{"weekDay":4,"timeRanges":[{"opening":"08:00","closing":"20:00"}]},{"weekDay":5,"timeRanges":[{"opening":"08:00","closing":"20:00"}]},{"weekDay":6,"timeRanges":[{"opening":"08:00","closing":"20:00"}]},{"weekDay":7,"timeRanges":[{"opening":"08:00","closing":"20:00"}]}]},{"storeNumber":"301","address":{"name":"dm drogerie markt s.r.o. - pro","street":"Rorejcova 906","streetAdditional":"Futurum Kol\u00edn","zip":"280 02","city":"Kol\u00edn"},"location":{"lat":50.02579,"lon":15.21087},"openingHours":[{"weekDay":1,"timeRanges":[{"opening":"08:00","closing":"21:00"}]},{"weekDay":2,"timeRanges":[{"opening":"08:00","closing":"21:00"},{"opening":"08:00","closing":"21:00"}]},{"weekDay":3,"timeRanges":[{"opening":"08:00","closing":"21:00"}]},{"weekDay":4,"timeRanges":[{"opening":"08:00","closing":"21:00"}]},{"weekDay":5,"timeRanges":[{"opening":"08:00","closing":"21:00"}]},{"weekDay":6,"timeRanges":[{"opening":"08:00","closing":"21:00"}]},{"weekDay":7,"timeRanges":[{"opening":"08:00","closing":"21:00"}]}]},{"storeNumber":"303","address":{"name":"dm drogerie markt s.r.o. - pro","street":"Radni\u010dn\u00ed 3400","streetAdditional":"Central Most","zip":"434 01","city":"Most"},"location":{"lat":50.5008104,"lon":13.6397514},"openingHours":[{"weekDay":1,"timeRanges":[{"opening":"08:00","closing":"20:00"}]},{"weekDay":2,"timeRanges":[{"opening":"08:00","closing":"20:00"},{"opening":"08:00","closing":"20:00"}]},{"weekDay":3,"timeRanges":[{"opening":"08:00","closing":"20:00"}]},{"weekDay":4,"timeRanges":[{"opening":"08:00","closing":"20:00"}]},{"weekDay":5,"timeRanges":[{"opening":"08:00","closing":"20:00"}]},{"weekDay":6,"timeRanges":[{"opening":"09:00","closing":"20:00"}]},{"weekDay":7,"timeRanges":[{"opening":"09:00","closing":"20:00"}]}]},{"storeNumber":"305","address":{"name":"dm drogerie markt s.r.o. - pro","street":"Freyova 945\/35","streetAdditional":"NC F\u00e9nix","zip":"190 00","city":"Praha","district":"9 Vyso\u010dany"},"location":{"lat":50.11016,"lon":14.50154},"openingHours":[{"weekDay":1,"timeRanges":[{"opening":"08:00","closing":"20:00"}]},{"weekDay":2,"timeRanges":[{"opening":"08:00","closing":"20:00"},{"opening":"08:00","closing":"20:00"}]},{"weekDay":3,"timeRanges":[{"opening":"08:00","closing":"20:00"}]},{"weekDay":4,"timeRanges":[{"opening":"08:00","closing":"20:00"}]},{"weekDay":5,"timeRanges":[{"opening":"08:00","closing":"20:00"}]},{"weekDay":6,"timeRanges":[{"opening":"08:00","closing":"20:00"}]},{"weekDay":7,"timeRanges":[{"opening":"08:00","closing":"20:00"}]}]},{"storeNumber":"306","address":{"name":"dm drogerie markt s.r.o. - pro","street":"V\u00edt\u011bzn\u00e1 3187\/8","streetAdditional":"S1 Center \u0160umperk","zip":"787 01","city":"\u0160umperk"},"location":{"lat":49.9751339,"lon":16.975873},"openingHours":[{"weekDay":1,"timeRanges":[{"opening":"08:00","closing":"20:00"}]},{"weekDay":2,"timeRanges":[{"opening":"08:00","closing":"20:00"},{"opening":"08:00","closing":"20:00"}]},{"weekDay":3,"timeRanges":[{"opening":"08:00","closing":"20:00"}]},{"weekDay":4,"timeRanges":[{"opening":"08:00","closing":"20:00"}]},{"weekDay":5,"timeRanges":[{"opening":"08:00","closing":"20:00"}]},{"weekDay":6,"timeRanges":[{"opening":"08:00","closing":"20:00"}]},{"weekDay":7,"timeRanges":[{"opening":"08:00","closing":"20:00"}]}]},{"storeNumber":"307","address":{"name":"dm drogerie markt s.r.o. - pro","street":"Netroufalky 770\/16","streetAdditional":"Campus Square","zip":"625 00","city":"Brno - Bohunice"},"location":{"lat":49.1761425,"lon":16.5655999},"openingHours":[{"weekDay":1,"timeRanges":[{"opening":"07:00","closing":"21:00"}]},{"weekDay":2,"timeRanges":[{"opening":"07:00","closing":"21:00"},{"opening":"07:00","closing":"21:00"}]},{"weekDay":3,"timeRanges":[{"opening":"07:00","closing":"21:00"}]},{"weekDay":4,"timeRanges":[{"opening":"07:00","closing":"21:00"}]},{"weekDay":5,"timeRanges":[{"opening":"07:00","closing":"21:00"}]},{"weekDay":6,"timeRanges":[{"opening":"08:00","closing":"21:00"}]},{"weekDay":7,"timeRanges":[{"opening":"08:00","closing":"21:00"}]}]},{"storeNumber":"311","address":{"name":"dm drogerie markt s.r.o. - pro","street":"Rezkova 953\/III","zip":"377 01","city":"Jind\u0159ich\u016fv Hradec"},"location":{"lat":49.140997,"lon":15.0253168},"openingHours":[{"weekDay":1,"timeRanges":[{"opening":"08:00","closing":"20:00"}]},{"weekDay":2,"timeRanges":[{"opening":"08:00","closing":"20:00"},{"opening":"08:00","closing":"20:00"}]},{"weekDay":3,"timeRanges":[{"opening":"08:00","closing":"20:00"}]},{"weekDay":4,"timeRanges":[{"opening":"08:00","closing":"20:00"}]},{"weekDay":5,"timeRanges":[{"opening":"08:00","closing":"20:00"}]},{"weekDay":6,"timeRanges":[{"opening":"09:00","closing":"20:00"}]},{"weekDay":7,"timeRanges":[{"opening":"09:00","closing":"20:00"}]}]},{"storeNumber":"312","address":{"name":"dm drogerie markt s.r.o. - pro","street":"Milady Hor\u00e1kov\u00e9 109\/116","streetAdditional":"Hrad\u010dansk\u00e1 Office Center","zip":"160 00","city":"Praha","district":"6 Hole\u0161ovice"},"location":{"lat":50.09692,"lon":14.40469},"openingHours":[{"weekDay":1,"timeRanges":[{"opening":"07:00","closing":"20:00"}]},{"weekDay":2,"timeRanges":[{"opening":"07:00","closing":"20:00"},{"opening":"07:00","closing":"20:00"}]},{"weekDay":3,"timeRanges":[{"opening":"07:00","closing":"20:00"}]},{"weekDay":4,"timeRanges":[{"opening":"07:00","closing":"20:00"}]},{"weekDay":5,"timeRanges":[{"opening":"07:00","closing":"20:00"}]},{"weekDay":6,"timeRanges":[{"opening":"08:00","closing":"20:00"}]},{"weekDay":7,"timeRanges":[{"opening":"08:00","closing":"20:00"}]}]},{"storeNumber":"313","address":{"name":"dm drogerie markt s.r.o. - pro","street":"Masarykovo n\u00e1m. 2799","streetAdditional":"Pal\u00e1c Pardubice","zip":"530 02","city":"Pardubice"},"location":{"lat":50.0365802,"lon":15.7682831},"openingHours":[{"weekDay":1,"timeRanges":[{"opening":"09:00","closing":"21:00"}]},{"weekDay":2,"timeRanges":[{"opening":"09:00","closing":"21:00"},{"opening":"09:00","closing":"21:00"}]},{"weekDay":3,"timeRanges":[{"opening":"09:00","closing":"21:00"}]},{"weekDay":4,"timeRanges":[{"opening":"09:00","closing":"21:00"}]},{"weekDay":5,"timeRanges":[{"opening":"09:00","closing":"21:00"}]},{"weekDay":6,"timeRanges":[{"opening":"09:00","closing":"21:00"}]},{"weekDay":7,"timeRanges":[{"opening":"10:00","closing":"21:00"}]}]},{"storeNumber":"315","address":{"name":"dm drogerie markt s.r.o. - pro","street":"Ostravsk\u00e1 2029\/75","streetAdditional":"\u010cesk\u00fd T\u011b\u0161\u00edn Ostravsk\u00e1*","zip":"737 01","city":"\u010cesk\u00fd T\u011b\u0161\u00edn"},"location":{"lat":49.74644,"lon":18.60862},"openingHours":[{"weekDay":1,"timeRanges":[{"opening":"08:00","closing":"20:00"}]},{"weekDay":2,"timeRanges":[{"opening":"08:00","closing":"20:00"},{"opening":"08:00","closing":"20:00"}]},{"weekDay":3,"timeRanges":[{"opening":"08:00","closing":"20:00"}]},{"weekDay":4,"timeRanges":[{"opening":"08:00","closing":"20:00"}]},{"weekDay":5,"timeRanges":[{"opening":"08:00","closing":"20:00"}]},{"weekDay":6,"timeRanges":[{"opening":"08:00","closing":"20:00"}]},{"weekDay":7,"timeRanges":[{"opening":"08:00","closing":"20:00"}]}]},{"storeNumber":"316","address":{"name":"dm drogerie markt s.r.o. - pro","street":"Masarykovo n\u00e1m. 14\/10","zip":"251 01","city":"\u0158\u00ed\u010dany"},"location":{"lat":49.9914995,"lon":14.6563396},"openingHours":[{"weekDay":1,"timeRanges":[{"opening":"07:00","closing":"19:00"}]},{"weekDay":2,"timeRanges":[{"opening":"07:00","closing":"19:00"},{"opening":"07:00","closing":"19:00"}]},{"weekDay":3,"timeRanges":[{"opening":"07:00","closing":"19:00"}]},{"weekDay":4,"timeRanges":[{"opening":"07:00","closing":"19:00"}]},{"weekDay":5,"timeRanges":[{"opening":"07:00","closing":"19:00"}]},{"weekDay":6,"timeRanges":[{"opening":"07:30","closing":"19:00"}]}]},{"storeNumber":"317","address":{"name":"dm drogerie markt s.r.o. - pro","street":"Kafkova 493\/11","streetAdditional":"OC Han\u00e1","zip":"779 00","city":"Olomouc"},"location":{"lat":49.5728,"lon":17.22404},"openingHours":[{"weekDay":1,"timeRanges":[{"opening":"08:00","closing":"20:00"}]},{"weekDay":2,"timeRanges":[{"opening":"08:00","closing":"20:00"},{"opening":"08:00","closing":"20:00"}]},{"weekDay":3,"timeRanges":[{"opening":"08:00","closing":"20:00"}]},{"weekDay":4,"timeRanges":[{"opening":"08:00","closing":"20:00"}]},{"weekDay":5,"timeRanges":[{"opening":"08:00","closing":"20:00"}]},{"weekDay":6,"timeRanges":[{"opening":"08:00","closing":"20:00"}]},{"weekDay":7,"timeRanges":[{"opening":"08:00","closing":"20:00"}]}]},{"storeNumber":"318","address":{"name":"dm drogerie markt s.r.o. - pro","street":"Riegrova 1264","streetAdditional":"N\u00e1kupn\u00ed centrum Cip\u00edsek","zip":"506 01","city":"Ji\u010d\u00edn"},"location":{"lat":50.430563,"lon":15.3590533},"openingHours":[{"weekDay":1,"timeRanges":[{"opening":"08:00","closing":"20:00"}]},{"weekDay":2,"timeRanges":[{"opening":"08:00","closing":"20:00"},{"opening":"08:00","closing":"20:00"}]},{"weekDay":3,"timeRanges":[{"opening":"08:00","closing":"20:00"}]},{"weekDay":4,"timeRanges":[{"opening":"08:00","closing":"20:00"}]},{"weekDay":5,"timeRanges":[{"opening":"08:00","closing":"20:00"}]},{"weekDay":6,"timeRanges":[{"opening":"08:00","closing":"20:00"}]},{"weekDay":7,"timeRanges":[{"opening":"09:00","closing":"20:00"}]}]},{"storeNumber":"319","address":{"name":"dm drogerie markt s.r.o. - pro","street":"Polsk\u00e1 390","streetAdditional":"CityMarket","zip":"547 01","city":"N\u00e1chod"},"location":{"lat":50.4236181,"lon":16.1896368},"openingHours":[{"weekDay":1,"timeRanges":[{"opening":"08:00","closing":"20:00"}]},{"weekDay":2,"timeRanges":[{"opening":"08:00","closing":"20:00"},{"opening":"08:00","closing":"20:00"}]},{"weekDay":3,"timeRanges":[{"opening":"08:00","closing":"20:00"}]},{"weekDay":4,"timeRanges":[{"opening":"08:00","closing":"20:00"}]},{"weekDay":5,"timeRanges":[{"opening":"08:00","closing":"20:00"}]},{"weekDay":6,"timeRanges":[{"opening":"08:00","closing":"20:00"}]},{"weekDay":7,"timeRanges":[{"opening":"08:00","closing":"20:00"}]}]},{"storeNumber":"322","address":{"name":"dm drogerie markt s.r.o. - pro","street":"ul. SNP 1079\/II","streetAdditional":"CityMarket","zip":"537 05","city":"Chrudim"},"location":{"lat":49.9464472,"lon":15.809572},"openingHours":[{"weekDay":1,"timeRanges":[{"opening":"08:00","closing":"20:00"}]},{"weekDay":2,"timeRanges":[{"opening":"08:00","closing":"20:00"},{"opening":"08:00","closing":"20:00"}]},{"weekDay":3,"timeRanges":[{"opening":"08:00","closing":"20:00"}]},{"weekDay":4,"timeRanges":[{"opening":"08:00","closing":"20:00"}]},{"weekDay":5,"timeRanges":[{"opening":"08:00","closing":"20:00"}]},{"weekDay":6,"timeRanges":[{"opening":"08:00","closing":"20:00"}]},{"weekDay":7,"timeRanges":[{"opening":"09:00","closing":"20:00"}]}]},{"storeNumber":"323","address":{"name":"dm drogerie markt s.r.o. - pro","street":"P\u0159ed Trat\u00ed 1481\/3b","streetAdditional":"S1 Center Hav\u00ed\u0159ov","zip":"735 64","city":"Hav\u00ed\u0159ov"},"location":{"lat":49.7886679,"lon":18.4419112},"openingHours":[{"weekDay":1,"timeRanges":[{"opening":"08:00","closing":"20:00"}]},{"weekDay":2,"timeRanges":[{"opening":"08:00","closing":"20:00"},{"opening":"08:00","closing":"20:00"}]},{"weekDay":3,"timeRanges":[{"opening":"08:00","closing":"20:00"}]},{"weekDay":4,"timeRanges":[{"opening":"08:00","closing":"20:00"}]},{"weekDay":5,"timeRanges":[{"opening":"08:00","closing":"20:00"}]},{"weekDay":6,"timeRanges":[{"opening":"08:00","closing":"20:00"}]},{"weekDay":7,"timeRanges":[{"opening":"08:00","closing":"20:00"}]}]},{"storeNumber":"324","address":{"name":"dm drogerie markt s.r.o. - pro","street":"V\u00e1clava Majera 2897","zip":"440 01","city":"Louny"},"location":{"lat":50.35221,"lon":13.81558},"openingHours":[{"weekDay":1,"timeRanges":[{"opening":"08:00","closing":"20:00"}]},{"weekDay":2,"timeRanges":[{"opening":"08:00","closing":"20:00"},{"opening":"08:00","closing":"20:00"}]},{"weekDay":3,"timeRanges":[{"opening":"08:00","closing":"20:00"}]},{"weekDay":4,"timeRanges":[{"opening":"08:00","closing":"20:00"}]},{"weekDay":5,"timeRanges":[{"opening":"08:00","closing":"20:00"}]},{"weekDay":6,"timeRanges":[{"opening":"08:00","closing":"20:00"}]},{"weekDay":7,"timeRanges":[{"opening":"08:00","closing":"20:00"}]}]},{"storeNumber":"325","address":{"name":"dm drogerie markt s.r.o. - pro","street":"U pr\u016fhonu 1588\/11a","zip":"170 00","city":"Praha","district":"7 Hole\u0161ovice"},"location":{"lat":50.1053,"lon":14.45018},"openingHours":[{"weekDay":1,"timeRanges":[{"opening":"08:00","closing":"20:00"}]},{"weekDay":2,"timeRanges":[{"opening":"08:00","closing":"20:00"},{"opening":"08:00","closing":"20:00"}]},{"weekDay":3,"timeRanges":[{"opening":"08:00","closing":"20:00"}]},{"weekDay":4,"timeRanges":[{"opening":"08:00","closing":"20:00"}]},{"weekDay":5,"timeRanges":[{"opening":"08:00","closing":"20:00"}]},{"weekDay":6,"timeRanges":[{"opening":"08:00","closing":"20:00"}]},{"weekDay":7,"timeRanges":[{"opening":"08:00","closing":"20:00"}]}]},{"storeNumber":"327","address":{"name":"dm drogerie markt s.r.o. - pro","street":"N\u00e1dra\u017en\u00ed 762\/32","streetAdditional":"Factory Office Center","zip":"150 00","city":"Praha","district":"5 Sm\u00edchov"},"location":{"lat":50.0614422,"lon":14.4095421},"openingHours":[{"weekDay":1,"timeRanges":[{"opening":"07:00","closing":"20:00"}]},{"weekDay":2,"timeRanges":[{"opening":"07:00","closing":"20:00"},{"opening":"07:00","closing":"20:00"}]},{"weekDay":3,"timeRanges":[{"opening":"07:00","closing":"20:00"}]},{"weekDay":4,"timeRanges":[{"opening":"07:00","closing":"20:00"}]},{"weekDay":5,"timeRanges":[{"opening":"07:00","closing":"20:00"}]},{"weekDay":6,"timeRanges":[{"opening":"08:00","closing":"19:00"}]},{"weekDay":7,"timeRanges":[{"opening":"08:00","closing":"19:00"}]}]},{"storeNumber":"329","address":{"name":"dm drogerie markt s.r.o. - pro","street":"Na P\u0159\u00edkop\u011b 1096\/19","streetAdditional":"Myslbek","zip":"110 00","city":"Praha","district":"1"},"location":{"lat":50.0859564,"lon":14.4249778},"openingHours":[{"weekDay":1,"timeRanges":[{"opening":"09:00","closing":"20:00"}]},{"weekDay":2,"timeRanges":[{"opening":"09:00","closing":"20:00"},{"opening":"09:00","closing":"20:00"}]},{"weekDay":3,"timeRanges":[{"opening":"09:00","closing":"20:00"}]},{"weekDay":4,"timeRanges":[{"opening":"09:00","closing":"20:00"}]},{"weekDay":5,"timeRanges":[{"opening":"09:00","closing":"20:00"}]},{"weekDay":6,"timeRanges":[{"opening":"09:00","closing":"20:00"}]},{"weekDay":7,"timeRanges":[{"opening":"10:00","closing":"19:00"}]}]},{"storeNumber":"331","address":{"name":"dm drogerie markt s.r.o. - pro","street":"Romana Havelky 5508\/1","streetAdditional":"VUC Jihlava","zip":"586 01","city":"Jihlava"},"location":{"lat":49.4080806,"lon":15.5799778},"openingHours":[{"weekDay":1,"timeRanges":[{"opening":"08:00","closing":"20:00"}]},{"weekDay":2,"timeRanges":[{"opening":"08:00","closing":"20:00"},{"opening":"08:00","closing":"20:00"}]},{"weekDay":3,"timeRanges":[{"opening":"08:00","closing":"20:00"}]},{"weekDay":4,"timeRanges":[{"opening":"08:00","closing":"20:00"}]},{"weekDay":5,"timeRanges":[{"opening":"08:00","closing":"20:00"}]},{"weekDay":6,"timeRanges":[{"opening":"08:00","closing":"20:00"}]},{"weekDay":7,"timeRanges":[{"opening":"09:00","closing":"20:00"}]}]},{"storeNumber":"333","address":{"name":"dm drogerie markt s.r.o. - pro","street":"Kr\u00e1tk\u00e1 4225\/4","streetAdditional":"Par\u00e1da Shopping","zip":"695 01","city":"Hodon\u00edn"},"location":{"lat":48.8524541,"lon":17.1167549},"openingHours":[{"weekDay":1,"timeRanges":[{"opening":"08:00","closing":"20:00"}]},{"weekDay":2,"timeRanges":[{"opening":"08:00","closing":"20:00"},{"opening":"08:00","closing":"20:00"}]},{"weekDay":3,"timeRanges":[{"opening":"08:00","closing":"20:00"}]},{"weekDay":4,"timeRanges":[{"opening":"08:00","closing":"20:00"}]},{"weekDay":5,"timeRanges":[{"opening":"08:00","closing":"20:00"}]},{"weekDay":6,"timeRanges":[{"opening":"08:00","closing":"20:00"}]},{"weekDay":7,"timeRanges":[{"opening":"08:00","closing":"20:00"}]}]},{"storeNumber":"334","address":{"name":"dm drogerie markt s.r.o. - pro","street":"Dukelsk\u00e1 t\u0159\u00edda 1713\/7","streetAdditional":"OC Atrium","zip":"500 02","city":"Hradec Kr\u00e1lov\u00e9"},"location":{"lat":50.2128138,"lon":15.8188668},"openingHours":[{"weekDay":1,"timeRanges":[{"opening":"08:00","closing":"20:00"}]},{"weekDay":2,"timeRanges":[{"opening":"08:00","closing":"20:00"},{"opening":"08:00","closing":"20:00"}]},{"weekDay":3,"timeRanges":[{"opening":"08:00","closing":"20:00"}]},{"weekDay":4,"timeRanges":[{"opening":"08:00","closing":"20:00"}]},{"weekDay":5,"timeRanges":[{"opening":"08:00","closing":"20:00"}]},{"weekDay":6,"timeRanges":[{"opening":"08:00","closing":"18:00"}]},{"weekDay":7,"timeRanges":[{"opening":"08:00","closing":"18:00"}]}]},{"storeNumber":"335","address":{"name":"dm drogerie markt s.r.o. - pro","street":"U Kostela 3491\/2","streetAdditional":"Forum \u00dast\u00ed nad Labem","zip":"400 01","city":"\u00dast\u00ed nad Labem"},"location":{"lat":50.6592,"lon":14.04123},"openingHours":[{"weekDay":1,"timeRanges":[{"opening":"08:00","closing":"21:00"}]},{"weekDay":2,"timeRanges":[{"opening":"08:00","closing":"21:00"},{"opening":"08:00","closing":"21:00"}]},{"weekDay":3,"timeRanges":[{"opening":"08:00","closing":"21:00"}]},{"weekDay":4,"timeRanges":[{"opening":"08:00","closing":"21:00"}]},{"weekDay":5,"timeRanges":[{"opening":"08:00","closing":"21:00"}]},{"weekDay":6,"timeRanges":[{"opening":"09:00","closing":"21:00"}]},{"weekDay":7,"timeRanges":[{"opening":"09:00","closing":"21:00"}]}]},{"storeNumber":"338","address":{"name":"dm drogerie markt s.r.o. - pro","street":"Jasenick\u00e1 197","streetAdditional":"OC Ohrada","zip":"755 01","city":"Vset\u00edn"},"location":{"lat":49.33138,"lon":18.00447},"openingHours":[{"weekDay":1,"timeRanges":[{"opening":"08:00","closing":"20:00"}]},{"weekDay":2,"timeRanges":[{"opening":"08:00","closing":"20:00"},{"opening":"08:00","closing":"20:00"}]},{"weekDay":3,"timeRanges":[{"opening":"08:00","closing":"20:00"}]},{"weekDay":4,"timeRanges":[{"opening":"08:00","closing":"20:00"}]},{"weekDay":5,"timeRanges":[{"opening":"08:00","closing":"20:00"}]},{"weekDay":6,"timeRanges":[{"opening":"08:00","closing":"20:00"}]},{"weekDay":7,"timeRanges":[{"opening":"08:00","closing":"20:00"}]}]},{"storeNumber":"339","address":{"name":"dm drogerie markt s.r.o. - pro","street":"Kone\u010dn\u00e1 4563\/8","streetAdditional":"N\u00e1kupn\u00ed park","zip":"796 01","city":"Prost\u011bjov"},"location":{"lat":49.4819549,"lon":17.1246477},"openingHours":[{"weekDay":1,"timeRanges":[{"opening":"08:00","closing":"20:00"}]},{"weekDay":2,"timeRanges":[{"opening":"08:00","closing":"20:00"},{"opening":"08:00","closing":"20:00"}]},{"weekDay":3,"timeRanges":[{"opening":"08:00","closing":"20:00"}]},{"weekDay":4,"timeRanges":[{"opening":"08:00","closing":"20:00"}]},{"weekDay":5,"timeRanges":[{"opening":"08:00","closing":"20:00"}]},{"weekDay":6,"timeRanges":[{"opening":"08:00","closing":"20:00"}]},{"weekDay":7,"timeRanges":[{"opening":"08:00","closing":"20:00"}]}]},{"storeNumber":"340","address":{"name":"dm drogerie markt s.r.o. - pro","street":"Brn\u011bnsk\u00e1 3660\/19","streetAdditional":"STOP SHOP","zip":"669 02","city":"Znojmo"},"location":{"lat":48.846193,"lon":16.069293},"openingHours":[{"weekDay":1,"timeRanges":[{"opening":"08:00","closing":"20:00"}]},{"weekDay":2,"timeRanges":[{"opening":"08:00","closing":"20:00"},{"opening":"08:00","closing":"20:00"}]},{"weekDay":3,"timeRanges":[{"opening":"08:00","closing":"20:00"}]},{"weekDay":4,"timeRanges":[{"opening":"08:00","closing":"20:00"}]},{"weekDay":5,"timeRanges":[{"opening":"08:00","closing":"20:00"}]},{"weekDay":6,"timeRanges":[{"opening":"08:00","closing":"20:00"}]},{"weekDay":7,"timeRanges":[{"opening":"08:00","closing":"20:00"}]}]},{"storeNumber":"341","address":{"name":"dm drogerie markt s.r.o. - pro","street":"Americk\u00e1 3252","streetAdditional":"STOP SHOP","zip":"272 01","city":"Kladno - Kro\u010dehlavy"},"location":{"lat":50.1259802,"lon":14.1238306},"openingHours":[{"weekDay":1,"timeRanges":[{"opening":"08:00","closing":"20:00"}]},{"weekDay":2,"timeRanges":[{"opening":"08:00","closing":"20:00"},{"opening":"08:00","closing":"20:00"}]},{"weekDay":3,"timeRanges":[{"opening":"08:00","closing":"20:00"}]},{"weekDay":4,"timeRanges":[{"opening":"08:00","closing":"20:00"}]},{"weekDay":5,"timeRanges":[{"opening":"08:00","closing":"20:00"}]},{"weekDay":6,"timeRanges":[{"opening":"08:00","closing":"20:00"}]},{"weekDay":7,"timeRanges":[{"opening":"08:00","closing":"20:00"}]}]},{"storeNumber":"342","address":{"name":"dm drogerie markt s.r.o. - pro","street":"Brn\u011bnsk\u00e1 1148\/28","streetAdditional":"N\u00e1kupn\u00ed park \u017d\u010f\u00e1r","zip":"591 01","city":"\u017d\u010f\u00e1r nad S\u00e1zavou"},"location":{"lat":49.55626,"lon":15.94986},"openingHours":[{"weekDay":1,"timeRanges":[{"opening":"08:00","closing":"20:00"}]},{"weekDay":2,"timeRanges":[{"opening":"08:00","closing":"20:00"},{"opening":"08:00","closing":"20:00"}]},{"weekDay":3,"timeRanges":[{"opening":"08:00","closing":"20:00"}]},{"weekDay":4,"timeRanges":[{"opening":"08:00","closing":"20:00"}]},{"weekDay":5,"timeRanges":[{"opening":"08:00","closing":"20:00"}]},{"weekDay":6,"timeRanges":[{"opening":"08:00","closing":"20:00"}]},{"weekDay":7,"timeRanges":[{"opening":"08:00","closing":"20:00"}]}]},{"storeNumber":"343","address":{"name":"dm drogerie markt s.r.o. - pro","street":"Horsk\u00e1 960","streetAdditional":"OD M\u00e1j","zip":"541 01","city":"Trutnov"},"location":{"lat":50.5619651,"lon":15.9108612},"openingHours":[{"weekDay":1,"timeRanges":[{"opening":"08:00","closing":"19:00"}]},{"weekDay":2,"timeRanges":[{"opening":"08:00","closing":"19:00"},{"opening":"08:00","closing":"19:00"}]},{"weekDay":3,"timeRanges":[{"opening":"08:00","closing":"19:00"}]},{"weekDay":4,"timeRanges":[{"opening":"08:00","closing":"19:00"}]},{"weekDay":5,"timeRanges":[{"opening":"08:00","closing":"19:00"}]},{"weekDay":6,"timeRanges":[{"opening":"08:00","closing":"13:00"}]}]},{"storeNumber":"344","address":{"name":"dm drogerie markt s.r.o. - pro","street":"Sukova 2895\/23","streetAdditional":"Area Bory","zip":"301 00","city":"Plze\u0148"},"location":{"lat":49.7283264,"lon":13.3624928},"openingHours":[{"weekDay":1,"timeRanges":[{"opening":"08:00","closing":"21:00"}]},{"weekDay":2,"timeRanges":[{"opening":"08:00","closing":"21:00"},{"opening":"08:00","closing":"21:00"}]},{"weekDay":3,"timeRanges":[{"opening":"08:00","closing":"21:00"}]},{"weekDay":4,"timeRanges":[{"opening":"08:00","closing":"21:00"}]},{"weekDay":5,"timeRanges":[{"opening":"08:00","closing":"21:00"}]},{"weekDay":6,"timeRanges":[{"opening":"08:00","closing":"21:00"}]},{"weekDay":7,"timeRanges":[{"opening":"08:00","closing":"21:00"}]}]},{"storeNumber":"345","address":{"name":"dm drogerie markt s.r.o. - pro","street":"Pod\u011bbradsk\u00e1 335","streetAdditional":"Family centrum","zip":"530 09","city":"Pardubice"},"location":{"lat":50.0553049,"lon":15.7629367},"openingHours":[{"weekDay":1,"timeRanges":[{"opening":"08:00","closing":"20:00"}]},{"weekDay":2,"timeRanges":[{"opening":"08:00","closing":"20:00"},{"opening":"08:00","closing":"20:00"}]},{"weekDay":3,"timeRanges":[{"opening":"08:00","closing":"20:00"}]},{"weekDay":4,"timeRanges":[{"opening":"08:00","closing":"20:00"}]},{"weekDay":5,"timeRanges":[{"opening":"08:00","closing":"20:00"}]},{"weekDay":6,"timeRanges":[{"opening":"08:00","closing":"20:00"}]},{"weekDay":7,"timeRanges":[{"opening":"09:00","closing":"20:00"}]}]},{"storeNumber":"346","address":{"name":"dm drogerie markt s.r.o. - pro","street":"Hlavn\u00ed 1713","zip":"739 11","city":"Fr\u00fddlant nad Ostravic\u00ed"},"location":{"lat":49.5838491,"lon":18.3598417},"openingHours":[{"weekDay":1,"timeRanges":[{"opening":"08:00","closing":"20:00"}]},{"weekDay":2,"timeRanges":[{"opening":"08:00","closing":"20:00"},{"opening":"08:00","closing":"20:00"}]},{"weekDay":3,"timeRanges":[{"opening":"08:00","closing":"20:00"}]},{"weekDay":4,"timeRanges":[{"opening":"08:00","closing":"20:00"}]},{"weekDay":5,"timeRanges":[{"opening":"08:00","closing":"20:00"}]},{"weekDay":6,"timeRanges":[{"opening":"08:00","closing":"20:00"}]},{"weekDay":7,"timeRanges":[{"opening":"08:00","closing":"20:00"}]}]},{"storeNumber":"347","address":{"name":"dm drogerie markt s.r.o. - pro","street":"Na Po\u0159\u00ed\u010d\u00ed 24-26","streetAdditional":"Archa","zip":"110 00","city":"Praha","district":"1 Nov\u00e9 M\u011bsto"},"location":{"lat":50.08969,"lon":14.43362},"openingHours":[{"weekDay":1,"timeRanges":[{"opening":"07:30","closing":"20:00"}]},{"weekDay":2,"timeRanges":[{"opening":"07:30","closing":"20:00"},{"opening":"07:30","closing":"20:00"}]},{"weekDay":3,"timeRanges":[{"opening":"07:30","closing":"20:00"}]},{"weekDay":4,"timeRanges":[{"opening":"07:30","closing":"20:00"}]},{"weekDay":5,"timeRanges":[{"opening":"07:30","closing":"20:00"}]},{"weekDay":6,"timeRanges":[{"opening":"09:00","closing":"20:00"}]},{"weekDay":7,"timeRanges":[{"opening":"09:00","closing":"20:00"}]}]},{"storeNumber":"348","address":{"name":"dm drogerie markt s.r.o. - pro","street":"Dukelsk\u00e1 670","streetAdditional":"Fasmall","zip":"742 42","city":"\u0160enov u Nov\u00e9ho Ji\u010d\u00edna"},"location":{"lat":49.60201,"lon":18.0049},"openingHours":[{"weekDay":1,"timeRanges":[{"opening":"08:00","closing":"20:00"}]},{"weekDay":2,"timeRanges":[{"opening":"08:00","closing":"20:00"},{"opening":"08:00","closing":"20:00"}]},{"weekDay":3,"timeRanges":[{"opening":"08:00","closing":"20:00"}]},{"weekDay":4,"timeRanges":[{"opening":"08:00","closing":"20:00"}]},{"weekDay":5,"timeRanges":[{"opening":"08:00","closing":"20:00"}]},{"weekDay":6,"timeRanges":[{"opening":"08:00","closing":"20:00"}]},{"weekDay":7,"timeRanges":[{"opening":"08:00","closing":"20:00"}]}]},{"storeNumber":"349","address":{"name":"dm drogerie markt s.r.o. - pro","street":"n\u00e1m\u011bst\u00ed Soukenn\u00e9 669\/2a","streetAdditional":"Forum Liberec","zip":"460 07","city":"Liberec IV - Per\u0161t\u00fdn"},"location":{"lat":50.76562,"lon":15.05598},"openingHours":[{"weekDay":1,"timeRanges":[{"opening":"08:00","closing":"20:00"}]},{"weekDay":2,"timeRanges":[{"opening":"08:00","closing":"20:00"},{"opening":"08:00","closing":"20:00"}]},{"weekDay":3,"timeRanges":[{"opening":"08:00","closing":"20:00"}]},{"weekDay":4,"timeRanges":[{"opening":"08:00","closing":"20:00"}]},{"weekDay":5,"timeRanges":[{"opening":"08:00","closing":"20:00"}]},{"weekDay":6,"timeRanges":[{"opening":"09:00","closing":"20:00"}]},{"weekDay":7,"timeRanges":[{"opening":"09:00","closing":"20:00"}]}]},{"storeNumber":"350","address":{"name":"dm drogerie markt s.r.o. - pro","street":"n\u00e1m\u011bst\u00ed Republiky 1400","streetAdditional":"OC GRAND","zip":"530 02","city":"Pardubice"},"location":{"lat":50.0378871,"lon":15.7759034},"openingHours":[{"weekDay":1,"timeRanges":[{"opening":"09:00","closing":"20:00"}]},{"weekDay":2,"timeRanges":[{"opening":"09:00","closing":"20:00"},{"opening":"09:00","closing":"20:00"}]},{"weekDay":3,"timeRanges":[{"opening":"09:00","closing":"20:00"}]},{"weekDay":4,"timeRanges":[{"opening":"09:00","closing":"20:00"}]},{"weekDay":5,"timeRanges":[{"opening":"09:00","closing":"20:00"}]},{"weekDay":6,"timeRanges":[{"opening":"09:00","closing":"20:00"}]},{"weekDay":7,"timeRanges":[{"opening":"09:00","closing":"19:00"}]}]},{"storeNumber":"351","address":{"name":"dm drogerie markt s.r.o. - pro","street":"Obchodn\u00ed z\u00f3na 266","streetAdditional":"S1 Center Chomutov","zip":"431 11","city":"Otvice - Jirkov"},"location":{"lat":50.48342,"lon":13.4427},"openingHours":[{"weekDay":1,"timeRanges":[{"opening":"08:00","closing":"20:00"}]},{"weekDay":2,"timeRanges":[{"opening":"08:00","closing":"20:00"},{"opening":"08:00","closing":"20:00"}]},{"weekDay":3,"timeRanges":[{"opening":"08:00","closing":"20:00"}]},{"weekDay":4,"timeRanges":[{"opening":"08:00","closing":"20:00"}]},{"weekDay":5,"timeRanges":[{"opening":"08:00","closing":"20:00"}]},{"weekDay":6,"timeRanges":[{"opening":"08:00","closing":"20:00"}]},{"weekDay":7,"timeRanges":[{"opening":"09:00","closing":"20:00"}]}]},{"storeNumber":"352","address":{"name":"dm drogerie markt s.r.o. - pro","street":"\u010cesk\u00e9 Ml\u00e1de\u017ee 456","streetAdditional":"OC Nisa","zip":"460 03","city":"Liberec"},"location":{"lat":50.7414969,"lon":15.0491095},"openingHours":[{"weekDay":1,"timeRanges":[{"opening":"09:00","closing":"21:00"}]},{"weekDay":2,"timeRanges":[{"opening":"09:00","closing":"21:00"},{"opening":"09:00","closing":"21:00"}]},{"weekDay":3,"timeRanges":[{"opening":"09:00","closing":"21:00"}]},{"weekDay":4,"timeRanges":[{"opening":"09:00","closing":"21:00"}]},{"weekDay":5,"timeRanges":[{"opening":"09:00","closing":"21:00"}]},{"weekDay":6,"timeRanges":[{"opening":"09:00","closing":"21:00"}]},{"weekDay":7,"timeRanges":[{"opening":"09:00","closing":"21:00"}]}]},{"storeNumber":"353","address":{"name":"dm drogerie markt s.r.o. - pro","street":"Doma\u017elick\u00e1 915","streetAdditional":"NC \u0160kodovka","zip":"339 01","city":"Klatovy III"},"location":{"lat":49.3939365,"lon":13.2847953},"openingHours":[{"weekDay":1,"timeRanges":[{"opening":"08:00","closing":"20:00"}]},{"weekDay":2,"timeRanges":[{"opening":"08:00","closing":"20:00"},{"opening":"08:00","closing":"20:00"}]},{"weekDay":3,"timeRanges":[{"opening":"08:00","closing":"20:00"}]},{"weekDay":4,"timeRanges":[{"opening":"08:00","closing":"20:00"}]},{"weekDay":5,"timeRanges":[{"opening":"08:00","closing":"20:00"}]},{"weekDay":6,"timeRanges":[{"opening":"08:00","closing":"20:00"}]},{"weekDay":7,"timeRanges":[{"opening":"08:00","closing":"20:00"}]}]},{"storeNumber":"355","address":{"name":"dm drogerie markt s.r.o. - pro","street":"Siemensova 2717\/4","streetAdditional":"City West","zip":"155 00","city":"Praha","district":"5 Stod\u016flky"},"location":{"lat":50.0470144,"lon":14.3064937},"openingHours":[{"weekDay":1,"timeRanges":[{"opening":"07:30","closing":"19:00"}]},{"weekDay":2,"timeRanges":[{"opening":"07:30","closing":"19:00"},{"opening":"07:30","closing":"19:00"}]},{"weekDay":3,"timeRanges":[{"opening":"07:30","closing":"19:00"}]},{"weekDay":4,"timeRanges":[{"opening":"07:30","closing":"19:00"}]},{"weekDay":5,"timeRanges":[{"opening":"07:30","closing":"19:00"}]},{"weekDay":6,"timeRanges":[{"opening":"08:00","closing":"13:00"}]}]},{"storeNumber":"356","address":{"name":"dm drogerie markt s.r.o. - pro","street":"Kpt. Jaro\u0161e 375\/31","streetAdditional":"OC Vary\u00e1da","zip":"360 06","city":"Karlovy Vary"},"location":{"lat":50.2268064,"lon":12.8400473},"openingHours":[{"weekDay":1,"timeRanges":[{"opening":"09:00","closing":"21:00"}]},{"weekDay":2,"timeRanges":[{"opening":"09:00","closing":"21:00"},{"opening":"09:00","closing":"21:00"}]},{"weekDay":3,"timeRanges":[{"opening":"09:00","closing":"21:00"}]},{"weekDay":4,"timeRanges":[{"opening":"09:00","closing":"21:00"}]},{"weekDay":5,"timeRanges":[{"opening":"09:00","closing":"21:00"}]},{"weekDay":6,"timeRanges":[{"opening":"09:00","closing":"21:00"}]},{"weekDay":7,"timeRanges":[{"opening":"09:00","closing":"21:00"}]}]},{"storeNumber":"357","address":{"name":"dm drogerie markt s.r.o. - pro","street":"Kone\u010dn\u00e1 689","streetAdditional":"CityMarket","zip":"266 01","city":"Beroun"},"location":{"lat":49.9523703,"lon":14.0446561},"openingHours":[{"weekDay":1,"timeRanges":[{"opening":"08:00","closing":"20:00"}]},{"weekDay":2,"timeRanges":[{"opening":"08:00","closing":"20:00"},{"opening":"08:00","closing":"20:00"}]},{"weekDay":3,"timeRanges":[{"opening":"08:00","closing":"20:00"}]},{"weekDay":4,"timeRanges":[{"opening":"08:00","closing":"20:00"}]},{"weekDay":5,"timeRanges":[{"opening":"08:00","closing":"20:00"}]},{"weekDay":6,"timeRanges":[{"opening":"08:00","closing":"20:00"}]},{"weekDay":7,"timeRanges":[{"opening":"09:00","closing":"19:00"}]}]},{"storeNumber":"358","address":{"name":"dm drogerie markt s.r.o. - pro","street":"Skandin\u00e1vsk\u00e1 144\/17","streetAdditional":"Homepark","zip":"155 00","city":"Praha","district":"5 Zli\u010d\u00edn"},"location":{"lat":50.04935,"lon":14.29748},"openingHours":[{"weekDay":1,"timeRanges":[{"opening":"09:00","closing":"21:00"}]},{"weekDay":2,"timeRanges":[{"opening":"09:00","closing":"21:00"},{"opening":"09:00","closing":"21:00"}]},{"weekDay":3,"timeRanges":[{"opening":"09:00","closing":"21:00"}]},{"weekDay":4,"timeRanges":[{"opening":"09:00","closing":"21:00"}]},{"weekDay":5,"timeRanges":[{"opening":"09:00","closing":"21:00"}]},{"weekDay":6,"timeRanges":[{"opening":"09:00","closing":"21:00"}]},{"weekDay":7,"timeRanges":[{"opening":"09:00","closing":"21:00"}]}]},{"storeNumber":"359","address":{"name":"dm drogerie markt s.r.o. - pro","street":"Me\u010dov\u00e1 2","streetAdditional":"Velk\u00fd \u0160pal\u00ed\u010dek","zip":"602 00","city":"Brno"},"location":{"lat":49.19316,"lon":16.60752},"openingHours":[{"weekDay":1,"timeRanges":[{"opening":"08:00","closing":"21:00"}]},{"weekDay":2,"timeRanges":[{"opening":"08:00","closing":"21:00"},{"opening":"08:00","closing":"21:00"}]},{"weekDay":3,"timeRanges":[{"opening":"08:00","closing":"21:00"}]},{"weekDay":4,"timeRanges":[{"opening":"08:00","closing":"21:00"}]},{"weekDay":5,"timeRanges":[{"opening":"08:00","closing":"21:00"}]},{"weekDay":6,"timeRanges":[{"opening":"08:00","closing":"21:00"}]},{"weekDay":7,"timeRanges":[{"opening":"10:00","closing":"20:00"}]}]},{"storeNumber":"361","address":{"name":"dm drogerie markt s.r.o. - pro","street":"Antala Sta\u0161ka 1301\/19","streetAdditional":"Antal","zip":"140 00","city":"Praha","district":"4 Kr\u010d"},"location":{"lat":50.0407622,"lon":14.4369228},"openingHours":[{"weekDay":1,"timeRanges":[{"opening":"08:00","closing":"19:00"}]},{"weekDay":2,"timeRanges":[{"opening":"08:00","closing":"19:00"},{"opening":"08:00","closing":"19:00"}]},{"weekDay":3,"timeRanges":[{"opening":"08:00","closing":"19:00"}]},{"weekDay":4,"timeRanges":[{"opening":"08:00","closing":"19:00"}]},{"weekDay":5,"timeRanges":[{"opening":"08:00","closing":"19:00"}]},{"weekDay":6,"timeRanges":[{"opening":"08:00","closing":"14:00"}]}]},{"storeNumber":"362","address":{"name":"dm drogerie markt s.r.o. - pro","street":"Tylovo n\u00e1m\u011bst\u00ed 15\/3","zip":"120 00","city":"Praha","district":"2 Vinohrady"},"location":{"lat":50.07465,"lon":14.43192},"openingHours":[{"weekDay":1,"timeRanges":[{"opening":"07:30","closing":"20:00"}]},{"weekDay":2,"timeRanges":[{"opening":"07:30","closing":"20:00"},{"opening":"07:30","closing":"20:00"}]},{"weekDay":3,"timeRanges":[{"opening":"07:30","closing":"20:00"}]},{"weekDay":4,"timeRanges":[{"opening":"07:30","closing":"20:00"}]},{"weekDay":5,"timeRanges":[{"opening":"07:30","closing":"20:00"}]},{"weekDay":6,"timeRanges":[{"opening":"08:00","closing":"18:00"}]},{"weekDay":7,"timeRanges":[{"opening":"10:00","closing":"18:00"}]}]},{"storeNumber":"363","address":{"name":"dm drogerie markt s.r.o. - pro","street":"Kosmonosy 1237","streetAdditional":"CityMarket Na Radou\u010di","zip":"293 06","city":"Kosmonosy"},"location":{"lat":50.4360501,"lon":14.9119683},"openingHours":[{"weekDay":1,"timeRanges":[{"opening":"09:00","closing":"19:00"}]},{"weekDay":2,"timeRanges":[{"opening":"09:00","closing":"19:00"},{"opening":"09:00","closing":"19:00"}]},{"weekDay":3,"timeRanges":[{"opening":"09:00","closing":"19:00"}]},{"weekDay":4,"timeRanges":[{"opening":"09:00","closing":"19:00"}]},{"weekDay":5,"timeRanges":[{"opening":"09:00","closing":"19:00"}]},{"weekDay":6,"timeRanges":[{"opening":"09:00","closing":"19:00"}]},{"weekDay":7,"timeRanges":[{"opening":"09:00","closing":"19:00"}]}]},{"storeNumber":"364","address":{"name":"dm drogerie markt s.r.o. - pro","street":"Obloukov\u00e1 1420\/2","streetAdditional":"S1 Center D\u011b\u010d\u00edn","zip":"405 02","city":"D\u011b\u010d\u00edn"},"location":{"lat":50.77616,"lon":14.21654},"openingHours":[{"weekDay":1,"timeRanges":[{"opening":"08:00","closing":"20:00"}]},{"weekDay":2,"timeRanges":[{"opening":"08:00","closing":"20:00"},{"opening":"08:00","closing":"20:00"}]},{"weekDay":3,"timeRanges":[{"opening":"08:00","closing":"20:00"}]},{"weekDay":4,"timeRanges":[{"opening":"08:00","closing":"20:00"}]},{"weekDay":5,"timeRanges":[{"opening":"08:00","closing":"20:00"}]},{"weekDay":6,"timeRanges":[{"opening":"08:00","closing":"20:00"}]},{"weekDay":7,"timeRanges":[{"opening":"09:00","closing":"20:00"}]}]},{"storeNumber":"366","address":{"name":"dm drogerie markt s.r.o. - pro","street":"\u017deletavsk\u00e1 1525\/1","streetAdditional":"BB Centrum Filadelfie","zip":"140 00","city":"Praha","district":"4 Michle"},"location":{"lat":50.0491281,"lon":14.453022},"openingHours":[{"weekDay":1,"timeRanges":[{"opening":"08:00","closing":"19:00"}]},{"weekDay":2,"timeRanges":[{"opening":"08:00","closing":"19:00"},{"opening":"08:00","closing":"19:00"}]},{"weekDay":3,"timeRanges":[{"opening":"08:00","closing":"19:00"}]},{"weekDay":4,"timeRanges":[{"opening":"08:00","closing":"19:00"}]},{"weekDay":5,"timeRanges":[{"opening":"08:00","closing":"19:00"}]},{"weekDay":6,"timeRanges":[{"opening":"08:00","closing":"13:00"}]}]},{"storeNumber":"368","address":{"name":"dm drogerie markt s.r.o. - pro","street":"Letohradsk\u00e1 1524","streetAdditional":"STOP SHOP","zip":"562 01","city":"\u00dast\u00ed nad Orlic\u00ed"},"location":{"lat":49.9794532,"lon":16.403692},"openingHours":[{"weekDay":1,"timeRanges":[{"opening":"08:00","closing":"20:00"}]},{"weekDay":2,"timeRanges":[{"opening":"08:00","closing":"20:00"},{"opening":"08:00","closing":"20:00"}]},{"weekDay":3,"timeRanges":[{"opening":"08:00","closing":"20:00"}]},{"weekDay":4,"timeRanges":[{"opening":"08:00","closing":"20:00"}]},{"weekDay":5,"timeRanges":[{"opening":"08:00","closing":"20:00"}]},{"weekDay":6,"timeRanges":[{"opening":"08:00","closing":"20:00"}]},{"weekDay":7,"timeRanges":[{"opening":"08:00","closing":"20:00"}]}]},{"storeNumber":"369","address":{"name":"dm drogerie markt s.r.o. - pro","street":"Spojovac\u00ed 396","streetAdditional":"G\u00e9\u010dko","zip":"725 27","city":"Ostrava - Plesn\u00e1"},"location":{"lat":49.8495551,"lon":18.1457973},"openingHours":[{"weekDay":1,"timeRanges":[{"opening":"09:00","closing":"20:00"}]},{"weekDay":2,"timeRanges":[{"opening":"09:00","closing":"20:00"},{"opening":"09:00","closing":"20:00"}]},{"weekDay":3,"timeRanges":[{"opening":"09:00","closing":"20:00"}]},{"weekDay":4,"timeRanges":[{"opening":"09:00","closing":"20:00"}]},{"weekDay":5,"timeRanges":[{"opening":"09:00","closing":"20:00"}]},{"weekDay":6,"timeRanges":[{"opening":"09:00","closing":"20:00"}]},{"weekDay":7,"timeRanges":[{"opening":"09:00","closing":"20:00"}]}]},{"storeNumber":"370","address":{"name":"dm drogerie markt s.r.o. - pro","street":"\u010cesk\u00fdch brat\u0159\u00ed 895","streetAdditional":"A centrum","zip":"566 01","city":"Vysok\u00e9 M\u00fdto"},"location":{"lat":49.9436834,"lon":16.1659501},"openingHours":[{"weekDay":1,"timeRanges":[{"opening":"08:00","closing":"20:00"}]},{"weekDay":2,"timeRanges":[{"opening":"08:00","closing":"20:00"},{"opening":"08:00","closing":"20:00"}]},{"weekDay":3,"timeRanges":[{"opening":"08:00","closing":"20:00"}]},{"weekDay":4,"timeRanges":[{"opening":"08:00","closing":"20:00"}]},{"weekDay":5,"timeRanges":[{"opening":"08:00","closing":"20:00"}]},{"weekDay":6,"timeRanges":[{"opening":"08:00","closing":"20:00"}]},{"weekDay":7,"timeRanges":[{"opening":"09:00","closing":"20:00"}]}]},{"storeNumber":"372","address":{"name":"dm drogerie markt s.r.o. - pro","street":"28. \u0159\u00edjna 3337\/9","streetAdditional":"Biskupsk\u00e1","zip":"702 00","city":"Ostrava"},"location":{"lat":49.8367595,"lon":18.2947112},"openingHours":[{"weekDay":1,"timeRanges":[{"opening":"08:00","closing":"19:00"}]},{"weekDay":2,"timeRanges":[{"opening":"08:00","closing":"19:00"},{"opening":"08:00","closing":"19:00"}]},{"weekDay":3,"timeRanges":[{"opening":"08:00","closing":"19:00"}]},{"weekDay":4,"timeRanges":[{"opening":"08:00","closing":"19:00"}]},{"weekDay":5,"timeRanges":[{"opening":"08:00","closing":"19:00"}]},{"weekDay":6,"timeRanges":[{"opening":"08:00","closing":"13:00"}]}]},{"storeNumber":"373","address":{"name":"dm drogerie markt s.r.o. - pro","street":"P\u0159etluck\u00e1 3295\/50","streetAdditional":"Tesco Skalka","zip":"100 00","city":"Praha","district":"10"},"location":{"lat":50.07096,"lon":14.51077},"openingHours":[{"weekDay":1,"timeRanges":[{"opening":"08:00","closing":"20:00"}]},{"weekDay":2,"timeRanges":[{"opening":"08:00","closing":"20:00"},{"opening":"08:00","closing":"20:00"}]},{"weekDay":3,"timeRanges":[{"opening":"08:00","closing":"20:00"}]},{"weekDay":4,"timeRanges":[{"opening":"08:00","closing":"20:00"}]},{"weekDay":5,"timeRanges":[{"opening":"08:00","closing":"20:00"}]},{"weekDay":6,"timeRanges":[{"opening":"08:00","closing":"20:00"}]},{"weekDay":7,"timeRanges":[{"opening":"08:00","closing":"20:00"}]}]},{"storeNumber":"374","address":{"name":"dm drogerie markt s.r.o. - pro","street":"Vl\u010dnovsk\u00e1 2590","streetAdditional":"OC Vl\u010dnovsk\u00e1","zip":"688 01","city":"Uhersk\u00fd Brod"},"location":{"lat":49.02098,"lon":17.64083},"openingHours":[{"weekDay":1,"timeRanges":[{"opening":"08:00","closing":"20:00"}]},{"weekDay":2,"timeRanges":[{"opening":"08:00","closing":"20:00"},{"opening":"08:00","closing":"20:00"}]},{"weekDay":3,"timeRanges":[{"opening":"08:00","closing":"20:00"}]},{"weekDay":4,"timeRanges":[{"opening":"08:00","closing":"20:00"}]},{"weekDay":5,"timeRanges":[{"opening":"08:00","closing":"20:00"}]},{"weekDay":6,"timeRanges":[{"opening":"08:00","closing":"20:00"}]},{"weekDay":7,"timeRanges":[{"opening":"08:00","closing":"20:00"}]}]},{"storeNumber":"375","address":{"name":"dm drogerie markt s.r.o. - pro","street":"Svatoborsk\u00e1 1378\/102","streetAdditional":"Vendo Park","zip":"697 01","city":"Kyjov"},"location":{"lat":49.0044971,"lon":17.1103991},"openingHours":[{"weekDay":1,"timeRanges":[{"opening":"08:00","closing":"20:00"}]},{"weekDay":2,"timeRanges":[{"opening":"08:00","closing":"20:00"},{"opening":"08:00","closing":"20:00"}]},{"weekDay":3,"timeRanges":[{"opening":"08:00","closing":"20:00"}]},{"weekDay":4,"timeRanges":[{"opening":"08:00","closing":"20:00"}]},{"weekDay":5,"timeRanges":[{"opening":"08:00","closing":"20:00"}]},{"weekDay":6,"timeRanges":[{"opening":"08:00","closing":"20:00"}]},{"weekDay":7,"timeRanges":[{"opening":"08:00","closing":"20:00"}]}]},{"storeNumber":"376","address":{"name":"dm drogerie markt s.r.o. - pro","street":"Brn\u011bnsk\u00e1 1825\/23a","streetAdditional":"OC Futurum","zip":"500 09","city":"Hradec Kr\u00e1lov\u00e9"},"location":{"lat":50.19702,"lon":15.84894},"openingHours":[{"weekDay":1,"timeRanges":[{"opening":"08:00","closing":"21:00"}]},{"weekDay":2,"timeRanges":[{"opening":"08:00","closing":"21:00"},{"opening":"08:00","closing":"21:00"}]},{"weekDay":3,"timeRanges":[{"opening":"08:00","closing":"21:00"}]},{"weekDay":4,"timeRanges":[{"opening":"08:00","closing":"21:00"}]},{"weekDay":5,"timeRanges":[{"opening":"08:00","closing":"21:00"}]},{"weekDay":6,"timeRanges":[{"opening":"08:00","closing":"21:00"}]},{"weekDay":7,"timeRanges":[{"opening":"08:00","closing":"21:00"}]}]},{"storeNumber":"377","address":{"name":"dm drogerie markt s.r.o. - pro","street":"Na Ochoze 1270","zip":"252 42","city":"Jesenice"},"location":{"lat":49.96528,"lon":14.51912},"openingHours":[{"weekDay":1,"timeRanges":[{"opening":"08:00","closing":"20:00"}]},{"weekDay":2,"timeRanges":[{"opening":"08:00","closing":"20:00"},{"opening":"08:00","closing":"20:00"}]},{"weekDay":3,"timeRanges":[{"opening":"08:00","closing":"20:00"}]},{"weekDay":4,"timeRanges":[{"opening":"08:00","closing":"20:00"}]},{"weekDay":5,"timeRanges":[{"opening":"08:00","closing":"20:00"}]},{"weekDay":6,"timeRanges":[{"opening":"08:00","closing":"20:00"}]},{"weekDay":7,"timeRanges":[{"opening":"08:00","closing":"20:00"}]}]},{"storeNumber":"378","address":{"name":"dm drogerie markt s.r.o. - pro","street":"Rovn\u00e1 2471\/4C","streetAdditional":"OC Vinohr\u00e1dky","zip":"680 01","city":"Boskovice"},"location":{"lat":49.4904166,"lon":16.6413295},"openingHours":[{"weekDay":1,"timeRanges":[{"opening":"08:00","closing":"20:00"}]},{"weekDay":2,"timeRanges":[{"opening":"08:00","closing":"20:00"},{"opening":"08:00","closing":"20:00"}]},{"weekDay":3,"timeRanges":[{"opening":"08:00","closing":"20:00"}]},{"weekDay":4,"timeRanges":[{"opening":"08:00","closing":"20:00"}]},{"weekDay":5,"timeRanges":[{"opening":"08:00","closing":"20:00"}]},{"weekDay":6,"timeRanges":[{"opening":"08:00","closing":"20:00"}]},{"weekDay":7,"timeRanges":[{"opening":"08:00","closing":"20:00"}]}]},{"storeNumber":"379","address":{"name":"dm drogerie markt s.r.o. - pro","street":"Pra\u017esk\u00e1 31","zip":"263 01","city":"Dob\u0159\u00ed\u0161"},"location":{"lat":49.78113,"lon":14.17303},"openingHours":[{"weekDay":1,"timeRanges":[{"opening":"08:00","closing":"19:00"}]},{"weekDay":2,"timeRanges":[{"opening":"08:00","closing":"19:00"},{"opening":"08:00","closing":"19:00"}]},{"weekDay":3,"timeRanges":[{"opening":"08:00","closing":"19:00"}]},{"weekDay":4,"timeRanges":[{"opening":"08:00","closing":"19:00"}]},{"weekDay":5,"timeRanges":[{"opening":"08:00","closing":"19:00"}]},{"weekDay":6,"timeRanges":[{"opening":"08:00","closing":"13:00"}]},{"weekDay":7,"timeRanges":[{"opening":"08:00","closing":"12:00"}]}]},{"storeNumber":"380","address":{"name":"dm drogerie markt s.r.o. - pro","street":"Dobrovsk\u00e9ho 3680","streetAdditional":"Par\u00e1da Shopping","zip":"738 01","city":"Fr\u00fddek-M\u00edstek"},"location":{"lat":49.68059,"lon":18.37037},"openingHours":[{"weekDay":1,"timeRanges":[{"opening":"08:00","closing":"20:00"}]},{"weekDay":2,"timeRanges":[{"opening":"08:00","closing":"20:00"},{"opening":"08:00","closing":"20:00"}]},{"weekDay":3,"timeRanges":[{"opening":"08:00","closing":"20:00"}]},{"weekDay":4,"timeRanges":[{"opening":"08:00","closing":"20:00"}]},{"weekDay":5,"timeRanges":[{"opening":"08:00","closing":"20:00"}]},{"weekDay":6,"timeRanges":[{"opening":"08:00","closing":"20:00"}]},{"weekDay":7,"timeRanges":[{"opening":"09:00","closing":"20:00"}]}]},{"storeNumber":"381","address":{"name":"dm drogerie markt s.r.o. - pro","street":"B\u00edlkova 270","zip":"290 01","city":"Pod\u011bbrady","district":"VIII - Kluk"},"location":{"lat":50.13384,"lon":15.09846},"openingHours":[{"weekDay":1,"timeRanges":[{"opening":"08:00","closing":"20:00"}]},{"weekDay":2,"timeRanges":[{"opening":"08:00","closing":"20:00"},{"opening":"08:00","closing":"20:00"}]},{"weekDay":3,"timeRanges":[{"opening":"08:00","closing":"20:00"}]},{"weekDay":4,"timeRanges":[{"opening":"08:00","closing":"20:00"}]},{"weekDay":5,"timeRanges":[{"opening":"08:00","closing":"20:00"}]},{"weekDay":6,"timeRanges":[{"opening":"08:00","closing":"20:00"}]},{"weekDay":7,"timeRanges":[{"opening":"08:00","closing":"20:00"}]}]},{"storeNumber":"382","address":{"name":"dm drogerie markt s.r.o. - pro","street":"Kab\u00e1tnick\u00e1 3306","zip":"434 01","city":"Most"},"location":{"lat":50.5117,"lon":13.64916},"openingHours":[{"weekDay":1,"timeRanges":[{"opening":"09:00","closing":"20:00"}]},{"weekDay":2,"timeRanges":[{"opening":"09:00","closing":"20:00"},{"opening":"09:00","closing":"20:00"}]},{"weekDay":3,"timeRanges":[{"opening":"09:00","closing":"20:00"}]},{"weekDay":4,"timeRanges":[{"opening":"09:00","closing":"20:00"}]},{"weekDay":5,"timeRanges":[{"opening":"09:00","closing":"20:00"}]},{"weekDay":6,"timeRanges":[{"opening":"09:00","closing":"20:00"}]},{"weekDay":7,"timeRanges":[{"opening":"09:00","closing":"20:00"}]}]},{"storeNumber":"383","address":{"name":"dm drogerie markt s.r.o. - pro","street":"Gersk\u00e1 2237\/25","zip":"323 00","city":"Plze\u0148 - Bolevec"},"location":{"lat":49.7795,"lon":13.36958},"openingHours":[{"weekDay":1,"timeRanges":[{"opening":"08:00","closing":"20:00"}]},{"weekDay":2,"timeRanges":[{"opening":"08:00","closing":"20:00"},{"opening":"08:00","closing":"20:00"}]},{"weekDay":3,"timeRanges":[{"opening":"08:00","closing":"20:00"}]},{"weekDay":4,"timeRanges":[{"opening":"08:00","closing":"20:00"}]},{"weekDay":5,"timeRanges":[{"opening":"08:00","closing":"20:00"}]},{"weekDay":6,"timeRanges":[{"opening":"08:00","closing":"20:00"}]},{"weekDay":7,"timeRanges":[{"opening":"08:00","closing":"20:00"}]}]},{"storeNumber":"384","address":{"name":"dm drogerie markt s.r.o. - pro","street":"Pra\u017esk\u00e1 2498","streetAdditional":"CityMarket","zip":"393 01","city":"Pelh\u0159imov"},"location":{"lat":49.43928,"lon":15.21253},"openingHours":[{"weekDay":1,"timeRanges":[{"opening":"08:00","closing":"20:00"}]},{"weekDay":2,"timeRanges":[{"opening":"08:00","closing":"20:00"},{"opening":"08:00","closing":"20:00"}]},{"weekDay":3,"timeRanges":[{"opening":"08:00","closing":"20:00"}]},{"weekDay":4,"timeRanges":[{"opening":"08:00","closing":"20:00"}]},{"weekDay":5,"timeRanges":[{"opening":"08:00","closing":"20:00"}]},{"weekDay":6,"timeRanges":[{"opening":"08:00","closing":"20:00"}]},{"weekDay":7,"timeRanges":[{"opening":"08:00","closing":"20:00"}]}]},{"storeNumber":"385","address":{"name":"dm drogerie markt s.r.o. - pro","street":"Jantarov\u00e1 3344\/4","streetAdditional":"Forum Nov\u00e1 Karolina","zip":"702 00","city":"Ostrava"},"location":{"lat":49.8303371,"lon":18.2850162},"openingHours":[{"weekDay":1,"timeRanges":[{"opening":"09:00","closing":"21:00"}]},{"weekDay":2,"timeRanges":[{"opening":"09:00","closing":"21:00"},{"opening":"09:00","closing":"21:00"}]},{"weekDay":3,"timeRanges":[{"opening":"09:00","closing":"21:00"}]},{"weekDay":4,"timeRanges":[{"opening":"09:00","closing":"21:00"}]},{"weekDay":5,"timeRanges":[{"opening":"09:00","closing":"21:00"}]},{"weekDay":6,"timeRanges":[{"opening":"09:00","closing":"21:00"}]},{"weekDay":7,"timeRanges":[{"opening":"09:00","closing":"21:00"}]}]},{"storeNumber":"386","address":{"name":"dm drogerie markt s.r.o. - pro","street":"Na P\u0159\u00edkop\u011b 3727","streetAdditional":"OC Fr\u00fdda","zip":"738 01","city":"Fr\u00fddek - M\u00edstek"},"location":{"lat":49.6813,"lon":18.34688},"openingHours":[{"weekDay":1,"timeRanges":[{"opening":"09:00","closing":"20:00"}]},{"weekDay":2,"timeRanges":[{"opening":"09:00","closing":"20:00"},{"opening":"09:00","closing":"20:00"}]},{"weekDay":3,"timeRanges":[{"opening":"09:00","closing":"20:00"}]},{"weekDay":4,"timeRanges":[{"opening":"09:00","closing":"20:00"}]},{"weekDay":5,"timeRanges":[{"opening":"09:00","closing":"20:00"}]},{"weekDay":6,"timeRanges":[{"opening":"09:00","closing":"20:00"}]},{"weekDay":7,"timeRanges":[{"opening":"09:00","closing":"20:00"}]}]},{"storeNumber":"387","address":{"name":"dm drogerie markt s.r.o. - pro","street":"17. listopadu 3150","streetAdditional":"S1 Center Dv\u016fr Kr\u00e1lov\u00e9 n. Labem","zip":"544 01","city":"Dv\u016fr Kr\u00e1lov\u00e9 nad Labem"},"location":{"lat":50.42685,"lon":15.81668},"openingHours":[{"weekDay":1,"timeRanges":[{"opening":"08:00","closing":"20:00"}]},{"weekDay":2,"timeRanges":[{"opening":"08:00","closing":"20:00"},{"opening":"08:00","closing":"20:00"}]},{"weekDay":3,"timeRanges":[{"opening":"08:00","closing":"20:00"}]},{"weekDay":4,"timeRanges":[{"opening":"08:00","closing":"20:00"}]},{"weekDay":5,"timeRanges":[{"opening":"08:00","closing":"20:00"}]},{"weekDay":6,"timeRanges":[{"opening":"08:00","closing":"20:00"}]},{"weekDay":7,"timeRanges":[{"opening":"08:00","closing":"20:00"}]}]},{"storeNumber":"388","address":{"name":"dm drogerie markt s.r.o. - pro","street":"Urbinsk\u00e1 238","streetAdditional":"CityMarket","zip":"381 01","city":"\u010cesk\u00fd Krumlov"},"location":{"lat":48.82437,"lon":14.33245},"openingHours":[{"weekDay":1,"timeRanges":[{"opening":"08:00","closing":"20:00"}]},{"weekDay":2,"timeRanges":[{"opening":"08:00","closing":"20:00"},{"opening":"08:00","closing":"20:00"}]},{"weekDay":3,"timeRanges":[{"opening":"08:00","closing":"20:00"}]},{"weekDay":4,"timeRanges":[{"opening":"08:00","closing":"20:00"}]},{"weekDay":5,"timeRanges":[{"opening":"08:00","closing":"20:00"}]},{"weekDay":6,"timeRanges":[{"opening":"08:00","closing":"20:00"}]},{"weekDay":7,"timeRanges":[{"opening":"08:00","closing":"20:00"}]}]},{"storeNumber":"389","address":{"name":"dm drogerie markt s.r.o. - pro","street":"Chebsk\u00e1 731\/15","streetAdditional":"OC Nov\u00e1 Chebsk\u00e1","zip":"353 01","city":"Mari\u00e1nsk\u00e9 L\u00e1zn\u011b"},"location":{"lat":49.96297,"lon":12.69705},"openingHours":[{"weekDay":1,"timeRanges":[{"opening":"08:00","closing":"19:00"}]},{"weekDay":2,"timeRanges":[{"opening":"08:00","closing":"19:00"},{"opening":"08:00","closing":"19:00"}]},{"weekDay":3,"timeRanges":[{"opening":"08:00","closing":"19:00"}]},{"weekDay":4,"timeRanges":[{"opening":"08:00","closing":"19:00"}]},{"weekDay":5,"timeRanges":[{"opening":"08:00","closing":"19:00"}]},{"weekDay":6,"timeRanges":[{"opening":"08:00","closing":"19:00"}]},{"weekDay":7,"timeRanges":[{"opening":"08:00","closing":"19:00"}]}]},{"storeNumber":"390","address":{"name":"dm drogerie markt s.r.o. - pro","street":"T\u0159\u00edda 3. kv\u011btna 1205","streetAdditional":"Centro Zl\u00edn","zip":"763 02","city":"Zl\u00edn - Malenovice"},"location":{"lat":49.20388,"lon":17.56742},"openingHours":[{"weekDay":1,"timeRanges":[{"opening":"08:00","closing":"20:00"}]},{"weekDay":2,"timeRanges":[{"opening":"08:00","closing":"20:00"},{"opening":"08:00","closing":"20:00"}]},{"weekDay":3,"timeRanges":[{"opening":"08:00","closing":"20:00"}]},{"weekDay":4,"timeRanges":[{"opening":"08:00","closing":"20:00"}]},{"weekDay":5,"timeRanges":[{"opening":"08:00","closing":"20:00"}]},{"weekDay":6,"timeRanges":[{"opening":"08:00","closing":"20:00"}]},{"weekDay":7,"timeRanges":[{"opening":"08:00","closing":"20:00"}]}]},{"storeNumber":"391","address":{"name":"dm drogerie markt s.r.o. - pro","street":"Mezi\u0159\u00ed\u010dsk\u00e1 2900","zip":"756 61","city":"Ro\u017enov pod Radho\u0161t\u011bm"},"location":{"lat":49.46027,"lon":18.13131},"openingHours":[{"weekDay":1,"timeRanges":[{"opening":"08:00","closing":"20:00"}]},{"weekDay":2,"timeRanges":[{"opening":"08:00","closing":"20:00"},{"opening":"08:00","closing":"20:00"}]},{"weekDay":3,"timeRanges":[{"opening":"08:00","closing":"20:00"}]},{"weekDay":4,"timeRanges":[{"opening":"08:00","closing":"20:00"}]},{"weekDay":5,"timeRanges":[{"opening":"08:00","closing":"20:00"}]},{"weekDay":6,"timeRanges":[{"opening":"08:00","closing":"20:00"}]},{"weekDay":7,"timeRanges":[{"opening":"08:00","closing":"20:00"}]}]},{"storeNumber":"392","address":{"name":"dm drogerie markt s.r.o. - pro","street":"Husova 250","zip":"344 01","city":"Doma\u017elice"},"location":{"lat":49.43963,"lon":12.93585},"openingHours":[{"weekDay":1,"timeRanges":[{"opening":"08:00","closing":"20:00"}]},{"weekDay":2,"timeRanges":[{"opening":"08:00","closing":"20:00"},{"opening":"08:00","closing":"20:00"}]},{"weekDay":3,"timeRanges":[{"opening":"08:00","closing":"20:00"}]},{"weekDay":4,"timeRanges":[{"opening":"08:00","closing":"20:00"}]},{"weekDay":5,"timeRanges":[{"opening":"08:00","closing":"20:00"}]},{"weekDay":6,"timeRanges":[{"opening":"08:00","closing":"19:00"}]},{"weekDay":7,"timeRanges":[{"opening":"08:00","closing":"19:00"}]}]},{"storeNumber":"393","address":{"name":"dm drogerie markt s.r.o. - pro","street":"Sokolovsk\u00e1 2203","zip":"347 01","city":"Tachov"},"location":{"lat":49.80282,"lon":12.63903},"openingHours":[{"weekDay":1,"timeRanges":[{"opening":"08:00","closing":"19:00"}]},{"weekDay":2,"timeRanges":[{"opening":"08:00","closing":"19:00"},{"opening":"08:00","closing":"19:00"}]},{"weekDay":3,"timeRanges":[{"opening":"08:00","closing":"19:00"}]},{"weekDay":4,"timeRanges":[{"opening":"08:00","closing":"19:00"}]},{"weekDay":5,"timeRanges":[{"opening":"08:00","closing":"19:00"}]},{"weekDay":6,"timeRanges":[{"opening":"08:00","closing":"19:00"}]},{"weekDay":7,"timeRanges":[{"opening":"08:00","closing":"19:00"}]}]},{"storeNumber":"394","address":{"name":"dm drogerie markt s.r.o. - pro","street":"Lod\u017esk\u00e1 850\/6","streetAdditional":"OC Krakov","zip":"181 00","city":"Praha","district":"8 Bohnice"},"location":{"lat":50.12779,"lon":14.41822},"openingHours":[{"weekDay":1,"timeRanges":[{"opening":"08:00","closing":"21:00"}]},{"weekDay":2,"timeRanges":[{"opening":"08:00","closing":"21:00"},{"opening":"08:00","closing":"21:00"}]},{"weekDay":3,"timeRanges":[{"opening":"08:00","closing":"21:00"}]},{"weekDay":4,"timeRanges":[{"opening":"08:00","closing":"21:00"}]},{"weekDay":5,"timeRanges":[{"opening":"08:00","closing":"21:00"}]},{"weekDay":6,"timeRanges":[{"opening":"08:00","closing":"21:00"}]},{"weekDay":7,"timeRanges":[{"opening":"08:00","closing":"21:00"}]}]},{"storeNumber":"395","address":{"name":"dm drogerie markt s.r.o. - pro","street":"Alej 17. listopadu 2721","streetAdditional":"Vendo Park","zip":"413 01","city":"Roudnice nad Labem"},"location":{"lat":50.4238854,"lon":14.2384522},"openingHours":[{"weekDay":1,"timeRanges":[{"opening":"08:00","closing":"20:00"}]},{"weekDay":2,"timeRanges":[{"opening":"08:00","closing":"20:00"},{"opening":"08:00","closing":"20:00"}]},{"weekDay":3,"timeRanges":[{"opening":"08:00","closing":"20:00"}]},{"weekDay":4,"timeRanges":[{"opening":"08:00","closing":"20:00"}]},{"weekDay":5,"timeRanges":[{"opening":"08:00","closing":"20:00"}]},{"weekDay":6,"timeRanges":[{"opening":"08:00","closing":"20:00"}]},{"weekDay":7,"timeRanges":[{"opening":"09:00","closing":"20:00"}]}]},{"storeNumber":"396","address":{"name":"dm drogerie markt s.r.o. - pro","street":"Fr\u00fddeck\u00e1 84","streetAdditional":"Retail Park","zip":"739 61","city":"T\u0159inec"},"location":{"lat":49.67351,"lon":18.65991},"openingHours":[{"weekDay":1,"timeRanges":[{"opening":"08:00","closing":"20:00"}]},{"weekDay":2,"timeRanges":[{"opening":"08:00","closing":"20:00"},{"opening":"08:00","closing":"20:00"}]},{"weekDay":3,"timeRanges":[{"opening":"08:00","closing":"20:00"}]},{"weekDay":4,"timeRanges":[{"opening":"08:00","closing":"20:00"}]},{"weekDay":5,"timeRanges":[{"opening":"08:00","closing":"20:00"}]},{"weekDay":6,"timeRanges":[{"opening":"08:00","closing":"20:00"}]},{"weekDay":7,"timeRanges":[{"opening":"08:00","closing":"20:00"}]}]},{"storeNumber":"397","address":{"name":"dm drogerie markt s.r.o. - pro","street":"Lhoteck\u00e1 2121\/2e","zip":"143 00","city":"Praha","district":"4 Mod\u0159any"},"location":{"lat":50.01398,"lon":14.41762},"openingHours":[{"weekDay":1,"timeRanges":[{"opening":"08:00","closing":"20:00"}]},{"weekDay":2,"timeRanges":[{"opening":"08:00","closing":"20:00"},{"opening":"08:00","closing":"20:00"}]},{"weekDay":3,"timeRanges":[{"opening":"08:00","closing":"20:00"}]},{"weekDay":4,"timeRanges":[{"opening":"08:00","closing":"20:00"}]},{"weekDay":5,"timeRanges":[{"opening":"08:00","closing":"20:00"}]},{"weekDay":6,"timeRanges":[{"opening":"08:00","closing":"20:00"}]},{"weekDay":7,"timeRanges":[{"opening":"08:00","closing":"20:00"}]}]},{"storeNumber":"398","address":{"name":"dm drogerie markt s.r.o. - pro","street":"Nuselsk\u00e1 236\/39","zip":"140 00","city":"Praha","district":"4 Nusle"},"location":{"lat":50.06226,"lon":14.44531},"openingHours":[{"weekDay":1,"timeRanges":[{"opening":"07:30","closing":"19:00"}]},{"weekDay":2,"timeRanges":[{"opening":"07:30","closing":"19:00"},{"opening":"07:30","closing":"19:00"}]},{"weekDay":3,"timeRanges":[{"opening":"07:30","closing":"19:00"}]},{"weekDay":4,"timeRanges":[{"opening":"07:30","closing":"19:00"}]},{"weekDay":5,"timeRanges":[{"opening":"07:30","closing":"19:00"}]},{"weekDay":6,"timeRanges":[{"opening":"08:00","closing":"17:00"}]},{"weekDay":7,"timeRanges":[{"opening":"09:00","closing":"13:00"}]}]},{"storeNumber":"399","address":{"name":"dm drogerie markt s.r.o. - pro","street":"S. K. Neumanna 2859","streetAdditional":"Komer\u010dn\u00ed Park Pardubice","zip":"530 02","city":"Pardubice"},"location":{"lat":50.02415,"lon":15.77933},"openingHours":[{"weekDay":1,"timeRanges":[{"opening":"08:00","closing":"20:00"}]},{"weekDay":2,"timeRanges":[{"opening":"08:00","closing":"20:00"},{"opening":"08:00","closing":"20:00"}]},{"weekDay":3,"timeRanges":[{"opening":"08:00","closing":"20:00"}]},{"weekDay":4,"timeRanges":[{"opening":"08:00","closing":"20:00"}]},{"weekDay":5,"timeRanges":[{"opening":"08:00","closing":"20:00"}]},{"weekDay":6,"timeRanges":[{"opening":"08:00","closing":"20:00"}]},{"weekDay":7,"timeRanges":[{"opening":"09:00","closing":"20:00"}]}]},{"storeNumber":"400","address":{"name":"dm drogerie markt s.r.o. - pro","street":"8. kv\u011btna 465\/24","streetAdditional":"Galerie Moritz","zip":"779 00","city":"Olomouc"},"location":{"lat":49.5951,"lon":17.25021},"openingHours":[{"weekDay":1,"timeRanges":[{"opening":"08:00","closing":"20:00"}]},{"weekDay":2,"timeRanges":[{"opening":"08:00","closing":"20:00"},{"opening":"08:00","closing":"20:00"}]},{"weekDay":3,"timeRanges":[{"opening":"08:00","closing":"20:00"}]},{"weekDay":4,"timeRanges":[{"opening":"08:00","closing":"20:00"}]},{"weekDay":5,"timeRanges":[{"opening":"08:00","closing":"20:00"}]},{"weekDay":6,"timeRanges":[{"opening":"08:00","closing":"20:00"}]},{"weekDay":7,"timeRanges":[{"opening":"08:00","closing":"20:00"}]}]},{"storeNumber":"401","address":{"name":"dm drogerie markt s.r.o. - pro","street":"n\u00e1m\u011bst\u00ed Svobody 77\/12","zip":"602 00","city":"Brno"},"location":{"lat":49.19433,"lon":16.60905},"openingHours":[{"weekDay":1,"timeRanges":[{"opening":"07:00","closing":"20:30"}]},{"weekDay":2,"timeRanges":[{"opening":"07:00","closing":"20:30"},{"opening":"07:00","closing":"20:30"}]},{"weekDay":3,"timeRanges":[{"opening":"07:00","closing":"20:30"}]},{"weekDay":4,"timeRanges":[{"opening":"07:00","closing":"20:30"}]},{"weekDay":5,"timeRanges":[{"opening":"07:00","closing":"20:30"}]},{"weekDay":6,"timeRanges":[{"opening":"08:00","closing":"20:00"}]},{"weekDay":7,"timeRanges":[{"opening":"10:00","closing":"19:00"}]}]},{"storeNumber":"402","address":{"name":"dm drogerie markt s.r.o. - pro","street":"N\u00e1dra\u017en\u00ed 2a","streetAdditional":"OC Letmo","zip":"602 00","city":"Brno"},"location":{"lat":49.19175,"lon":16.61264},"openingHours":[{"weekDay":1,"timeRanges":[{"opening":"07:00","closing":"21:00"}]},{"weekDay":2,"timeRanges":[{"opening":"07:00","closing":"21:00"},{"opening":"07:00","closing":"21:00"}]},{"weekDay":3,"timeRanges":[{"opening":"07:00","closing":"21:00"}]},{"weekDay":4,"timeRanges":[{"opening":"07:00","closing":"21:00"}]},{"weekDay":5,"timeRanges":[{"opening":"07:00","closing":"21:00"}]},{"weekDay":6,"timeRanges":[{"opening":"08:00","closing":"20:00"}]},{"weekDay":7,"timeRanges":[{"opening":"08:00","closing":"20:00"}]}]},{"storeNumber":"403","address":{"name":"dm drogerie markt s.r.o. - pro","street":"Ra\u0161\u00ednova t\u0159\u00edda 1669","streetAdditional":"OC Tesco","zip":"500 02","city":"Hradec Kr\u00e1lov\u00e9"},"location":{"lat":50.1887,"lon":15.80337},"openingHours":[{"weekDay":1,"timeRanges":[{"opening":"09:00","closing":"20:00"}]},{"weekDay":2,"timeRanges":[{"opening":"09:00","closing":"20:00"},{"opening":"09:00","closing":"20:00"}]},{"weekDay":3,"timeRanges":[{"opening":"09:00","closing":"20:00"}]},{"weekDay":4,"timeRanges":[{"opening":"09:00","closing":"20:00"}]},{"weekDay":5,"timeRanges":[{"opening":"09:00","closing":"20:00"}]},{"weekDay":6,"timeRanges":[{"opening":"09:00","closing":"20:00"}]},{"weekDay":7,"timeRanges":[{"opening":"09:00","closing":"20:00"}]}]},{"storeNumber":"404","address":{"name":"dm drogerie markt s.r.o. - pro","street":"Velehradsk\u00e1 4076\/101","streetAdditional":"OC Rybalka","zip":"767 01","city":"Krom\u011b\u0159\u00ed\u017e"},"location":{"lat":49.2859162,"lon":17.3895237},"openingHours":[{"weekDay":1,"timeRanges":[{"opening":"08:00","closing":"20:00"}]},{"weekDay":2,"timeRanges":[{"opening":"08:00","closing":"20:00"},{"opening":"08:00","closing":"20:00"}]},{"weekDay":3,"timeRanges":[{"opening":"08:00","closing":"20:00"}]},{"weekDay":4,"timeRanges":[{"opening":"08:00","closing":"20:00"}]},{"weekDay":5,"timeRanges":[{"opening":"08:00","closing":"20:00"}]},{"weekDay":6,"timeRanges":[{"opening":"08:00","closing":"20:00"}]},{"weekDay":7,"timeRanges":[{"opening":"08:00","closing":"20:00"}]}]},{"storeNumber":"406","address":{"name":"dm drogerie markt s.r.o. - pro","street":"Obchodn\u00ed 136","streetAdditional":"Retail Park","zip":"541 01","city":"Trutnov"},"location":{"lat":50.5707207,"lon":15.8929914},"openingHours":[{"weekDay":1,"timeRanges":[{"opening":"09:00","closing":"20:00"}]},{"weekDay":2,"timeRanges":[{"opening":"09:00","closing":"20:00"},{"opening":"09:00","closing":"20:00"}]},{"weekDay":3,"timeRanges":[{"opening":"09:00","closing":"20:00"}]},{"weekDay":4,"timeRanges":[{"opening":"09:00","closing":"20:00"}]},{"weekDay":5,"timeRanges":[{"opening":"09:00","closing":"20:00"}]},{"weekDay":6,"timeRanges":[{"opening":"09:00","closing":"20:00"}]},{"weekDay":7,"timeRanges":[{"opening":"09:00","closing":"20:00"}]}]},{"storeNumber":"407","address":{"name":"dm drogerie markt s.r.o. - pro","street":"Jate\u010dn\u00ed 5203\/2","streetAdditional":"Vendo Park","zip":"466 01","city":"Jablonec nad Nisou"},"location":{"lat":50.71638,"lon":15.15958},"openingHours":[{"weekDay":1,"timeRanges":[{"opening":"09:00","closing":"20:00"}]},{"weekDay":2,"timeRanges":[{"opening":"09:00","closing":"20:00"},{"opening":"09:00","closing":"20:00"}]},{"weekDay":3,"timeRanges":[{"opening":"09:00","closing":"20:00"}]},{"weekDay":4,"timeRanges":[{"opening":"09:00","closing":"20:00"}]},{"weekDay":5,"timeRanges":[{"opening":"09:00","closing":"20:00"}]},{"weekDay":6,"timeRanges":[{"opening":"09:00","closing":"20:00"}]},{"weekDay":7,"timeRanges":[{"opening":"09:00","closing":"20:00"}]}]},{"storeNumber":"408","address":{"name":"dm drogerie markt s.r.o. - pro","street":"Masarykova 3802","streetAdditional":"S1 Center Havl\u00ed\u010dk\u016fv Brod","zip":"580 01","city":"Havl\u00ed\u010dk\u016fv Brod"},"location":{"lat":49.61813,"lon":15.57314},"openingHours":[{"weekDay":1,"timeRanges":[{"opening":"08:00","closing":"20:00"}]},{"weekDay":2,"timeRanges":[{"opening":"08:00","closing":"20:00"},{"opening":"08:00","closing":"20:00"}]},{"weekDay":3,"timeRanges":[{"opening":"08:00","closing":"20:00"}]},{"weekDay":4,"timeRanges":[{"opening":"08:00","closing":"20:00"}]},{"weekDay":5,"timeRanges":[{"opening":"08:00","closing":"20:00"}]},{"weekDay":6,"timeRanges":[{"opening":"08:00","closing":"20:00"}]},{"weekDay":7,"timeRanges":[{"opening":"08:00","closing":"20:00"}]}]},{"storeNumber":"409","address":{"name":"dm drogerie markt s.r.o. - pro","street":"J. K. Tyla 1263","zip":"277 11","city":"Neratovice"},"location":{"lat":50.25706,"lon":14.51387},"openingHours":[{"weekDay":1,"timeRanges":[{"opening":"08:00","closing":"19:00"}]},{"weekDay":2,"timeRanges":[{"opening":"08:00","closing":"19:00"},{"opening":"08:00","closing":"19:00"}]},{"weekDay":3,"timeRanges":[{"opening":"08:00","closing":"19:00"}]},{"weekDay":4,"timeRanges":[{"opening":"08:00","closing":"19:00"}]},{"weekDay":5,"timeRanges":[{"opening":"08:00","closing":"19:00"}]},{"weekDay":6,"timeRanges":[{"opening":"08:00","closing":"13:00"}]}]},{"storeNumber":"410","address":{"name":"dm drogerie markt s.r.o. - pro","street":"Veletr\u017en\u00ed 1623\/24","streetAdditional":"Centrum Stromovka","zip":"170 00","city":"Praha","district":"7 - Hole\u0161ovice"},"location":{"lat":50.1019743,"lon":14.4300059},"openingHours":[{"weekDay":1,"timeRanges":[{"opening":"08:00","closing":"21:00"}]},{"weekDay":2,"timeRanges":[{"opening":"08:00","closing":"21:00"},{"opening":"08:00","closing":"21:00"}]},{"weekDay":3,"timeRanges":[{"opening":"08:00","closing":"21:00"}]},{"weekDay":4,"timeRanges":[{"opening":"08:00","closing":"21:00"}]},{"weekDay":5,"timeRanges":[{"opening":"08:00","closing":"21:00"}]},{"weekDay":6,"timeRanges":[{"opening":"08:00","closing":"21:00"}]},{"weekDay":7,"timeRanges":[{"opening":"08:00","closing":"21:00"}]}]},{"storeNumber":"411","address":{"name":"dm drogerie markt s.r.o. - pro","street":"\u017deletick\u00e1 2277","streetAdditional":"Galerie Na Soutoku","zip":"412 01","city":"Litom\u011b\u0159ice - P\u0159edm\u011bst\u00ed"},"location":{"lat":50.52674,"lon":14.13787},"openingHours":[{"weekDay":1,"timeRanges":[{"opening":"09:00","closing":"20:00"}]},{"weekDay":2,"timeRanges":[{"opening":"09:00","closing":"20:00"},{"opening":"09:00","closing":"20:00"}]},{"weekDay":3,"timeRanges":[{"opening":"09:00","closing":"20:00"}]},{"weekDay":4,"timeRanges":[{"opening":"09:00","closing":"20:00"}]},{"weekDay":5,"timeRanges":[{"opening":"09:00","closing":"20:00"}]},{"weekDay":6,"timeRanges":[{"opening":"09:00","closing":"20:00"}]},{"weekDay":7,"timeRanges":[{"opening":"09:00","closing":"20:00"}]}]},{"storeNumber":"412","address":{"name":"dm drogerie markt s.r.o. - pro","street":"Polsk\u00e1 1201\/1","streetAdditional":"Galerie \u0160antovka","zip":"779 00","city":"Olomouc"},"location":{"lat":49.58718,"lon":17.25763},"openingHours":[{"weekDay":1,"timeRanges":[{"opening":"08:00","closing":"21:00"}]},{"weekDay":2,"timeRanges":[{"opening":"08:00","closing":"21:00"},{"opening":"08:00","closing":"21:00"}]},{"weekDay":3,"timeRanges":[{"opening":"08:00","closing":"21:00"}]},{"weekDay":4,"timeRanges":[{"opening":"08:00","closing":"21:00"}]},{"weekDay":5,"timeRanges":[{"opening":"08:00","closing":"21:00"}]},{"weekDay":6,"timeRanges":[{"opening":"08:00","closing":"21:00"}]},{"weekDay":7,"timeRanges":[{"opening":"08:00","closing":"21:00"}]}]},{"storeNumber":"413","address":{"name":"dm drogerie markt s.r.o. - pro","street":"Svobodova 2248","streetAdditional":"Obchodn\u00ed centrum","zip":"511 01","city":"Turnov"},"location":{"lat":50.57945,"lon":15.15695},"openingHours":[{"weekDay":1,"timeRanges":[{"opening":"08:00","closing":"20:00"}]},{"weekDay":2,"timeRanges":[{"opening":"08:00","closing":"20:00"},{"opening":"08:00","closing":"20:00"}]},{"weekDay":3,"timeRanges":[{"opening":"08:00","closing":"20:00"}]},{"weekDay":4,"timeRanges":[{"opening":"08:00","closing":"20:00"}]},{"weekDay":5,"timeRanges":[{"opening":"08:00","closing":"20:00"}]},{"weekDay":6,"timeRanges":[{"opening":"08:00","closing":"20:00"}]},{"weekDay":7,"timeRanges":[{"opening":"08:00","closing":"20:00"}]}]},{"storeNumber":"415","address":{"name":"dm drogerie markt s.r.o. - pro","street":"Rokycansk\u00e1 t\u0159\u00edda 1424\/128","streetAdditional":"Obchodn\u00ed centrum Plze\u0148","zip":"312 00","city":"Plze\u0148"},"location":{"lat":49.74625,"lon":13.43632},"openingHours":[{"weekDay":1,"timeRanges":[{"opening":"09:00","closing":"20:00"}]},{"weekDay":2,"timeRanges":[{"opening":"09:00","closing":"20:00"},{"opening":"09:00","closing":"20:00"}]},{"weekDay":3,"timeRanges":[{"opening":"09:00","closing":"20:00"}]},{"weekDay":4,"timeRanges":[{"opening":"09:00","closing":"20:00"}]},{"weekDay":5,"timeRanges":[{"opening":"09:00","closing":"20:00"}]},{"weekDay":6,"timeRanges":[{"opening":"09:00","closing":"20:00"}]},{"weekDay":7,"timeRanges":[{"opening":"09:00","closing":"20:00"}]}]},{"storeNumber":"416","address":{"name":"dm drogerie markt s.r.o. - pro","street":"Fajtlova 1090\/1","streetAdditional":"OC \u0160estka","zip":"161 00","city":"Praha","district":"6 Ruzyn\u011b"},"location":{"lat":50.09349,"lon":14.29047},"openingHours":[{"weekDay":1,"timeRanges":[{"opening":"08:00","closing":"21:00"}]},{"weekDay":2,"timeRanges":[{"opening":"08:00","closing":"21:00"},{"opening":"08:00","closing":"21:00"}]},{"weekDay":3,"timeRanges":[{"opening":"08:00","closing":"21:00"}]},{"weekDay":4,"timeRanges":[{"opening":"08:00","closing":"21:00"}]},{"weekDay":5,"timeRanges":[{"opening":"08:00","closing":"21:00"}]},{"weekDay":6,"timeRanges":[{"opening":"09:00","closing":"21:00"}]},{"weekDay":7,"timeRanges":[{"opening":"09:00","closing":"21:00"}]}]},{"storeNumber":"417","address":{"name":"dm drogerie markt s.r.o. - pro","street":"Dukelsk\u00e1 br\u00e1na 25\/7","streetAdditional":"Zlat\u00e1 Br\u00e1na","zip":"796 01","city":"Prost\u011bjov"},"location":{"lat":49.47227,"lon":17.11282},"openingHours":[{"weekDay":1,"timeRanges":[{"opening":"08:00","closing":"20:00"}]},{"weekDay":2,"timeRanges":[{"opening":"08:00","closing":"20:00"},{"opening":"08:00","closing":"20:00"}]},{"weekDay":3,"timeRanges":[{"opening":"08:00","closing":"20:00"}]},{"weekDay":4,"timeRanges":[{"opening":"08:00","closing":"20:00"}]},{"weekDay":5,"timeRanges":[{"opening":"08:00","closing":"20:00"}]},{"weekDay":6,"timeRanges":[{"opening":"08:00","closing":"19:00"}]},{"weekDay":7,"timeRanges":[{"opening":"08:00","closing":"19:00"}]}]},{"storeNumber":"418","address":{"name":"dm drogerie markt s.r.o. - pro","street":"\u0160temberkova 1642","streetAdditional":"A Centrum","zip":"516 01","city":"Rychnov nad Kn\u011b\u017enou"},"location":{"lat":50.15671,"lon":16.27628},"openingHours":[{"weekDay":1,"timeRanges":[{"opening":"08:00","closing":"20:00"}]},{"weekDay":2,"timeRanges":[{"opening":"08:00","closing":"20:00"},{"opening":"08:00","closing":"20:00"}]},{"weekDay":3,"timeRanges":[{"opening":"08:00","closing":"20:00"}]},{"weekDay":4,"timeRanges":[{"opening":"08:00","closing":"20:00"}]},{"weekDay":5,"timeRanges":[{"opening":"08:00","closing":"20:00"}]},{"weekDay":6,"timeRanges":[{"opening":"08:00","closing":"20:00"}]},{"weekDay":7,"timeRanges":[{"opening":"08:00","closing":"20:00"}]}]},{"storeNumber":"419","address":{"name":"dm drogerie markt s.r.o. - pro","street":"Oslavansk\u00e1 1597\/118","streetAdditional":"Shopping Ivan\u010dice","zip":"664 91","city":"Ivan\u010dice"},"location":{"lat":49.10363,"lon":16.36382},"openingHours":[{"weekDay":1,"timeRanges":[{"opening":"08:00","closing":"20:00"}]},{"weekDay":2,"timeRanges":[{"opening":"08:00","closing":"20:00"},{"opening":"08:00","closing":"20:00"}]},{"weekDay":3,"timeRanges":[{"opening":"08:00","closing":"20:00"}]},{"weekDay":4,"timeRanges":[{"opening":"08:00","closing":"20:00"}]},{"weekDay":5,"timeRanges":[{"opening":"08:00","closing":"20:00"}]},{"weekDay":6,"timeRanges":[{"opening":"08:00","closing":"20:00"}]},{"weekDay":7,"timeRanges":[{"opening":"08:00","closing":"20:00"}]}]},{"storeNumber":"420","address":{"name":"dm drogerie markt s.r.o. - pro","street":"Sp\u00e1len\u00e1 2121\/22","streetAdditional":"Quadrio","zip":"110 00","city":"Praha","district":"1 Nov\u00e9 M\u011bsto"},"location":{"lat":50.08151,"lon":14.41992},"openingHours":[{"weekDay":1,"timeRanges":[{"opening":"07:00","closing":"21:00"}]},{"weekDay":2,"timeRanges":[{"opening":"07:00","closing":"21:00"},{"opening":"07:00","closing":"21:00"}]},{"weekDay":3,"timeRanges":[{"opening":"07:00","closing":"21:00"}]},{"weekDay":4,"timeRanges":[{"opening":"07:00","closing":"21:00"}]},{"weekDay":5,"timeRanges":[{"opening":"07:00","closing":"21:00"}]},{"weekDay":6,"timeRanges":[{"opening":"09:00","closing":"21:00"}]},{"weekDay":7,"timeRanges":[{"opening":"09:00","closing":"21:00"}]}]},{"storeNumber":"421","address":{"name":"dm drogerie markt s.r.o. - pro","street":"U Tr\u017ei\u0161t\u011b 2205","zip":"594 01","city":"Velk\u00e9 Mezi\u0159\u00ed\u010d\u00ed"},"location":{"lat":49.34775,"lon":16.02501},"openingHours":[{"weekDay":1,"timeRanges":[{"opening":"08:00","closing":"20:00"}]},{"weekDay":2,"timeRanges":[{"opening":"08:00","closing":"20:00"},{"opening":"08:00","closing":"20:00"}]},{"weekDay":3,"timeRanges":[{"opening":"08:00","closing":"20:00"}]},{"weekDay":4,"timeRanges":[{"opening":"08:00","closing":"20:00"}]},{"weekDay":5,"timeRanges":[{"opening":"08:00","closing":"20:00"}]},{"weekDay":6,"timeRanges":[{"opening":"08:00","closing":"20:00"}]},{"weekDay":7,"timeRanges":[{"opening":"08:00","closing":"20:00"}]}]},{"storeNumber":"422","address":{"name":"dm drogerie markt s.r.o. - pro","street":"Sofijsk\u00e1 2\/3","streetAdditional":"Centrum Pivovar","zip":"405 02","city":"D\u011b\u010d\u00edn"},"location":{"lat":50.77199,"lon":14.1932},"openingHours":[{"weekDay":1,"timeRanges":[{"opening":"09:00","closing":"20:00"}]},{"weekDay":2,"timeRanges":[{"opening":"09:00","closing":"20:00"},{"opening":"09:00","closing":"20:00"}]},{"weekDay":3,"timeRanges":[{"opening":"09:00","closing":"20:00"}]},{"weekDay":4,"timeRanges":[{"opening":"09:00","closing":"20:00"}]},{"weekDay":5,"timeRanges":[{"opening":"09:00","closing":"20:00"}]},{"weekDay":6,"timeRanges":[{"opening":"09:00","closing":"20:00"}]},{"weekDay":7,"timeRanges":[{"opening":"09:00","closing":"20:00"}]}]},{"storeNumber":"423","address":{"name":"dm drogerie markt s.r.o. - pro","street":"Dobronick\u00e1 504","zip":"148 00","city":"Praha","district":"4 Kunratice"},"location":{"lat":50.0112289,"lon":14.4751449},"openingHours":[{"weekDay":1,"timeRanges":[{"opening":"08:00","closing":"20:00"}]},{"weekDay":2,"timeRanges":[{"opening":"08:00","closing":"20:00"},{"opening":"08:00","closing":"20:00"}]},{"weekDay":3,"timeRanges":[{"opening":"08:00","closing":"20:00"}]},{"weekDay":4,"timeRanges":[{"opening":"08:00","closing":"20:00"}]},{"weekDay":5,"timeRanges":[{"opening":"08:00","closing":"20:00"}]},{"weekDay":6,"timeRanges":[{"opening":"08:00","closing":"20:00"}]},{"weekDay":7,"timeRanges":[{"opening":"08:00","closing":"20:00"}]}]},{"storeNumber":"424","address":{"name":"dm drogerie markt s.r.o. - pro","street":"Dru\u017estevn\u00ed 1390\/31","streetAdditional":"Vendo Park","zip":"789 85","city":"Mohelnice"},"location":{"lat":49.77487,"lon":16.93421},"openingHours":[{"weekDay":1,"timeRanges":[{"opening":"08:00","closing":"20:00"}]},{"weekDay":2,"timeRanges":[{"opening":"08:00","closing":"20:00"},{"opening":"08:00","closing":"20:00"}]},{"weekDay":3,"timeRanges":[{"opening":"08:00","closing":"20:00"}]},{"weekDay":4,"timeRanges":[{"opening":"08:00","closing":"20:00"}]},{"weekDay":5,"timeRanges":[{"opening":"08:00","closing":"20:00"}]},{"weekDay":6,"timeRanges":[{"opening":"08:00","closing":"20:00"}]},{"weekDay":7,"timeRanges":[{"opening":"08:00","closing":"20:00"}]}]},{"storeNumber":"425","address":{"name":"dm drogerie markt s.r.o. - pro","street":"n\u00e1m. Svobody 3316","streetAdditional":"Galerie Teplice","zip":"415 01","city":"Teplice"},"location":{"lat":50.63927,"lon":13.82384},"openingHours":[{"weekDay":1,"timeRanges":[{"opening":"08:00","closing":"21:00"}]},{"weekDay":2,"timeRanges":[{"opening":"08:00","closing":"21:00"},{"opening":"08:00","closing":"21:00"}]},{"weekDay":3,"timeRanges":[{"opening":"08:00","closing":"21:00"}]},{"weekDay":4,"timeRanges":[{"opening":"08:00","closing":"21:00"}]},{"weekDay":5,"timeRanges":[{"opening":"08:00","closing":"21:00"}]},{"weekDay":6,"timeRanges":[{"opening":"09:00","closing":"21:00"}]},{"weekDay":7,"timeRanges":[{"opening":"09:00","closing":"21:00"}]}]},{"storeNumber":"426","address":{"name":"dm drogerie markt s.r.o. - pro","street":"\u010cerven\u00e9 Vr\u0161ky 2400","streetAdditional":"Galerie \u010cerven\u00e9 Vr\u0161ky","zip":"256 01","city":"Bene\u0161ov"},"location":{"lat":49.7926888,"lon":14.680055},"openingHours":[{"weekDay":1,"timeRanges":[{"opening":"08:00","closing":"20:00"}]},{"weekDay":2,"timeRanges":[{"opening":"08:00","closing":"20:00"},{"opening":"08:00","closing":"20:00"}]},{"weekDay":3,"timeRanges":[{"opening":"08:00","closing":"20:00"}]},{"weekDay":4,"timeRanges":[{"opening":"08:00","closing":"20:00"}]},{"weekDay":5,"timeRanges":[{"opening":"08:00","closing":"20:00"}]},{"weekDay":6,"timeRanges":[{"opening":"08:00","closing":"20:00"}]},{"weekDay":7,"timeRanges":[{"opening":"08:00","closing":"20:00"}]}]},{"storeNumber":"427","address":{"name":"dm drogerie markt s.r.o. - pro","street":"Na Bahnech 601","zip":"373 61","city":"Hrd\u011bjovice"},"location":{"lat":49.0143175,"lon":14.4950606},"openingHours":[{"weekDay":1,"timeRanges":[{"opening":"08:00","closing":"20:00"}]},{"weekDay":2,"timeRanges":[{"opening":"08:00","closing":"20:00"},{"opening":"08:00","closing":"20:00"}]},{"weekDay":3,"timeRanges":[{"opening":"08:00","closing":"20:00"}]},{"weekDay":4,"timeRanges":[{"opening":"08:00","closing":"20:00"}]},{"weekDay":5,"timeRanges":[{"opening":"08:00","closing":"20:00"}]},{"weekDay":6,"timeRanges":[{"opening":"08:00","closing":"20:00"}]},{"weekDay":7,"timeRanges":[{"opening":"08:00","closing":"20:00"}]}]},{"storeNumber":"428","address":{"name":"dm drogerie markt s.r.o. - pro","street":"Na \u0158adech 2526\/7","zip":"678 01","city":"Blansko"},"location":{"lat":49.36931,"lon":16.64317},"openingHours":[{"weekDay":1,"timeRanges":[{"opening":"08:00","closing":"20:00"}]},{"weekDay":2,"timeRanges":[{"opening":"08:00","closing":"20:00"},{"opening":"08:00","closing":"20:00"}]},{"weekDay":3,"timeRanges":[{"opening":"08:00","closing":"20:00"}]},{"weekDay":4,"timeRanges":[{"opening":"08:00","closing":"20:00"}]},{"weekDay":5,"timeRanges":[{"opening":"08:00","closing":"20:00"}]},{"weekDay":6,"timeRanges":[{"opening":"08:00","closing":"20:00"}]},{"weekDay":7,"timeRanges":[{"opening":"08:00","closing":"20:00"}]}]},{"storeNumber":"429","address":{"name":"dm drogerie markt s.r.o. - pro","street":"Jen\u00edkovsk\u00e1 2001","streetAdditional":"CityMarket","zip":"286 01","city":"\u010c\u00e1slav"},"location":{"lat":49.9019,"lon":15.40349},"openingHours":[{"weekDay":1,"timeRanges":[{"opening":"08:00","closing":"20:00"}]},{"weekDay":2,"timeRanges":[{"opening":"08:00","closing":"20:00"},{"opening":"08:00","closing":"20:00"}]},{"weekDay":3,"timeRanges":[{"opening":"08:00","closing":"20:00"}]},{"weekDay":4,"timeRanges":[{"opening":"08:00","closing":"20:00"}]},{"weekDay":5,"timeRanges":[{"opening":"08:00","closing":"20:00"}]},{"weekDay":6,"timeRanges":[{"opening":"08:00","closing":"20:00"}]},{"weekDay":7,"timeRanges":[{"opening":"08:00","closing":"20:00"}]}]},{"storeNumber":"430","address":{"name":"dm drogerie markt s.r.o. - pro","street":"Okru\u017en\u00ed 1440","streetAdditional":"Fastmall","zip":"735 14","city":"Orlov\u00e1 - Lutyn\u011b"},"location":{"lat":49.8782141,"lon":18.4325544},"openingHours":[{"weekDay":1,"timeRanges":[{"opening":"08:00","closing":"20:00"}]},{"weekDay":2,"timeRanges":[{"opening":"08:00","closing":"20:00"},{"opening":"08:00","closing":"20:00"}]},{"weekDay":3,"timeRanges":[{"opening":"08:00","closing":"20:00"}]},{"weekDay":4,"timeRanges":[{"opening":"08:00","closing":"20:00"}]},{"weekDay":5,"timeRanges":[{"opening":"08:00","closing":"20:00"}]},{"weekDay":6,"timeRanges":[{"opening":"08:00","closing":"20:00"}]},{"weekDay":7,"timeRanges":[{"opening":"08:00","closing":"20:00"}]}]},{"storeNumber":"431","address":{"name":"dm drogerie markt s.r.o. - pro","street":"Lipnick\u00e1 3458\/4D","zip":"751 24","city":"P\u0159erov"},"location":{"lat":49.4634772,"lon":17.4440578},"openingHours":[{"weekDay":1,"timeRanges":[{"opening":"08:00","closing":"20:00"}]},{"weekDay":2,"timeRanges":[{"opening":"08:00","closing":"20:00"},{"opening":"08:00","closing":"20:00"}]},{"weekDay":3,"timeRanges":[{"opening":"08:00","closing":"20:00"}]},{"weekDay":4,"timeRanges":[{"opening":"08:00","closing":"20:00"}]},{"weekDay":5,"timeRanges":[{"opening":"08:00","closing":"20:00"}]},{"weekDay":6,"timeRanges":[{"opening":"08:00","closing":"20:00"}]},{"weekDay":7,"timeRanges":[{"opening":"08:00","closing":"20:00"}]}]},{"storeNumber":"432","address":{"name":"dm drogerie markt s.r.o. - pro","street":"\u0158\u00edpsk\u00e1 1475\/25","streetAdditional":"Retail Park Slatina","zip":"627 00","city":"Brno"},"location":{"lat":49.1823901,"lon":16.6673681},"openingHours":[{"weekDay":1,"timeRanges":[{"opening":"07:00","closing":"21:00"}]},{"weekDay":2,"timeRanges":[{"opening":"07:00","closing":"21:00"},{"opening":"07:00","closing":"21:00"}]},{"weekDay":3,"timeRanges":[{"opening":"07:00","closing":"21:00"}]},{"weekDay":4,"timeRanges":[{"opening":"07:00","closing":"21:00"}]},{"weekDay":5,"timeRanges":[{"opening":"07:00","closing":"21:00"}]},{"weekDay":6,"timeRanges":[{"opening":"08:00","closing":"21:00"}]},{"weekDay":7,"timeRanges":[{"opening":"08:00","closing":"21:00"}]}]},{"storeNumber":"433","address":{"name":"dm drogerie markt s.r.o. - pro","street":"Archeologick\u00e1 2256\/1","streetAdditional":"OC Lu\u017einy","zip":"155 00","city":"Praha"},"location":{"lat":50.04409,"lon":14.33158},"openingHours":[{"weekDay":1,"timeRanges":[{"opening":"08:00","closing":"21:00"}]},{"weekDay":2,"timeRanges":[{"opening":"08:00","closing":"21:00"},{"opening":"08:00","closing":"21:00"}]},{"weekDay":3,"timeRanges":[{"opening":"08:00","closing":"21:00"}]},{"weekDay":4,"timeRanges":[{"opening":"08:00","closing":"21:00"}]},{"weekDay":5,"timeRanges":[{"opening":"08:00","closing":"21:00"}]},{"weekDay":6,"timeRanges":[{"opening":"08:00","closing":"21:00"}]},{"weekDay":7,"timeRanges":[{"opening":"08:00","closing":"21:00"}]}]},{"storeNumber":"434","address":{"name":"dm drogerie markt s.r.o. - pro","street":"Petra Bezru\u010de 3388","streetAdditional":"Central Kladno","zip":"272 01","city":"Kladno"},"location":{"lat":50.1424885,"lon":14.1026857},"openingHours":[{"weekDay":1,"timeRanges":[{"opening":"08:00","closing":"20:00"}]},{"weekDay":2,"timeRanges":[{"opening":"08:00","closing":"20:00"},{"opening":"08:00","closing":"20:00"}]},{"weekDay":3,"timeRanges":[{"opening":"08:00","closing":"20:00"}]},{"weekDay":4,"timeRanges":[{"opening":"08:00","closing":"20:00"}]},{"weekDay":5,"timeRanges":[{"opening":"08:00","closing":"20:00"}]},{"weekDay":6,"timeRanges":[{"opening":"09:00","closing":"20:00"}]},{"weekDay":7,"timeRanges":[{"opening":"09:00","closing":"20:00"}]}]},{"storeNumber":"435","address":{"name":"dm drogerie markt s.r.o. - pro","street":"Sj\u00edzdn\u00e1 5554\/2","streetAdditional":"OC Galerie","zip":"722 00","city":"Ostrava - T\u0159ebovice"},"location":{"lat":49.8279747,"lon":18.2002602},"openingHours":[{"weekDay":1,"timeRanges":[{"opening":"08:00","closing":"20:00"}]},{"weekDay":2,"timeRanges":[{"opening":"08:00","closing":"20:00"},{"opening":"08:00","closing":"20:00"}]},{"weekDay":3,"timeRanges":[{"opening":"08:00","closing":"20:00"}]},{"weekDay":4,"timeRanges":[{"opening":"08:00","closing":"20:00"}]},{"weekDay":5,"timeRanges":[{"opening":"08:00","closing":"20:00"}]},{"weekDay":6,"timeRanges":[{"opening":"08:00","closing":"20:00"}]},{"weekDay":7,"timeRanges":[{"opening":"08:00","closing":"20:00"}]}]},{"storeNumber":"436","address":{"name":"dm drogerie markt s.r.o. - pro","street":"L\u00e1novsk\u00e1 1657","streetAdditional":"A Centrum","zip":"543 01","city":"Vrchlab\u00ed"},"location":{"lat":50.620685,"lon":15.6234442},"openingHours":[{"weekDay":1,"timeRanges":[{"opening":"08:00","closing":"20:00"}]},{"weekDay":2,"timeRanges":[{"opening":"08:00","closing":"20:00"},{"opening":"08:00","closing":"20:00"}]},{"weekDay":3,"timeRanges":[{"opening":"08:00","closing":"20:00"}]},{"weekDay":4,"timeRanges":[{"opening":"08:00","closing":"20:00"}]},{"weekDay":5,"timeRanges":[{"opening":"08:00","closing":"20:00"}]},{"weekDay":6,"timeRanges":[{"opening":"08:00","closing":"20:00"}]},{"weekDay":7,"timeRanges":[{"opening":"08:00","closing":"20:00"}]}]},{"storeNumber":"437","address":{"name":"dm drogerie markt s.r.o. - pro","street":"Josefa R\u016f\u017ei\u010dky 1312","zip":"337 01","city":"Rokycany - Nov\u00e9 M\u011bsto"},"location":{"lat":49.7387486,"lon":13.6013563},"openingHours":[{"weekDay":1,"timeRanges":[{"opening":"08:00","closing":"20:00"}]},{"weekDay":2,"timeRanges":[{"opening":"08:00","closing":"20:00"},{"opening":"08:00","closing":"20:00"}]},{"weekDay":3,"timeRanges":[{"opening":"08:00","closing":"20:00"}]},{"weekDay":4,"timeRanges":[{"opening":"08:00","closing":"20:00"}]},{"weekDay":5,"timeRanges":[{"opening":"08:00","closing":"20:00"}]},{"weekDay":6,"timeRanges":[{"opening":"08:00","closing":"20:00"}]},{"weekDay":7,"timeRanges":[{"opening":"08:00","closing":"20:00"}]}]},{"storeNumber":"438","address":{"name":"dm drogerie markt s.r.o. - pro","street":"Bezru\u010dova 1400\/6b","streetAdditional":"CityMarket","zip":"790 01","city":"Jesen\u00edk"},"location":{"lat":50.237096,"lon":17.2056689},"openingHours":[{"weekDay":1,"timeRanges":[{"opening":"08:00","closing":"20:00"}]},{"weekDay":2,"timeRanges":[{"opening":"08:00","closing":"20:00"},{"opening":"08:00","closing":"20:00"}]},{"weekDay":3,"timeRanges":[{"opening":"08:00","closing":"20:00"}]},{"weekDay":4,"timeRanges":[{"opening":"08:00","closing":"20:00"}]},{"weekDay":5,"timeRanges":[{"opening":"08:00","closing":"20:00"}]},{"weekDay":6,"timeRanges":[{"opening":"08:00","closing":"20:00"}]},{"weekDay":7,"timeRanges":[{"opening":"08:00","closing":"20:00"}]}]},{"storeNumber":"439","address":{"name":"dm drogerie markt s.r.o. - pro","street":"Okru\u017en\u00ed 1943","streetAdditional":"Vendo Park","zip":"258 01","city":"Vla\u0161im"},"location":{"lat":49.7002162,"lon":14.9057082},"openingHours":[{"weekDay":1,"timeRanges":[{"opening":"08:00","closing":"20:00"}]},{"weekDay":2,"timeRanges":[{"opening":"08:00","closing":"20:00"},{"opening":"08:00","closing":"20:00"}]},{"weekDay":3,"timeRanges":[{"opening":"08:00","closing":"20:00"}]},{"weekDay":4,"timeRanges":[{"opening":"08:00","closing":"20:00"}]},{"weekDay":5,"timeRanges":[{"opening":"08:00","closing":"20:00"}]},{"weekDay":6,"timeRanges":[{"opening":"08:00","closing":"20:00"}]},{"weekDay":7,"timeRanges":[{"opening":"08:00","closing":"20:00"}]}]},{"storeNumber":"440","address":{"name":"dm drogerie markt s.r.o. - pro","street":"Go\u010d\u00e1rova t\u0159\u00edda 1754\/48 a","streetAdditional":"Aupark Shopping Center","zip":"500 02","city":"Hradec Kr\u00e1lov\u00e9"},"location":{"lat":50.212494,"lon":15.8117076},"openingHours":[{"weekDay":1,"timeRanges":[{"opening":"08:00","closing":"21:00"}]},{"weekDay":2,"timeRanges":[{"opening":"08:00","closing":"21:00"},{"opening":"08:00","closing":"21:00"}]},{"weekDay":3,"timeRanges":[{"opening":"08:00","closing":"21:00"}]},{"weekDay":4,"timeRanges":[{"opening":"08:00","closing":"21:00"}]},{"weekDay":5,"timeRanges":[{"opening":"08:00","closing":"21:00"}]},{"weekDay":6,"timeRanges":[{"opening":"08:00","closing":"21:00"}]},{"weekDay":7,"timeRanges":[{"opening":"08:00","closing":"21:00"}]}]},{"storeNumber":"441","address":{"name":"dm drogerie markt s.r.o. - pro","street":"t\u0159. Pr\u00e1ce 2024\/1a","zip":"792 01","city":"Brunt\u00e1l"},"location":{"lat":49.9807384,"lon":17.4641924},"openingHours":[{"weekDay":1,"timeRanges":[{"opening":"08:00","closing":"20:00"}]},{"weekDay":2,"timeRanges":[{"opening":"08:00","closing":"20:00"},{"opening":"08:00","closing":"20:00"}]},{"weekDay":3,"timeRanges":[{"opening":"08:00","closing":"20:00"}]},{"weekDay":4,"timeRanges":[{"opening":"08:00","closing":"20:00"}]},{"weekDay":5,"timeRanges":[{"opening":"08:00","closing":"20:00"}]},{"weekDay":6,"timeRanges":[{"opening":"08:00","closing":"20:00"}]},{"weekDay":7,"timeRanges":[{"opening":"08:00","closing":"20:00"}]}]},{"storeNumber":"442","address":{"name":"dm drogerie markt s.r.o. - pro","street":"Komensk\u00e9ho 18","streetAdditional":"Central Jablonec","zip":"466 01","city":"Jablonec nad Nisou"},"location":{"lat":50.7245068,"lon":15.1679711},"openingHours":[{"weekDay":1,"timeRanges":[{"opening":"08:00","closing":"20:00"}]},{"weekDay":2,"timeRanges":[{"opening":"08:00","closing":"20:00"},{"opening":"08:00","closing":"20:00"}]},{"weekDay":3,"timeRanges":[{"opening":"08:00","closing":"20:00"}]},{"weekDay":4,"timeRanges":[{"opening":"08:00","closing":"20:00"}]},{"weekDay":5,"timeRanges":[{"opening":"08:00","closing":"20:00"}]},{"weekDay":6,"timeRanges":[{"opening":"09:00","closing":"20:00"}]},{"weekDay":7,"timeRanges":[{"opening":"09:00","closing":"20:00"}]}]},{"storeNumber":"443","address":{"name":"dm drogerie markt s.r.o. - pro","street":"Hornom\u011bcholupsk\u00e1 764","zip":"109 00","city":"Praha","district":"10 Horn\u00ed M\u011bcholupy"},"location":{"lat":50.0432406,"lon":14.5683709},"openingHours":[{"weekDay":1,"timeRanges":[{"opening":"08:00","closing":"20:00"}]},{"weekDay":2,"timeRanges":[{"opening":"08:00","closing":"20:00"},{"opening":"08:00","closing":"20:00"}]},{"weekDay":3,"timeRanges":[{"opening":"08:00","closing":"20:00"}]},{"weekDay":4,"timeRanges":[{"opening":"08:00","closing":"20:00"}]},{"weekDay":5,"timeRanges":[{"opening":"08:00","closing":"20:00"}]},{"weekDay":6,"timeRanges":[{"opening":"09:00","closing":"20:00"}]},{"weekDay":7,"timeRanges":[{"opening":"09:00","closing":"20:00"}]}]},{"storeNumber":"444","address":{"name":"dm drogerie markt s.r.o. - pro","street":"U cukrovaru 935\/13","zip":"190 17","city":"Praha","district":"9 Vino\u0159"},"location":{"lat":50.1526311,"lon":14.5902961},"openingHours":[{"weekDay":1,"timeRanges":[{"opening":"08:00","closing":"20:00"}]},{"weekDay":2,"timeRanges":[{"opening":"08:00","closing":"20:00"},{"opening":"08:00","closing":"20:00"}]},{"weekDay":3,"timeRanges":[{"opening":"08:00","closing":"20:00"}]},{"weekDay":4,"timeRanges":[{"opening":"08:00","closing":"20:00"}]},{"weekDay":5,"timeRanges":[{"opening":"08:00","closing":"20:00"}]},{"weekDay":6,"timeRanges":[{"opening":"08:00","closing":"20:00"}]},{"weekDay":7,"timeRanges":[{"opening":"09:00","closing":"20:00"}]}]},{"storeNumber":"445","address":{"name":"dm drogerie markt s.r.o. - pro","street":"Hlu\u010d\u00ednsk\u00e1 1175","streetAdditional":"Outlet Arena Moravia","zip":"702 00","city":"Ostrava P\u0159\u00edvoz"},"location":{"lat":49.8610673,"lon":18.2574151},"openingHours":[{"weekDay":1,"timeRanges":[{"opening":"09:30","closing":"20:00"}]},{"weekDay":2,"timeRanges":[{"opening":"09:30","closing":"20:00"},{"opening":"09:30","closing":"20:00"}]},{"weekDay":3,"timeRanges":[{"opening":"09:30","closing":"20:00"}]},{"weekDay":4,"timeRanges":[{"opening":"09:30","closing":"20:00"}]},{"weekDay":5,"timeRanges":[{"opening":"09:30","closing":"20:00"}]},{"weekDay":6,"timeRanges":[{"opening":"09:30","closing":"20:00"}]},{"weekDay":7,"timeRanges":[{"opening":"09:30","closing":"20:00"}]}]},{"storeNumber":"446","address":{"name":"dm drogerie markt s.r.o. - pro","street":"\u010cechova 26","streetAdditional":"Galerie P\u0159erov","zip":"750 02","city":"P\u0159erov"},"location":{"lat":49.4503673,"lon":17.4554437},"openingHours":[{"weekDay":1,"timeRanges":[{"opening":"07:30","closing":"20:00"}]},{"weekDay":2,"timeRanges":[{"opening":"07:30","closing":"20:00"},{"opening":"07:30","closing":"20:00"}]},{"weekDay":3,"timeRanges":[{"opening":"07:30","closing":"20:00"}]},{"weekDay":4,"timeRanges":[{"opening":"07:30","closing":"20:00"}]},{"weekDay":5,"timeRanges":[{"opening":"07:30","closing":"20:00"}]},{"weekDay":6,"timeRanges":[{"opening":"08:00","closing":"20:00"}]},{"weekDay":7,"timeRanges":[{"opening":"08:00","closing":"20:00"}]}]},{"storeNumber":"447","address":{"name":"dm drogerie markt s.r.o. - pro","street":"Hradi\u0161\u0165sk\u00e1 2690","streetAdditional":"Galerie P\u00edsek","zip":"397 01","city":"P\u00edsek"},"location":{"lat":49.3032517,"lon":14.1400293},"openingHours":[{"weekDay":1,"timeRanges":[{"opening":"08:00","closing":"20:00"}]},{"weekDay":2,"timeRanges":[{"opening":"08:00","closing":"20:00"},{"opening":"08:00","closing":"20:00"}]},{"weekDay":3,"timeRanges":[{"opening":"08:00","closing":"20:00"}]},{"weekDay":4,"timeRanges":[{"opening":"08:00","closing":"20:00"}]},{"weekDay":5,"timeRanges":[{"opening":"08:00","closing":"20:00"}]},{"weekDay":6,"timeRanges":[{"opening":"08:00","closing":"20:00"}]},{"weekDay":7,"timeRanges":[{"opening":"08:00","closing":"20:00"}]}]},{"storeNumber":"448","address":{"name":"dm drogerie markt s.r.o. - pro","street":"V\u00edde\u0148sk\u00e1 679","streetAdditional":"Retail Park","zip":"252 50","city":"Vestec"},"location":{"lat":49.984364,"lon":14.4955858},"openingHours":[{"weekDay":1,"timeRanges":[{"opening":"08:00","closing":"20:00"}]},{"weekDay":2,"timeRanges":[{"opening":"08:00","closing":"20:00"},{"opening":"08:00","closing":"20:00"}]},{"weekDay":3,"timeRanges":[{"opening":"08:00","closing":"20:00"}]},{"weekDay":4,"timeRanges":[{"opening":"08:00","closing":"20:00"}]},{"weekDay":5,"timeRanges":[{"opening":"08:00","closing":"20:00"}]},{"weekDay":6,"timeRanges":[{"opening":"08:00","closing":"20:00"}]},{"weekDay":7,"timeRanges":[{"opening":"08:00","closing":"20:00"}]}]},{"storeNumber":"449","address":{"name":"dm drogerie markt s.r.o. - pro","street":"Pr\u016fmyslov\u00e1 643","streetAdditional":"T\u00fdn nad Vltavou*","zip":"375 01","city":"T\u00fdn nad Vltavou"},"location":{"lat":49.2158664,"lon":14.4201444},"openingHours":[{"weekDay":1,"timeRanges":[{"opening":"08:00","closing":"20:00"}]},{"weekDay":2,"timeRanges":[{"opening":"08:00","closing":"20:00"},{"opening":"08:00","closing":"20:00"}]},{"weekDay":3,"timeRanges":[{"opening":"08:00","closing":"20:00"}]},{"weekDay":4,"timeRanges":[{"opening":"08:00","closing":"20:00"}]},{"weekDay":5,"timeRanges":[{"opening":"08:00","closing":"20:00"}]},{"weekDay":6,"timeRanges":[{"opening":"08:00","closing":"20:00"}]},{"weekDay":7,"timeRanges":[{"opening":"08:00","closing":"20:00"}]}]},{"storeNumber":"450","address":{"name":"dm drogerie markt s.r.o. - pro","street":"\u010ceskomoravsk\u00e1 2420\/15a","streetAdditional":"Galerie Harfa","zip":"190 00","city":"Praha","district":"9 Libe\u0148"},"location":{"lat":50.1038356,"lon":14.4900693},"openingHours":[{"weekDay":1,"timeRanges":[{"opening":"09:00","closing":"21:00"}]},{"weekDay":2,"timeRanges":[{"opening":"09:00","closing":"21:00"},{"opening":"09:00","closing":"21:00"}]},{"weekDay":3,"timeRanges":[{"opening":"09:00","closing":"21:00"}]},{"weekDay":4,"timeRanges":[{"opening":"09:00","closing":"21:00"}]},{"weekDay":5,"timeRanges":[{"opening":"09:00","closing":"21:00"}]},{"weekDay":6,"timeRanges":[{"opening":"09:00","closing":"21:00"}]},{"weekDay":7,"timeRanges":[{"opening":"09:00","closing":"21:00"}]}]},{"storeNumber":"451","address":{"name":"dm drogerie markt s.r.o. - pro","street":"n\u00e1m\u011bst\u00ed Pr\u00e1ce 2523","streetAdditional":"OD Zl\u00edn","zip":"760 01","city":"Zl\u00edn"},"location":{"lat":49.2221611,"lon":17.6620277},"openingHours":[{"weekDay":1,"timeRanges":[{"opening":"07:00","closing":"20:00"}]},{"weekDay":2,"timeRanges":[{"opening":"07:00","closing":"20:00"},{"opening":"07:00","closing":"20:00"}]},{"weekDay":3,"timeRanges":[{"opening":"07:00","closing":"20:00"}]},{"weekDay":4,"timeRanges":[{"opening":"07:00","closing":"20:00"}]},{"weekDay":5,"timeRanges":[{"opening":"07:00","closing":"20:00"}]},{"weekDay":6,"timeRanges":[{"opening":"08:00","closing":"20:00"}]},{"weekDay":7,"timeRanges":[{"opening":"08:00","closing":"20:00"}]}]},{"storeNumber":"452","address":{"name":"dm drogerie markt s.r.o. - pro","street":"Katovick\u00e1 1402","streetAdditional":"N\u00e1kupn\u00ed park","zip":"386 01","city":"Strakonice"},"location":{"lat":49.2626489,"lon":13.8935544},"openingHours":[{"weekDay":1,"timeRanges":[{"opening":"08:00","closing":"20:00"}]},{"weekDay":2,"timeRanges":[{"opening":"08:00","closing":"20:00"},{"opening":"08:00","closing":"20:00"}]},{"weekDay":3,"timeRanges":[{"opening":"08:00","closing":"20:00"}]},{"weekDay":4,"timeRanges":[{"opening":"08:00","closing":"20:00"}]},{"weekDay":5,"timeRanges":[{"opening":"08:00","closing":"20:00"}]},{"weekDay":6,"timeRanges":[{"opening":"08:00","closing":"20:00"}]},{"weekDay":7,"timeRanges":[{"opening":"08:00","closing":"20:00"}]}]},{"storeNumber":"453","address":{"name":"dm drogerie markt s.r.o. - pro","street":"n\u00e1m\u011bst\u00ed 28. dubna 1069\/2","zip":"635 00","city":"Brno","district":"Brno-Bystrc (OC Javor)"},"location":{"lat":49.2256531,"lon":16.5306461},"openingHours":[{"weekDay":1,"timeRanges":[{"opening":"07:00","closing":"20:00"}]},{"weekDay":2,"timeRanges":[{"opening":"07:00","closing":"20:00"},{"opening":"07:00","closing":"20:00"}]},{"weekDay":3,"timeRanges":[{"opening":"07:00","closing":"20:00"}]},{"weekDay":4,"timeRanges":[{"opening":"07:00","closing":"20:00"}]},{"weekDay":5,"timeRanges":[{"opening":"07:00","closing":"20:00"}]},{"weekDay":6,"timeRanges":[{"opening":"08:00","closing":"20:00"}]},{"weekDay":7,"timeRanges":[{"opening":"08:00","closing":"20:00"}]}]},{"storeNumber":"454","address":{"name":"dm drogerie markt s.r.o. - pro","street":"Hradeck\u00e1 408\/40","streetAdditional":"OC Brno - Ivanovice","zip":"621 00","city":"Brno-Ivanovice"},"location":{"lat":49.2611019,"lon":16.5792267},"openingHours":[{"weekDay":1,"timeRanges":[{"opening":"08:00","closing":"21:00"}]},{"weekDay":2,"timeRanges":[{"opening":"08:00","closing":"21:00"},{"opening":"08:00","closing":"21:00"}]},{"weekDay":3,"timeRanges":[{"opening":"08:00","closing":"21:00"}]},{"weekDay":4,"timeRanges":[{"opening":"08:00","closing":"21:00"}]},{"weekDay":5,"timeRanges":[{"opening":"08:00","closing":"21:00"}]},{"weekDay":6,"timeRanges":[{"opening":"08:00","closing":"21:00"}]},{"weekDay":7,"timeRanges":[{"opening":"08:00","closing":"21:00"}]}]},{"storeNumber":"455","address":{"name":"dm drogerie markt s.r.o. - pro","street":"Brn\u011bnsk\u00e1 522\/9a","streetAdditional":"OC Vincenzy","zip":"682 01","city":"Vy\u0161kov - M\u011bsto"},"location":{"lat":49.2749192,"lon":16.9939231},"openingHours":[{"weekDay":1,"timeRanges":[{"opening":"08:00","closing":"20:00"}]},{"weekDay":2,"timeRanges":[{"opening":"08:00","closing":"20:00"},{"opening":"08:00","closing":"20:00"}]},{"weekDay":3,"timeRanges":[{"opening":"08:00","closing":"20:00"}]},{"weekDay":4,"timeRanges":[{"opening":"08:00","closing":"20:00"}]},{"weekDay":5,"timeRanges":[{"opening":"08:00","closing":"20:00"}]},{"weekDay":6,"timeRanges":[{"opening":"08:00","closing":"20:00"}]},{"weekDay":7,"timeRanges":[{"opening":"08:00","closing":"20:00"}]}]},{"storeNumber":"456","address":{"name":"dm drogerie markt s.r.o. - pro","street":"N\u00e1dra\u017en\u00ed 929","streetAdditional":"OC K\u0159i\u017eanova Pila","zip":"757 01","city":"Vala\u0161sk\u00e9 Mezi\u0159\u00ed\u010d\u00ed"},"location":{"lat":49.4749409,"lon":17.9634072},"openingHours":[{"weekDay":1,"timeRanges":[{"opening":"08:00","closing":"20:00"}]},{"weekDay":2,"timeRanges":[{"opening":"08:00","closing":"20:00"},{"opening":"08:00","closing":"20:00"}]},{"weekDay":3,"timeRanges":[{"opening":"08:00","closing":"20:00"}]},{"weekDay":4,"timeRanges":[{"opening":"08:00","closing":"20:00"}]},{"weekDay":5,"timeRanges":[{"opening":"08:00","closing":"20:00"}]},{"weekDay":6,"timeRanges":[{"opening":"08:00","closing":"20:00"}]},{"weekDay":7,"timeRanges":[{"opening":"08:00","closing":"20:00"}]}]},{"storeNumber":"457","address":{"name":"dm drogerie markt s.r.o. - pro","street":"K.H.Borovsk\u00e9ho 2284","zip":"356 01","city":"Sokolov"},"location":{"lat":50.176324,"lon":12.677257},"openingHours":[{"weekDay":1,"timeRanges":[{"opening":"08:00","closing":"20:00"}]},{"weekDay":2,"timeRanges":[{"opening":"08:00","closing":"20:00"},{"opening":"08:00","closing":"20:00"}]},{"weekDay":3,"timeRanges":[{"opening":"08:00","closing":"20:00"}]},{"weekDay":4,"timeRanges":[{"opening":"08:00","closing":"20:00"}]},{"weekDay":5,"timeRanges":[{"opening":"08:00","closing":"20:00"}]},{"weekDay":6,"timeRanges":[{"opening":"08:00","closing":"20:00"}]},{"weekDay":7,"timeRanges":[{"opening":"08:00","closing":"20:00"}]}]},{"storeNumber":"458","address":{"name":"dm drogerie markt s.r.o. - pro","street":"Palack\u00e9ho 1860","streetAdditional":"OC Irisovka","zip":"769 01","city":"Hole\u0161ov"},"location":{"lat":49.3286279,"lon":17.5682253},"openingHours":[{"weekDay":1,"timeRanges":[{"opening":"07:30","closing":"20:00"}]},{"weekDay":2,"timeRanges":[{"opening":"07:30","closing":"20:00"},{"opening":"07:30","closing":"20:00"}]},{"weekDay":3,"timeRanges":[{"opening":"07:30","closing":"20:00"}]},{"weekDay":4,"timeRanges":[{"opening":"07:30","closing":"20:00"}]},{"weekDay":5,"timeRanges":[{"opening":"07:30","closing":"20:00"}]},{"weekDay":6,"timeRanges":[{"opening":"08:00","closing":"20:00"}]},{"weekDay":7,"timeRanges":[{"opening":"08:00","closing":"20:00"}]}]},{"storeNumber":"460","address":{"name":"dm drogerie markt s.r.o. - pro","street":"Chebsk\u00e1 370","streetAdditional":"OC Font\u00e1na","zip":"360 06","city":"Karlovy Vary"},"location":{"lat":50.2241698,"lon":12.8224211},"openingHours":[{"weekDay":1,"timeRanges":[{"opening":"09:00","closing":"20:00"}]},{"weekDay":2,"timeRanges":[{"opening":"09:00","closing":"20:00"},{"opening":"09:00","closing":"20:00"}]},{"weekDay":3,"timeRanges":[{"opening":"09:00","closing":"20:00"}]},{"weekDay":4,"timeRanges":[{"opening":"09:00","closing":"20:00"}]},{"weekDay":5,"timeRanges":[{"opening":"09:00","closing":"20:00"}]},{"weekDay":6,"timeRanges":[{"opening":"09:00","closing":"20:00"}]},{"weekDay":7,"timeRanges":[{"opening":"09:00","closing":"20:00"}]}]},{"storeNumber":"461","address":{"name":"dm drogerie markt s.r.o. - pro","street":"Dob\u0161ick\u00e1 3929\/4","zip":"669 02","city":"Znojmo"},"location":{"lat":48.8543138,"lon":16.0687613},"openingHours":[{"weekDay":1,"timeRanges":[{"opening":"08:00","closing":"20:00"}]},{"weekDay":2,"timeRanges":[{"opening":"08:00","closing":"20:00"},{"opening":"08:00","closing":"20:00"}]},{"weekDay":3,"timeRanges":[{"opening":"08:00","closing":"20:00"}]},{"weekDay":4,"timeRanges":[{"opening":"08:00","closing":"20:00"}]},{"weekDay":5,"timeRanges":[{"opening":"08:00","closing":"20:00"}]},{"weekDay":6,"timeRanges":[{"opening":"08:00","closing":"20:00"}]},{"weekDay":7,"timeRanges":[{"opening":"08:00","closing":"20:00"}]}]},{"storeNumber":"462","address":{"name":"dm drogerie markt s.r.o. - pro","street":"\u0160umavsk\u00e1 519","zip":"602 00","city":"Brno"},"location":{"lat":49.2096619,"lon":16.5917286},"openingHours":[{"weekDay":1,"timeRanges":[{"opening":"07:00","closing":"21:00"}]},{"weekDay":2,"timeRanges":[{"opening":"07:00","closing":"21:00"},{"opening":"07:00","closing":"21:00"}]},{"weekDay":3,"timeRanges":[{"opening":"07:00","closing":"21:00"}]},{"weekDay":4,"timeRanges":[{"opening":"07:00","closing":"21:00"}]},{"weekDay":5,"timeRanges":[{"opening":"07:00","closing":"21:00"}]},{"weekDay":6,"timeRanges":[{"opening":"08:00","closing":"21:00"}]},{"weekDay":7,"timeRanges":[{"opening":"08:00","closing":"21:00"}]}]},{"storeNumber":"463","address":{"name":"dm drogerie markt s.r.o. - pro","street":"Ji\u010d\u00ednsk\u00e1 (OC Olympia) 1350","streetAdditional":"Olympia Mlad\u00e1 Boleslav","zip":"293 01","city":"Mlad\u00e1 Boleslav"},"location":{"lat":50.4079404,"lon":14.9389993},"openingHours":[{"weekDay":1,"timeRanges":[{"opening":"08:00","closing":"20:00"}]},{"weekDay":2,"timeRanges":[{"opening":"08:00","closing":"20:00"},{"opening":"08:00","closing":"20:00"}]},{"weekDay":3,"timeRanges":[{"opening":"08:00","closing":"20:00"}]},{"weekDay":4,"timeRanges":[{"opening":"08:00","closing":"20:00"}]},{"weekDay":5,"timeRanges":[{"opening":"08:00","closing":"20:00"}]},{"weekDay":6,"timeRanges":[{"opening":"08:00","closing":"20:00"}]},{"weekDay":7,"timeRanges":[{"opening":"08:00","closing":"20:00"}]}]},{"storeNumber":"464","address":{"name":"dm drogerie markt s.r.o. - pro","street":"Spojovac\u00ed 1351","zip":"674 01","city":"T\u0159eb\u00ed\u010d - St\u0159\u00edte\u017e"},"location":{"lat":49.2004249,"lon":15.8893853},"openingHours":[{"weekDay":1,"timeRanges":[{"opening":"08:00","closing":"20:00"}]},{"weekDay":2,"timeRanges":[{"opening":"08:00","closing":"20:00"},{"opening":"08:00","closing":"20:00"}]},{"weekDay":3,"timeRanges":[{"opening":"08:00","closing":"20:00"}]},{"weekDay":4,"timeRanges":[{"opening":"08:00","closing":"20:00"}]},{"weekDay":5,"timeRanges":[{"opening":"08:00","closing":"20:00"}]},{"weekDay":6,"timeRanges":[{"opening":"08:00","closing":"20:00"}]},{"weekDay":7,"timeRanges":[{"opening":"08:00","closing":"20:00"}]}]},{"storeNumber":"466","address":{"name":"dm drogerie markt s.r.o. - pro","street":"Lidick\u00e1 3362","streetAdditional":"NC B\u0159eclav","zip":"690 03","city":"B\u0159eclav"},"location":{"lat":48.7815728,"lon":16.9038031},"openingHours":[{"weekDay":1,"timeRanges":[{"opening":"08:00","closing":"20:00"}]},{"weekDay":2,"timeRanges":[{"opening":"08:00","closing":"20:00"},{"opening":"08:00","closing":"20:00"}]},{"weekDay":3,"timeRanges":[{"opening":"08:00","closing":"20:00"}]},{"weekDay":4,"timeRanges":[{"opening":"08:00","closing":"20:00"}]},{"weekDay":5,"timeRanges":[{"opening":"08:00","closing":"20:00"}]},{"weekDay":6,"timeRanges":[{"opening":"08:00","closing":"20:00"}]},{"weekDay":7,"timeRanges":[{"opening":"08:00","closing":"20:00"}]}]},{"storeNumber":"467","address":{"name":"dm drogerie markt s.r.o. - pro","street":"Chlumeck\u00e1 (C\u010cM) 765\/6","streetAdditional":"Centrum \u010cern\u00fd Most","zip":"198 19","city":"Praha","district":"14"},"location":{"lat":50.1073846,"lon":14.584577},"openingHours":[{"weekDay":1,"timeRanges":[{"opening":"08:00","closing":"21:00"}]},{"weekDay":2,"timeRanges":[{"opening":"08:00","closing":"21:00"},{"opening":"08:00","closing":"21:00"}]},{"weekDay":3,"timeRanges":[{"opening":"08:00","closing":"21:00"}]},{"weekDay":4,"timeRanges":[{"opening":"08:00","closing":"21:00"}]},{"weekDay":5,"timeRanges":[{"opening":"08:00","closing":"21:00"}]},{"weekDay":6,"timeRanges":[{"opening":"09:00","closing":"21:00"}]},{"weekDay":7,"timeRanges":[{"opening":"09:00","closing":"21:00"}]}]},{"storeNumber":"468","address":{"name":"dm drogerie markt s.r.o. - pro","street":"Veselsk\u00e1 663","streetAdditional":"OC Let\u0148any","zip":"190 00","city":"Praha","district":"9 Let\u0148any"},"location":{"lat":50.1367713,"lon":14.5025113},"openingHours":[{"weekDay":1,"timeRanges":[{"opening":"09:00","closing":"21:00"}]},{"weekDay":2,"timeRanges":[{"opening":"09:00","closing":"21:00"},{"opening":"09:00","closing":"21:00"}]},{"weekDay":3,"timeRanges":[{"opening":"09:00","closing":"21:00"}]},{"weekDay":4,"timeRanges":[{"opening":"09:00","closing":"21:00"}]},{"weekDay":5,"timeRanges":[{"opening":"09:00","closing":"21:00"}]},{"weekDay":6,"timeRanges":[{"opening":"09:00","closing":"21:00"}]},{"weekDay":7,"timeRanges":[{"opening":"09:00","closing":"21:00"}]}]},{"storeNumber":"469","address":{"name":"dm drogerie markt s.r.o. \u2013 pro","street":"Opatovsk\u00e1 1753\/12","streetAdditional":"OC Opatovsk\u00e1","zip":"149 00","city":"Praha","district":"Chodov"},"location":{"lat":50.0252515,"lon":14.5177953},"openingHours":[{"weekDay":1,"timeRanges":[{"opening":"08:00","closing":"20:00"}]},{"weekDay":2,"timeRanges":[{"opening":"08:00","closing":"20:00"},{"opening":"08:00","closing":"20:00"}]},{"weekDay":3,"timeRanges":[{"opening":"08:00","closing":"20:00"}]},{"weekDay":4,"timeRanges":[{"opening":"08:00","closing":"20:00"}]},{"weekDay":5,"timeRanges":[{"opening":"08:00","closing":"20:00"}]},{"weekDay":6,"timeRanges":[{"opening":"08:00","closing":"20:00"}]},{"weekDay":7,"timeRanges":[{"opening":"08:00","closing":"20:00"}]}]},{"storeNumber":"470","address":{"name":"dm drogerie markt s.r.o. - pro","street":"Dru\u017estevn\u00ed 2072","streetAdditional":"STOP SHOP","zip":"753 01","city":"Hranice na Morav\u011b"},"location":{"lat":49.5584293,"lon":17.7430768},"openingHours":[{"weekDay":1,"timeRanges":[{"opening":"08:00","closing":"20:00"}]},{"weekDay":2,"timeRanges":[{"opening":"08:00","closing":"20:00"},{"opening":"08:00","closing":"20:00"}]},{"weekDay":3,"timeRanges":[{"opening":"08:00","closing":"20:00"}]},{"weekDay":4,"timeRanges":[{"opening":"08:00","closing":"20:00"}]},{"weekDay":5,"timeRanges":[{"opening":"08:00","closing":"20:00"}]},{"weekDay":6,"timeRanges":[{"opening":"08:00","closing":"20:00"}]},{"weekDay":7,"timeRanges":[{"opening":"08:00","closing":"20:00"}]}]},{"storeNumber":"471","address":{"name":"dm drogerie markt s.r.o. - pro","street":"Na Pankr\u00e1ci 86","streetAdditional":"Ark\u00e1dy Pankr\u00e1c","zip":"140 00","city":"Praha","district":"4"},"location":{"lat":50.0505004,"lon":14.4374024},"openingHours":[{"weekDay":1,"timeRanges":[{"opening":"08:00","closing":"21:00"}]},{"weekDay":2,"timeRanges":[{"opening":"08:00","closing":"21:00"},{"opening":"08:00","closing":"21:00"}]},{"weekDay":3,"timeRanges":[{"opening":"08:00","closing":"21:00"}]},{"weekDay":4,"timeRanges":[{"opening":"08:00","closing":"21:00"}]},{"weekDay":5,"timeRanges":[{"opening":"08:00","closing":"21:00"}]},{"weekDay":6,"timeRanges":[{"opening":"09:00","closing":"21:00"}]},{"weekDay":7,"timeRanges":[{"opening":"09:00","closing":"21:00"}]}]},{"storeNumber":"473","address":{"name":"dm drogerie markt s.r.o. - pro","street":"Pelh\u0159imovsk\u00e1 70\/3","streetAdditional":"Shopping Jihlava","zip":"586 01","city":"Jihlava"},"location":{"lat":49.3938104,"lon":15.5528774},"openingHours":[{"weekDay":1,"timeRanges":[{"opening":"08:00","closing":"20:00"}]},{"weekDay":2,"timeRanges":[{"opening":"08:00","closing":"20:00"},{"opening":"08:00","closing":"20:00"}]},{"weekDay":3,"timeRanges":[{"opening":"08:00","closing":"20:00"}]},{"weekDay":4,"timeRanges":[{"opening":"08:00","closing":"20:00"}]},{"weekDay":5,"timeRanges":[{"opening":"08:00","closing":"20:00"}]},{"weekDay":6,"timeRanges":[{"opening":"08:00","closing":"20:00"}]},{"weekDay":7,"timeRanges":[{"opening":"08:00","closing":"20:00"}]}]},{"storeNumber":"474","address":{"name":"dm drogerie markt s.r.o. - pro","street":"Hradebn\u00ed 5440\/1","streetAdditional":"Citypark Jihlava","zip":"586 01","city":"Jihlava"},"location":{"lat":49.3929078,"lon":15.5925193},"openingHours":[{"weekDay":1,"timeRanges":[{"opening":"08:30","closing":"21:00"}]},{"weekDay":2,"timeRanges":[{"opening":"08:30","closing":"21:00"},{"opening":"08:30","closing":"21:00"}]},{"weekDay":3,"timeRanges":[{"opening":"08:30","closing":"21:00"}]},{"weekDay":4,"timeRanges":[{"opening":"08:30","closing":"21:00"}]},{"weekDay":5,"timeRanges":[{"opening":"08:30","closing":"21:00"}]},{"weekDay":6,"timeRanges":[{"opening":"08:30","closing":"21:00"}]},{"weekDay":7,"timeRanges":[{"opening":"08:30","closing":"21:00"}]}]},{"storeNumber":"477","address":{"name":"dm drogerie markt s.r.o. - pro","street":"\u0158evnick\u00e1 1\/121","streetAdditional":"Metropole Zli\u010d\u00edn","zip":"155 21","city":"Praha","district":"5 Zli\u010d\u00edn"},"location":{"lat":50.0528563,"lon":14.2849073},"openingHours":[{"weekDay":1,"timeRanges":[{"opening":"08:00","closing":"21:00"}]},{"weekDay":2,"timeRanges":[{"opening":"08:00","closing":"21:00"},{"opening":"08:00","closing":"21:00"}]},{"weekDay":3,"timeRanges":[{"opening":"08:00","closing":"21:00"}]},{"weekDay":4,"timeRanges":[{"opening":"08:00","closing":"21:00"}]},{"weekDay":5,"timeRanges":[{"opening":"08:00","closing":"21:00"}]},{"weekDay":6,"timeRanges":[{"opening":"09:00","closing":"21:00"}]},{"weekDay":7,"timeRanges":[{"opening":"09:00","closing":"21:00"}]}]},{"storeNumber":"479","address":{"name":"dm drogerie markt s.r.o. - pro","street":"V\u00fdchodn\u00ed 2132","streetAdditional":"STOP SHOP","zip":"686 03","city":"Star\u00e9 M\u011bsto"},"location":{"lat":49.0778174,"lon":17.4562741},"openingHours":[{"weekDay":1,"timeRanges":[{"opening":"08:00","closing":"20:00"}]},{"weekDay":2,"timeRanges":[{"opening":"08:00","closing":"20:00"},{"opening":"08:00","closing":"20:00"}]},{"weekDay":3,"timeRanges":[{"opening":"08:00","closing":"20:00"}]},{"weekDay":4,"timeRanges":[{"opening":"08:00","closing":"20:00"}]},{"weekDay":5,"timeRanges":[{"opening":"08:00","closing":"20:00"}]},{"weekDay":6,"timeRanges":[{"opening":"08:00","closing":"20:00"}]},{"weekDay":7,"timeRanges":[{"opening":"08:00","closing":"20:00"}]}]},{"storeNumber":"480","address":{"name":"dm drogerie markt s.r.o. - pro","street":"Dvo\u0159\u00e1kova 1162","zip":"563 01","city":"Lan\u0161kroun","district":"\u017dichl\u00ednsk\u00e9 P\u0159edm\u011bst\u00ed"},"location":{"lat":49.9116224,"lon":16.6032768},"openingHours":[{"weekDay":1,"timeRanges":[{"opening":"08:00","closing":"20:00"}]},{"weekDay":2,"timeRanges":[{"opening":"08:00","closing":"20:00"},{"opening":"08:00","closing":"20:00"}]},{"weekDay":3,"timeRanges":[{"opening":"08:00","closing":"20:00"}]},{"weekDay":4,"timeRanges":[{"opening":"08:00","closing":"20:00"}]},{"weekDay":5,"timeRanges":[{"opening":"08:00","closing":"20:00"}]},{"weekDay":6,"timeRanges":[{"opening":"08:00","closing":"20:00"}]},{"weekDay":7,"timeRanges":[{"opening":"08:00","closing":"20:00"}]}]},{"storeNumber":"481","address":{"name":"dm drogerie markt s.r.o. - pro","street":"U \u010c\u00e1pova dvora 3125","streetAdditional":"STOP SHOP","zip":"390 05","city":"T\u00e1bor"},"location":{"lat":49.3960553,"lon":14.6887439},"openingHours":[{"weekDay":1,"timeRanges":[{"opening":"08:00","closing":"20:00"}]},{"weekDay":2,"timeRanges":[{"opening":"08:00","closing":"20:00"},{"opening":"08:00","closing":"20:00"}]},{"weekDay":3,"timeRanges":[{"opening":"08:00","closing":"20:00"}]},{"weekDay":4,"timeRanges":[{"opening":"08:00","closing":"20:00"}]},{"weekDay":5,"timeRanges":[{"opening":"08:00","closing":"20:00"}]},{"weekDay":6,"timeRanges":[{"opening":"08:00","closing":"20:00"}]},{"weekDay":7,"timeRanges":[{"opening":"08:00","closing":"20:00"}]}]},{"storeNumber":"482","address":{"name":"dm drogerie markt s.r.o. - pro","street":"Za Ot\u00fdli\u00ed 2885\/5","zip":"370 01","city":"\u010cesk\u00e9 Bud\u011bjovice"},"location":{"lat":48.9963971,"lon":14.4887486},"openingHours":[{"weekDay":1,"timeRanges":[{"opening":"08:00","closing":"20:00"}]},{"weekDay":2,"timeRanges":[{"opening":"08:00","closing":"20:00"},{"opening":"08:00","closing":"20:00"}]},{"weekDay":3,"timeRanges":[{"opening":"08:00","closing":"20:00"}]},{"weekDay":4,"timeRanges":[{"opening":"08:00","closing":"20:00"}]},{"weekDay":5,"timeRanges":[{"opening":"08:00","closing":"20:00"}]},{"weekDay":6,"timeRanges":[{"opening":"08:00","closing":"20:00"}]},{"weekDay":7,"timeRanges":[{"opening":"08:00","closing":"20:00"}]}]},{"storeNumber":"483","address":{"name":"dm drogerie markt s.r.o. - pro","street":"Pivovarsk\u00e1 2814\/21a","streetAdditional":"Pivovar","zip":"350 02","city":"Cheb"},"location":{"lat":50.0775145,"lon":12.3794379},"openingHours":[{"weekDay":1,"timeRanges":[{"opening":"08:00","closing":"20:00"}]},{"weekDay":2,"timeRanges":[{"opening":"08:00","closing":"20:00"},{"opening":"08:00","closing":"20:00"}]},{"weekDay":3,"timeRanges":[{"opening":"08:00","closing":"20:00"}]},{"weekDay":4,"timeRanges":[{"opening":"08:00","closing":"20:00"}]},{"weekDay":5,"timeRanges":[{"opening":"08:00","closing":"20:00"}]},{"weekDay":6,"timeRanges":[{"opening":"08:00","closing":"20:00"}]},{"weekDay":7,"timeRanges":[{"opening":"08:00","closing":"20:00"}]}]},{"storeNumber":"485","address":{"name":"dm drogerie markt s.r.o. - pro","street":"V\u00edta Nejedl\u00e9ho 1618","streetAdditional":"VENDO PARK","zip":"295 01","city":"Mnichovo Hradi\u0161t\u011b"},"location":{"lat":50.5165935,"lon":14.9735264},"openingHours":[{"weekDay":1,"timeRanges":[{"opening":"08:00","closing":"19:00"}]},{"weekDay":2,"timeRanges":[{"opening":"08:00","closing":"19:00"},{"opening":"08:00","closing":"19:00"}]},{"weekDay":3,"timeRanges":[{"opening":"08:00","closing":"19:00"}]},{"weekDay":4,"timeRanges":[{"opening":"08:00","closing":"19:00"}]},{"weekDay":5,"timeRanges":[{"opening":"08:00","closing":"19:00"}]},{"weekDay":6,"timeRanges":[{"opening":"08:00","closing":"19:00"}]},{"weekDay":7,"timeRanges":[{"opening":"09:00","closing":"19:00"}]}]},{"storeNumber":"488","address":{"name":"dm drogerie markt s.r.o. - pro","street":"9. kv\u011btna 1196","zip":"735 81","city":"Bohum\u00edn"},"location":{"lat":49.8996215,"lon":18.3513528},"openingHours":[{"weekDay":1,"timeRanges":[{"opening":"08:00","closing":"20:00"}]},{"weekDay":2,"timeRanges":[{"opening":"08:00","closing":"20:00"},{"opening":"08:00","closing":"20:00"}]},{"weekDay":3,"timeRanges":[{"opening":"08:00","closing":"20:00"}]},{"weekDay":4,"timeRanges":[{"opening":"08:00","closing":"20:00"}]},{"weekDay":5,"timeRanges":[{"opening":"08:00","closing":"20:00"}]},{"weekDay":6,"timeRanges":[{"opening":"08:00","closing":"20:00"}]},{"weekDay":7,"timeRanges":[{"opening":"08:00","closing":"20:00"}]}]},{"storeNumber":"491","address":{"name":"dm drogerie markt s.r.o. - pro","street":"N\u00e1dra\u017en\u00ed 2\/2065","streetAdditional":"S1 Center Karvin\u00e1","zip":"733 24","city":"Karvin\u00e1-Fry\u0161t\u00e1t"},"location":{"lat":49.8549203,"lon":18.5293072},"openingHours":[{"weekDay":1,"timeRanges":[{"opening":"08:00","closing":"20:00"}]},{"weekDay":2,"timeRanges":[{"opening":"08:00","closing":"20:00"},{"opening":"08:00","closing":"20:00"}]},{"weekDay":3,"timeRanges":[{"opening":"08:00","closing":"20:00"}]},{"weekDay":4,"timeRanges":[{"opening":"08:00","closing":"20:00"}]},{"weekDay":5,"timeRanges":[{"opening":"08:00","closing":"20:00"}]},{"weekDay":6,"timeRanges":[{"opening":"08:00","closing":"20:00"}]},{"weekDay":7,"timeRanges":[{"opening":"08:00","closing":"20:00"}]}]},{"storeNumber":"492","address":{"name":"dm drogerie markt s.r.o. - pro","street":"Dr. Farsk\u00e9ho 4732","streetAdditional":"Chomutovka","zip":"430 01","city":"Chomutov"},"location":{"lat":50.4621098,"lon":13.4144294},"openingHours":[{"weekDay":1,"timeRanges":[{"opening":"08:00","closing":"19:00"}]},{"weekDay":2,"timeRanges":[{"opening":"08:00","closing":"19:00"},{"opening":"08:00","closing":"19:00"}]},{"weekDay":3,"timeRanges":[{"opening":"08:00","closing":"19:00"}]},{"weekDay":4,"timeRanges":[{"opening":"08:00","closing":"19:00"}]},{"weekDay":5,"timeRanges":[{"opening":"08:00","closing":"19:00"}]},{"weekDay":6,"timeRanges":[{"opening":"08:00","closing":"19:00"}]},{"weekDay":7,"timeRanges":[{"opening":"08:00","closing":"19:00"}]}]},{"storeNumber":"493","address":{"name":"dm drogerie markt s.r.o. \u2013 pro","street":"Schoellerova ul. 1292\/18","streetAdditional":"\u010cakovice","zip":"196 00","city":"Praha","district":"9"},"location":{"lat":50.1565915,"lon":14.5231992},"openingHours":[{"weekDay":1,"timeRanges":[{"opening":"08:00","closing":"20:00"}]},{"weekDay":2,"timeRanges":[{"opening":"08:00","closing":"20:00"},{"opening":"08:00","closing":"20:00"}]},{"weekDay":3,"timeRanges":[{"opening":"08:00","closing":"20:00"}]},{"weekDay":4,"timeRanges":[{"opening":"08:00","closing":"20:00"}]},{"weekDay":5,"timeRanges":[{"opening":"08:00","closing":"20:00"}]},{"weekDay":6,"timeRanges":[{"opening":"08:00","closing":"20:00"}]},{"weekDay":7,"timeRanges":[{"opening":"08:00","closing":"20:00"}]}]},{"storeNumber":"494","address":{"name":"dm drogerie markt s.r.o. - pro","street":"Le\u0161tinsk\u00e1 2429\/1","streetAdditional":"Z\u00e1b\u0159eh","zip":"789 01","city":"Z\u00e1b\u0159eh"},"location":{"lat":49.8775827,"lon":16.8854369},"openingHours":[{"weekDay":1,"timeRanges":[{"opening":"08:00","closing":"20:00"}]},{"weekDay":2,"timeRanges":[{"opening":"08:00","closing":"20:00"},{"opening":"08:00","closing":"20:00"}]},{"weekDay":3,"timeRanges":[{"opening":"08:00","closing":"20:00"}]},{"weekDay":4,"timeRanges":[{"opening":"08:00","closing":"20:00"}]},{"weekDay":5,"timeRanges":[{"opening":"08:00","closing":"20:00"}]},{"weekDay":6,"timeRanges":[{"opening":"08:00","closing":"20:00"}]},{"weekDay":7,"timeRanges":[{"opening":"08:00","closing":"20:00"}]}]},{"storeNumber":"495","address":{"name":"dm drogerie markt s.r.o. - pro","street":"Obchodn\u00ed 329","streetAdditional":"\u010cestlice Spektrum","zip":"251 01","city":"\u010cestlice","district":"Praha-V\u00fdchod"},"location":{"lat":50.0043996,"lon":14.5725423},"openingHours":[{"weekDay":1,"timeRanges":[{"opening":"08:00","closing":"21:00"}]},{"weekDay":2,"timeRanges":[{"opening":"08:00","closing":"21:00"},{"opening":"08:00","closing":"21:00"}]},{"weekDay":3,"timeRanges":[{"opening":"08:00","closing":"21:00"}]},{"weekDay":4,"timeRanges":[{"opening":"08:00","closing":"21:00"}]},{"weekDay":5,"timeRanges":[{"opening":"08:00","closing":"21:00"}]},{"weekDay":6,"timeRanges":[{"opening":"08:00","closing":"21:00"}]},{"weekDay":7,"timeRanges":[{"opening":"08:00","closing":"21:00"}]}]},{"storeNumber":"496","address":{"name":"dm drogerie markt s.r.o. - pro","street":"Evropsk\u00e1 866\/71","streetAdditional":"Centrum Bo\u0159islavka","zip":"160 00","city":"Praha","district":"6 Vokovice"},"location":{"lat":50.0982422,"lon":14.3663543},"openingHours":[{"weekDay":1,"timeRanges":[{"opening":"08:00","closing":"21:00"}]},{"weekDay":2,"timeRanges":[{"opening":"08:00","closing":"21:00"},{"opening":"08:00","closing":"21:00"}]},{"weekDay":3,"timeRanges":[{"opening":"08:00","closing":"21:00"}]},{"weekDay":4,"timeRanges":[{"opening":"08:00","closing":"21:00"}]},{"weekDay":5,"timeRanges":[{"opening":"08:00","closing":"21:00"}]},{"weekDay":6,"timeRanges":[{"opening":"09:00","closing":"21:00"}]},{"weekDay":7,"timeRanges":[{"opening":"09:00","closing":"21:00"}]}]},{"storeNumber":"498","address":{"name":"dm drogerie markt s.r.o. - pro","street":"Novodvorsk\u00e1 1800\/136","streetAdditional":"OC Novo Plaza","zip":"142 00","city":"Praha"},"location":{"lat":50.0261725,"lon":14.4329529},"openingHours":[{"weekDay":1,"timeRanges":[{"opening":"09:00","closing":"21:00"}]},{"weekDay":2,"timeRanges":[{"opening":"09:00","closing":"21:00"},{"opening":"09:00","closing":"21:00"}]},{"weekDay":3,"timeRanges":[{"opening":"09:00","closing":"21:00"}]},{"weekDay":4,"timeRanges":[{"opening":"09:00","closing":"21:00"}]},{"weekDay":5,"timeRanges":[{"opening":"09:00","closing":"21:00"}]},{"weekDay":6,"timeRanges":[{"opening":"09:00","closing":"21:00"}]},{"weekDay":7,"timeRanges":[{"opening":"09:00","closing":"21:00"}]}]},{"storeNumber":"499","address":{"name":"dm drogerie markt s.r.o. - pro","street":"n\u00e1m. Republiky 656\/8","streetAdditional":"Kotva","zip":"110 00","city":"Praha","district":"1"},"location":{"lat":50.0890968,"lon":14.4277019},"openingHours":[{"weekDay":1,"timeRanges":[{"opening":"09:00","closing":"20:00"}]},{"weekDay":2,"timeRanges":[{"opening":"09:00","closing":"20:00"},{"opening":"09:00","closing":"20:00"}]},{"weekDay":3,"timeRanges":[{"opening":"09:00","closing":"20:00"}]},{"weekDay":4,"timeRanges":[{"opening":"09:00","closing":"20:00"}]},{"weekDay":5,"timeRanges":[{"opening":"09:00","closing":"20:00"}]},{"weekDay":6,"timeRanges":[{"opening":"09:00","closing":"20:00"}]},{"weekDay":7,"timeRanges":[{"opening":"09:00","closing":"20:00"}]}]},{"storeNumber":"504","address":{"name":"dm drogerie markt s.r.o. - pro","street":"V\u00edde\u0148sk\u00e1 100","streetAdditional":"Futurum","zip":"619 00","city":"Brno"},"location":{"lat":49.1564125,"lon":16.5981715},"openingHours":[{"weekDay":1,"timeRanges":[{"opening":"08:00","closing":"20:00"}]},{"weekDay":2,"timeRanges":[{"opening":"08:00","closing":"20:00"},{"opening":"08:00","closing":"20:00"}]},{"weekDay":3,"timeRanges":[{"opening":"08:00","closing":"20:00"}]},{"weekDay":4,"timeRanges":[{"opening":"08:00","closing":"20:00"}]},{"weekDay":5,"timeRanges":[{"opening":"08:00","closing":"20:00"}]},{"weekDay":6,"timeRanges":[{"opening":"08:00","closing":"20:00"}]},{"weekDay":7,"timeRanges":[{"opening":"08:00","closing":"20:00"}]}]}]